{"meta": {"code": 200, "requestId": "5fedda048ed5f550e57f9ed6"}, "response": {"suggestedFilters": {"header": "Tap to show:", "filters": [{"name": "Open now", "key": "openNow"}]}, "headerLocation": "Lambeth", "headerFullLocation": "Lambeth, London", "headerLocationGranularity": "neighborhood", "query": "food", "totalResults": 10, "suggestedBounds": {"ne": {"lat": 51.483824003600006, "lng": -0.12275929843835011}, "sw": {"lat": 51.476623996399994, "lng": -0.13429870156164989}}, "groups": [{"type": "Recommended Places", "name": "recommended", "items": [{"reasons": {"count": 0, "items": [{"summary": "This spot is popular", "type": "general", "reasonName": "globalInteractionReason"}]}, "venue": {"id": "4aeb0b96f964a52087bd21e3", "name": "Hot Stuff", "location": {"address": "19 Wilcox Rd", "lat": 51.47961154586812, "lng": -0.12648125782550543, "labeledLatLngs": [{"label": "display", "lat": 51.47961154586812, "lng": -0.12648125782550543}], "distance": 157, "postalCode": "SW8 2XA", "cc": "GB", "city": "London", "state": "Greater London", "country": "United Kingdom", "formattedAddress": ["19 Wilcox Rd", "London", "Greater London", "SW8 2XA", "United Kingdom"]}, "categories": [{"id": "4bf58dd8d48988d10f941735", "name": "Indian Restaurant", "pluralName": "Indian Restaurants", "shortName": "Indian", "icon": {"prefix": "https://ss3.4sqi.net/img/categories_v2/food/indian_", "suffix": ".png"}, "primary": true}], "photos": {"count": 0, "groups": []}}, "referralId": "e-0-4aeb0b96f964a52087bd21e3-0"}, {"reasons": {"count": 0, "items": [{"summary": "This spot is popular", "type": "general", "reasonName": "globalInteractionReason"}]}, "venue": {"id": "4c34f72d213c2d7fe363395d", "name": "Tia Maria", "location": {"address": "126 South Lambeth Road", "lat": 51.4810517608378, "lng": -0.12464037876230732, "labeledLatLngs": [{"label": "display", "lat": 51.4810517608378, "lng": -0.12464037876230732}], "distance": 284, "postalCode": "SW8 1RB", "cc": "GB", "city": "London", "state": "Greater London", "country": "United Kingdom", "formattedAddress": ["126 South Lambeth Road", "London", "Greater London", "SW8 1RB", "United Kingdom"]}, "categories": [{"id": "4bf58dd8d48988d155941735", "name": "Gastropub", "pluralName": "Gastropubs", "shortName": "Gastropub", "icon": {"prefix": "https://ss3.4sqi.net/img/categories_v2/food/gastropub_", "suffix": ".png"}, "primary": true}], "photos": {"count": 0, "groups": []}, "venuePage": {"id": "76820334"}}, "referralId": "e-0-4c34f72d213c2d7fe363395d-1"}, {"reasons": {"count": 0, "items": [{"summary": "This spot is popular", "type": "general", "reasonName": "globalInteractionReason"}]}, "venue": {"id": "5cdc63eb28374e002c0a67fb", "name": "Darby\u2019s", "location": {"address": "3 Viaduct Gdns", "lat": 51.48214, "lng": -0.131016, "labeledLatLngs": [{"label": "display", "lat": 51.48214, "lng": -0.131016}], "distance": 274, "postalCode": "SW11 7AY", "cc": "GB", "city": "Nine Elms", "state": "Greater London", "country": "United Kingdom", "formattedAddress": ["3 Viaduct Gdns", "Nine Elms", "Greater London", "SW11 7AY", "United Kingdom"]}, "categories": [{"id": "4bf58dd8d48988d1c4941735", "name": "Restaurant", "pluralName": "Restaurants", "shortName": "Restaurant", "icon": {"prefix": "https://ss3.4sqi.net/img/categories_v2/food/default_", "suffix": ".png"}, "primary": true}], "photos": {"count": 0, "groups": []}}, "referralId": "e-0-5cdc63eb28374e002c0a67fb-2"}, {"reasons": {"count": 0, "items": [{"summary": "This spot is popular", "type": "general", "reasonName": "globalInteractionReason"}]}, "venue": {"id": "5333145e498e434340513f04", "name": "Ocean Blue Fish & Chips", "location": {"lat": 51.47704567075753, "lng": -0.12995488477851033, "labeledLatLngs": [{"label": "display", "lat": 51.47704567075753, "lng": -0.12995488477851033}], "distance": 367, "cc": "GB", "country": "United Kingdom", "formattedAddress": ["United Kingdom"]}, "categories": [{"id": "4edd64a0c7ddd24ca188df1a", "name": "Fish & Chips Shop", "pluralName": "Fish & Chips Shops", "shortName": "Fish & Chips", "icon": {"prefix": "https://ss3.4sqi.net/img/categories_v2/food/fishandchips_", "suffix": ".png"}, "primary": true}], "photos": {"count": 0, "groups": []}}, "referralId": "e-0-5333145e498e434340513f04-3"}, {"reasons": {"count": 0, "items": [{"summary": "This spot is popular", "type": "general", "reasonName": "globalInteractionReason"}]}, "venue": {"id": "4bcca3d8cc8cd13acd4bc1cf", "name": "The Three Lions", "location": {"lat": 51.47895535980448, "lng": -0.12351405993998738, "labeledLatLngs": [{"label": "display", "lat": 51.47895535980448, "lng": -0.12351405993998738}], "distance": 375, "cc": "GB", "country": "United Kingdom", "formattedAddress": ["United Kingdom"]}, "categories": [{"id": "4def73e84765ae376e57713a", "name": "Portuguese Restaurant", "pluralName": "Portuguese Restaurants", "shortName": "Portuguese", "icon": {"prefix": "https://ss3.4sqi.net/img/categories_v2/food/portuguese_", "suffix": ".png"}, "primary": true}], "photos": {"count": 0, "groups": []}}, "referralId": "e-0-4bcca3d8cc8cd13acd4bc1cf-4"}, {"reasons": {"count": 0, "items": [{"summary": "This spot is popular", "type": "general", "reasonName": "globalInteractionReason"}]}, "venue": {"id": "50f70185e4b07eb7252527af", "name": "Mumbai Delight", "location": {"address": "51A S Lambeth Rd", "lat": 51.482250127034504, "lng": -0.12426536220110056, "labeledLatLngs": [{"label": "display", "lat": 51.482250127034504, "lng": -0.12426536220110056}], "distance": 371, "postalCode": "SW9 1RH", "cc": "GB", "city": "Vauxhall", "state": "Greater London", "country": "United Kingdom", "formattedAddress": ["51A S Lambeth Rd", "Vauxhall", "Greater London", "SW9 1RH", "United Kingdom"]}, "categories": [{"id": "4bf58dd8d48988d10f941735", "name": "Indian Restaurant", "pluralName": "Indian Restaurants", "shortName": "Indian", "icon": {"prefix": "https://ss3.4sqi.net/img/categories_v2/food/indian_", "suffix": ".png"}, "primary": true}], "photos": {"count": 0, "groups": []}}, "referralId": "e-0-50f70185e4b07eb7252527af-5"}, {"reasons": {"count": 0, "items": [{"summary": "This spot is popular", "type": "general", "reasonName": "globalInteractionReason"}]}, "venue": {"id": "4b4a1c1ef964a520ec7a26e3", "name": "Harare Restaurant", "location": {"address": "49 South Lambeth Road", "lat": 51.482338803635095, "lng": -0.12422541875728653, "labeledLatLngs": [{"label": "display", "lat": 51.482338803635095, "lng": -0.12422541875728653}], "distance": 380, "postalCode": "SW8 1RH", "cc": "GB", "city": "London", "state": "Greater London", "country": "United Kingdom", "formattedAddress": ["49 South Lambeth Road", "London", "Greater London", "SW8 1RH", "United Kingdom"]}, "categories": [{"id": "4bf58dd8d48988d10a941735", "name": "Ethiopian Restaurant", "pluralName": "Ethiopian Restaurants", "shortName": "Ethiopian", "icon": {"prefix": "https://ss3.4sqi.net/img/categories_v2/food/ethiopian_", "suffix": ".png"}, "primary": true}], "photos": {"count": 0, "groups": []}}, "referralId": "e-0-4b4a1c1ef964a520ec7a26e3-6"}, {"reasons": {"count": 0, "items": [{"summary": "This spot is popular", "type": "general", "reasonName": "globalInteractionReason"}]}, "venue": {"id": "4ac518d4f964a520c3a720e3", "name": "Bar Estrela", "location": {"address": "111 South Lambeth Rd", "lat": 51.47928371033847, "lng": -0.12358452384135192, "labeledLatLngs": [{"label": "display", "lat": 51.47928371033847, "lng": -0.12358452384135192}], "distance": 358, "postalCode": "SW8 1UZ", "cc": "GB", "city": "London", "state": "Greater London", "country": "United Kingdom", "formattedAddress": ["111 South Lambeth Rd", "London", "Greater London", "SW8 1UZ", "United Kingdom"]}, "categories": [{"id": "4def73e84765ae376e57713a", "name": "Portuguese Restaurant", "pluralName": "Portuguese Restaurants", "shortName": "Portuguese", "icon": {"prefix": "https://ss3.4sqi.net/img/categories_v2/food/portuguese_", "suffix": ".png"}, "primary": true}], "photos": {"count": 0, "groups": []}}, "referralId": "e-0-4ac518d4f964a520c3a720e3-7"}, {"reasons": {"count": 0, "items": [{"summary": "This spot is popular", "type": "general", "reasonName": "globalInteractionReason"}]}, "venue": {"id": "4bb996f2b35776b04d06ca01", "name": "Cafe Portugal", "location": {"address": "5a-6a Victoria House", "crossStreet": "S Lambeth Rd", "lat": 51.48019319638582, "lng": -0.12419633203815035, "labeledLatLngs": [{"label": "display", "lat": 51.48019319638582, "lng": -0.12419633203815035}], "distance": 300, "postalCode": "SW8 1QT", "cc": "GB", "neighborhood": "London", "city": "London", "state": "Greater London", "country": "United Kingdom", "formattedAddress": ["5a-6a Victoria House (S Lambeth Rd)", "London", "Greater London", "SW8 1QT", "United Kingdom"]}, "categories": [{"id": "4def73e84765ae376e57713a", "name": "Portuguese Restaurant", "pluralName": "Portuguese Restaurants", "shortName": "Portuguese", "icon": {"prefix": "https://ss3.4sqi.net/img/categories_v2/food/portuguese_", "suffix": ".png"}, "primary": true}], "photos": {"count": 0, "groups": []}}, "referralId": "e-0-4bb996f2b35776b04d06ca01-8"}, {"reasons": {"count": 0, "items": [{"summary": "This spot is popular", "type": "general", "reasonName": "globalInteractionReason"}]}, "venue": {"id": "4c18ee86838020a17ee3e461", "name": "Chicago Pizza", "location": {"address": "129 South Lambeth Road", "lat": 51.478719, "lng": -0.12344, "labeledLatLngs": [{"label": "display", "lat": 51.478719, "lng": -0.12344}], "distance": 390, "postalCode": "SW8 1XB", "cc": "GB", "city": "London", "state": "Greater London", "country": "United Kingdom", "formattedAddress": ["129 South Lambeth Road", "London", "Greater London", "SW8 1XB", "United Kingdom"]}, "categories": [{"id": "4bf58dd8d48988d1ca941735", "name": "Pizza Place", "pluralName": "Pizza Places", "shortName": "Pizza", "icon": {"prefix": "https://ss3.4sqi.net/img/categories_v2/food/pizza_", "suffix": ".png"}, "primary": true}], "photos": {"count": 0, "groups": []}}, "referralId": "e-0-4c18ee86838020a17ee3e461-9"}]}]}}