{"meta": {"code": 200, "requestId": "5fedda4af2127f1c9f709b5f"}, "response": {"headerLocation": "Upton Park", "headerFullLocation": "Upton Park, London", "headerLocationGranularity": "neighborhood", "query": "food", "totalResults": 5, "suggestedBounds": {"ne": {"lat": 51.535720003600005, "lng": 0.04553627666908332}, "sw": {"lat": 51.52851999639999, "lng": 0.033983723330916676}}, "groups": [{"type": "Recommended Places", "name": "recommended", "items": [{"reasons": {"count": 0, "items": [{"summary": "This spot is popular", "type": "general", "reasonName": "globalInteractionReason"}]}, "venue": {"id": "4d2c9ed3888af04d2f01eaaf", "name": "Ercan Fish Bar", "location": {"address": "59 Barking Road", "lat": 51.530834, "lng": 0.040715, "labeledLatLngs": [{"label": "display", "lat": 51.530834, "lng": 0.040715}], "distance": 157, "postalCode": "E6 1PY", "cc": "GB", "city": "Upton Park", "state": "Greater London", "country": "United Kingdom", "formattedAddress": ["59 Barking Road", "Upton Park", "Greater London", "E6 1PY", "United Kingdom"]}, "categories": [{"id": "4edd64a0c7ddd24ca188df1a", "name": "Fish & Chips Shop", "pluralName": "Fish & Chips Shops", "shortName": "Fish & Chips", "icon": {"prefix": "https://ss3.4sqi.net/img/categories_v2/food/fishandchips_", "suffix": ".png"}, "primary": true}], "photos": {"count": 0, "groups": []}}, "referralId": "e-0-4d2c9ed3888af04d2f01eaaf-0"}, {"reasons": {"count": 0, "items": [{"summary": "This spot is popular", "type": "general", "reasonName": "globalInteractionReason"}]}, "venue": {"id": "4bd212c4b221c9b620dcd6d0", "name": "Domino's Pizza", "location": {"address": "136 Barking Road, East Ham", "lat": 51.5312405, "lng": 0.0445682, "labeledLatLngs": [{"label": "display", "lat": 51.5312405, "lng": 0.0445682}], "distance": 347, "postalCode": "E6 3BD", "cc": "GB", "city": "London", "state": "Greater London", "country": "United Kingdom", "formattedAddress": ["136 Barking Road, East Ham", "London", "Greater London", "E6 3BD", "United Kingdom"]}, "categories": [{"id": "4bf58dd8d48988d1ca941735", "name": "Pizza Place", "pluralName": "Pizza Places", "shortName": "Pizza", "icon": {"prefix": "https://ss3.4sqi.net/img/categories_v2/food/pizza_", "suffix": ".png"}, "primary": true}], "photos": {"count": 0, "groups": []}}, "referralId": "e-0-4bd212c4b221c9b620dcd6d0-1"}, {"reasons": {"count": 0, "items": [{"summary": "This spot is popular", "type": "general", "reasonName": "globalInteractionReason"}]}, "venue": {"id": "4bac8392f964a520a8f83ae3", "name": "Green Street Cafe", "location": {"address": "570 Green Street", "lat": 51.53063964456957, "lng": 0.037636756896972656, "labeledLatLngs": [{"label": "display", "lat": 51.53063964456957, "lng": 0.037636756896972656}], "distance": 220, "postalCode": "E13 9DA", "cc": "GB", "city": "London", "state": "Greater London", "country": "United Kingdom", "formattedAddress": ["570 Green Street", "London", "Greater London", "E13 9DA", "United Kingdom"]}, "categories": [{"id": "4bf58dd8d48988d16d941735", "name": "Caf\u00e9", "pluralName": "Caf\u00e9s", "shortName": "Caf\u00e9", "icon": {"prefix": "https://ss3.4sqi.net/img/categories_v2/food/cafe_", "suffix": ".png"}, "primary": true}], "photos": {"count": 0, "groups": []}}, "referralId": "e-0-4bac8392f964a520a8f83ae3-2"}, {"reasons": {"count": 0, "items": [{"summary": "This spot is popular", "type": "general", "reasonName": "globalInteractionReason"}]}, "venue": {"id": "4d61a996d7206ea851ec02f2", "name": "Friends Coffee House", "location": {"address": "749 Barking Road", "lat": 51.53028616893825, "lng": 0.037814345132614446, "labeledLatLngs": [{"label": "display", "lat": 51.53028616893825, "lng": 0.037814345132614446}], "distance": 244, "postalCode": "E13 9ER", "cc": "GB", "city": "Plaistow", "state": "Greater London", "country": "United Kingdom", "formattedAddress": ["749 Barking Road", "Plaistow", "Greater London", "E13 9ER", "United Kingdom"]}, "categories": [{"id": "4bf58dd8d48988d16d941735", "name": "Caf\u00e9", "pluralName": "Caf\u00e9s", "shortName": "Caf\u00e9", "icon": {"prefix": "https://ss3.4sqi.net/img/categories_v2/food/cafe_", "suffix": ".png"}, "primary": true}], "photos": {"count": 0, "groups": []}}, "referralId": "e-0-4d61a996d7206ea851ec02f2-3"}, {"reasons": {"count": 0, "items": [{"summary": "This spot is popular", "type": "general", "reasonName": "globalInteractionReason"}]}, "venue": {"id": "4c9df84946978cfa25849c7f", "name": "Sam's Chicken", "location": {"lat": 51.53046494588201, "lng": 0.04391162783927691, "labeledLatLngs": [{"label": "display", "lat": 51.53046494588201, "lng": 0.04391162783927691}], "distance": 341, "cc": "GB", "country": "United Kingdom", "formattedAddress": ["United Kingdom"]}, "categories": [{"id": "4bf58dd8d48988d16e941735", "name": "Fast Food Restaurant", "pluralName": "Fast Food Restaurants", "shortName": "Fast Food", "icon": {"prefix": "https://ss3.4sqi.net/img/categories_v2/food/fastfood_", "suffix": ".png"}, "primary": true}], "photos": {"count": 0, "groups": []}}, "referralId": "e-0-4c9df84946978cfa25849c7f-4"}]}]}}