{"meta": {"code": 200, "requestId": "5feddb7620e8e9667588096b"}, "response": {"warning": {"text": "There aren't a lot of results near you. Try something more general, reset your filters, or expand the search area."}, "headerLocation": "Lambeth", "headerFullLocation": "Lambeth, London", "headerLocationGranularity": "neighborhood", "query": "arts entertainment", "totalResults": 3, "suggestedBounds": {"ne": {"lat": 51.489807003600006, "lng": -0.11357154141044229}, "sw": {"lat": 51.482606996399994, "lng": -0.12511245858955772}}, "groups": [{"type": "Recommended Places", "name": "recommended", "items": [{"reasons": {"count": 0, "items": [{"summary": "This spot is popular", "type": "general", "reasonName": "globalInteractionReason"}]}, "venue": {"id": "5b1641e71ffe97002c4f809e", "name": "Above The Stag Theatre", "location": {"address": "72 Albert Embankment", "lat": 51.48751986231018, "lng": -0.1231495649243991, "labeledLatLngs": [{"label": "display", "lat": 51.48751986231018, "lng": -0.1231495649243991}], "distance": 301, "postalCode": "SE1 7TP", "cc": "GB", "city": "London", "state": "Greater London", "country": "United Kingdom", "formattedAddress": ["72 Albert Embankment", "London", "Greater London", "SE1 7TP", "United Kingdom"]}, "categories": [{"id": "4bf58dd8d48988d137941735", "name": "Theater", "pluralName": "Theaters", "shortName": "Theater", "icon": {"prefix": "https://ss3.4sqi.net/img/categories_v2/arts_entertainment/performingarts_theater_", "suffix": ".png"}, "primary": true}], "photos": {"count": 0, "groups": []}, "venuePage": {"id": "495783187"}}, "referralId": "e-0-5b1641e71ffe97002c4f809e-0"}, {"reasons": {"count": 0, "items": [{"summary": "This spot is popular", "type": "general", "reasonName": "globalInteractionReason"}]}, "venue": {"id": "4e5a3985b0fbdca30a07e959", "name": "Gasworks", "location": {"address": "155 Vauxhall Street", "lat": 51.485072533486196, "lng": -0.11552118980570439, "labeledLatLngs": [{"label": "display", "lat": 51.485072533486196, "lng": -0.11552118980570439}], "distance": 293, "cc": "GB", "country": "United Kingdom", "formattedAddress": ["155 Vauxhall Street", "United Kingdom"]}, "categories": [{"id": "4bf58dd8d48988d1e2931735", "name": "Art Gallery", "pluralName": "Art Galleries", "shortName": "Art Gallery", "icon": {"prefix": "https://ss3.4sqi.net/img/categories_v2/arts_entertainment/artgallery_", "suffix": ".png"}, "primary": true}], "photos": {"count": 0, "groups": []}}, "referralId": "e-0-4e5a3985b0fbdca30a07e959-1"}, {"reasons": {"count": 0, "items": [{"summary": "This spot is popular", "type": "general", "reasonName": "globalInteractionReason"}]}, "venue": {"id": "4cc18dd2d363721eefb45ac9", "name": "Martinspeed", "location": {"lat": 51.488914, "lng": -0.122176, "labeledLatLngs": [{"label": "display", "lat": 51.488914, "lng": -0.122176}], "distance": 359, "cc": "GB", "country": "United Kingdom", "formattedAddress": ["United Kingdom"]}, "categories": [{"id": "4bf58dd8d48988d1e2931735", "name": "Art Gallery", "pluralName": "Art Galleries", "shortName": "Art Gallery", "icon": {"prefix": "https://ss3.4sqi.net/img/categories_v2/arts_entertainment/artgallery_", "suffix": ".png"}, "primary": true}], "photos": {"count": 0, "groups": []}}, "referralId": "e-0-4cc18dd2d363721eefb45ac9-2"}]}]}}