{"meta": {"code": 200, "requestId": "5fedd9b797e49419a42f3979"}, "response": {"suggestedFilters": {"header": "Tap to show:", "filters": [{"name": "Open now", "key": "openNow"}]}, "headerLocation": "Highbury East", "headerFullLocation": "Highbury East, London", "headerLocationGranularity": "neighborhood", "query": "food", "totalResults": 20, "suggestedBounds": {"ne": {"lat": 51.562937003600005, "lng": -0.09278026710655321}, "sw": {"lat": 51.55573699639999, "lng": -0.10433973289344678}}, "groups": [{"type": "Recommended Places", "name": "recommended", "items": [{"reasons": {"count": 0, "items": [{"summary": "This spot is popular", "type": "general", "reasonName": "globalInteractionReason"}]}, "venue": {"id": "4c167259cd4bc9b6ca6b4eeb", "name": "Yildiz", "location": {"address": "163 Blackstock Rd", "lat": 51.56113238672077, "lng": -0.09898451020660369, "labeledLatLngs": [{"label": "display", "lat": 51.56113238672077, "lng": -0.09898451020660369}], "distance": 202, "postalCode": "N4 2JS", "cc": "GB", "city": "Islington", "state": "Greater London", "country": "United Kingdom", "formattedAddress": ["163 Blackstock Rd", "Islington", "Greater London", "N4 2JS", "United Kingdom"]}, "categories": [{"id": "4f04af1f2fb6e1c99f3db0bb", "name": "Turkish Restaurant", "pluralName": "Turkish Restaurants", "shortName": "Turkish", "icon": {"prefix": "https://ss3.4sqi.net/img/categories_v2/food/turkish_", "suffix": ".png"}, "primary": true}], "photos": {"count": 0, "groups": []}}, "referralId": "e-0-4c167259cd4bc9b6ca6b4eeb-0"}, {"reasons": {"count": 0, "items": [{"summary": "This spot is popular", "type": "general", "reasonName": "globalInteractionReason"}]}, "venue": {"id": "53c79165498e72be1c07541e", "name": "Finks", "location": {"address": "70 Mountgrove Rd", "lat": 51.56123660573626, "lng": -0.09640750372227908, "labeledLatLngs": [{"label": "display", "lat": 51.56123660573626, "lng": -0.09640750372227908}], "distance": 258, "postalCode": "N5 2LT", "cc": "GB", "neighborhood": "Brownswood", "city": "London", "state": "Greater London", "country": "United Kingdom", "formattedAddress": ["70 Mountgrove Rd", "London", "Greater London", "N5 2LT", "United Kingdom"]}, "categories": [{"id": "52e81612bcbc57f1066b79f1", "name": "Bistro", "pluralName": "Bistros", "shortName": "Bistro", "icon": {"prefix": "https://ss3.4sqi.net/img/categories_v2/food/default_", "suffix": ".png"}, "primary": true}], "photos": {"count": 0, "groups": []}}, "referralId": "e-0-53c79165498e72be1c07541e-1"}, {"reasons": {"count": 0, "items": [{"summary": "This spot is popular", "type": "general", "reasonName": "globalInteractionReason"}]}, "venue": {"id": "4b589fadf964a520f66128e3", "name": "Au Lac", "location": {"address": "82 Highbury Park", "lat": 51.557178449858334, "lng": -0.09802780879950662, "labeledLatLngs": [{"label": "display", "lat": 51.557178449858334, "lng": -0.09802780879950662}], "distance": 243, "postalCode": "N5 2XE", "cc": "GB", "city": "Highbury", "state": "Greater London", "country": "United Kingdom", "formattedAddress": ["82 Highbury Park", "Highbury", "Greater London", "N5 2XE", "United Kingdom"]}, "categories": [{"id": "4bf58dd8d48988d14a941735", "name": "Vietnamese Restaurant", "pluralName": "Vietnamese Restaurants", "shortName": "Vietnamese", "icon": {"prefix": "https://ss3.4sqi.net/img/categories_v2/food/vietnamese_", "suffix": ".png"}, "primary": true}], "photos": {"count": 0, "groups": []}}, "referralId": "e-0-4b589fadf964a520f66128e3-2"}, {"reasons": {"count": 0, "items": [{"summary": "This spot is popular", "type": "general", "reasonName": "globalInteractionReason"}]}, "venue": {"id": "58b5e634f22995451994dc57", "name": "Farang", "location": {"address": "72 Highbury Park", "lat": 51.556918802098714, "lng": -0.09789671287586578, "labeledLatLngs": [{"label": "display", "lat": 51.556918802098714, "lng": -0.09789671287586578}], "distance": 273, "postalCode": "N5 2XE", "cc": "GB", "neighborhood": "Highbury East", "city": "London", "state": "Greater London", "country": "United Kingdom", "formattedAddress": ["72 Highbury Park", "London", "Greater London", "N5 2XE", "United Kingdom"]}, "categories": [{"id": "4bf58dd8d48988d149941735", "name": "Thai Restaurant", "pluralName": "Thai Restaurants", "shortName": "Thai", "icon": {"prefix": "https://ss3.4sqi.net/img/categories_v2/food/thai_", "suffix": ".png"}, "primary": true}], "photos": {"count": 0, "groups": []}}, "referralId": "e-0-58b5e634f22995451994dc57-3"}, {"reasons": {"count": 0, "items": [{"summary": "This spot is popular", "type": "general", "reasonName": "globalInteractionReason"}]}, "venue": {"id": "5babe98a8ad62e002ca01cba", "name": "Caf\u00e9 Beam", "location": {"address": "Blackstock Rd", "lat": 51.559743, "lng": -0.09873, "labeledLatLngs": [{"label": "display", "lat": 51.559743, "lng": -0.09873}], "distance": 46, "postalCode": "N5 1HA", "cc": "GB", "neighborhood": "Islington", "city": "London", "state": "Greater London", "country": "United Kingdom", "formattedAddress": ["Blackstock Rd", "London", "Greater London", "N5 1HA", "United Kingdom"]}, "categories": [{"id": "4bf58dd8d48988d16d941735", "name": "Caf\u00e9", "pluralName": "Caf\u00e9s", "shortName": "Caf\u00e9", "icon": {"prefix": "https://ss3.4sqi.net/img/categories_v2/food/cafe_", "suffix": ".png"}, "primary": true}], "photos": {"count": 0, "groups": []}}, "referralId": "e-0-5babe98a8ad62e002ca01cba-4"}, {"reasons": {"count": 0, "items": [{"summary": "This spot is popular", "type": "general", "reasonName": "globalInteractionReason"}]}, "venue": {"id": "548c3058498e858c535a2bd7", "name": "Franks Canteen", "location": {"address": "86 Highbury Park", "lat": 51.557326329716666, "lng": -0.09811299936906721, "labeledLatLngs": [{"label": "display", "lat": 51.557326329716666, "lng": -0.09811299936906721}], "distance": 225, "postalCode": "N5 2XE", "cc": "GB", "city": "London", "country": "United Kingdom", "formattedAddress": ["86 Highbury Park", "London", "N5 2XE", "United Kingdom"]}, "categories": [{"id": "4bf58dd8d48988d16d941735", "name": "Caf\u00e9", "pluralName": "Caf\u00e9s", "shortName": "Caf\u00e9", "icon": {"prefix": "https://ss3.4sqi.net/img/categories_v2/food/cafe_", "suffix": ".png"}, "primary": true}], "photos": {"count": 0, "groups": []}}, "referralId": "e-0-548c3058498e858c535a2bd7-5"}, {"reasons": {"count": 0, "items": [{"summary": "This spot is popular", "type": "general", "reasonName": "globalInteractionReason"}]}, "venue": {"id": "4c30f46e7cc0c9b6001eee9a", "name": "Little Sardegna", "location": {"address": "170 Blackstock Rd", "lat": 51.56003522852293, "lng": -0.09867080551808996, "labeledLatLngs": [{"label": "display", "lat": 51.56003522852293, "lng": -0.09867080551808996}], "distance": 78, "postalCode": "N5 1HA", "cc": "GB", "city": "Islington", "state": "Greater London", "country": "United Kingdom", "formattedAddress": ["170 Blackstock Rd", "Islington", "Greater London", "N5 1HA", "United Kingdom"]}, "categories": [{"id": "4bf58dd8d48988d110941735", "name": "Italian Restaurant", "pluralName": "Italian Restaurants", "shortName": "Italian", "icon": {"prefix": "https://ss3.4sqi.net/img/categories_v2/food/italian_", "suffix": ".png"}, "primary": true}], "photos": {"count": 0, "groups": []}}, "referralId": "e-0-4c30f46e7cc0c9b6001eee9a-6"}, {"reasons": {"count": 0, "items": [{"summary": "This spot is popular", "type": "general", "reasonName": "globalInteractionReason"}]}, "venue": {"id": "537e07b8498e9239c526ddd0", "name": "il guscio highbury", "location": {"address": "231 Blackstock Road", "lat": 51.55849889389664, "lng": -0.09844682323711959, "labeledLatLngs": [{"label": "display", "lat": 51.55849889389664, "lng": -0.09844682323711959}], "distance": 93, "postalCode": "N5 2LL", "cc": "GB", "city": "London", "state": "Greater London", "country": "United Kingdom", "formattedAddress": ["231 Blackstock Road", "London", "Greater London", "N5 2LL", "United Kingdom"]}, "categories": [{"id": "4bf58dd8d48988d110941735", "name": "Italian Restaurant", "pluralName": "Italian Restaurants", "shortName": "Italian", "icon": {"prefix": "https://ss3.4sqi.net/img/categories_v2/food/italian_", "suffix": ".png"}, "primary": true}], "photos": {"count": 0, "groups": []}}, "referralId": "e-0-537e07b8498e9239c526ddd0-7"}, {"reasons": {"count": 0, "items": [{"summary": "This spot is popular", "type": "general", "reasonName": "globalInteractionReason"}]}, "venue": {"id": "4b45f8b6f964a520331326e3", "name": "Organica Pizza Company", "location": {"address": "4b Gillespie Road", "lat": 51.560485, "lng": -0.099081, "labeledLatLngs": [{"label": "display", "lat": 51.560485, "lng": -0.099081}], "distance": 132, "postalCode": "N5 1LN", "cc": "GB", "city": "London", "state": "Greater London", "country": "United Kingdom", "formattedAddress": ["4b Gillespie Road", "London", "Greater London", "N5 1LN", "United Kingdom"]}, "categories": [{"id": "4bf58dd8d48988d1ca941735", "name": "Pizza Place", "pluralName": "Pizza Places", "shortName": "Pizza", "icon": {"prefix": "https://ss3.4sqi.net/img/categories_v2/food/pizza_", "suffix": ".png"}, "primary": true}], "photos": {"count": 0, "groups": []}}, "referralId": "e-0-4b45f8b6f964a520331326e3-8"}, {"reasons": {"count": 0, "items": [{"summary": "This spot is popular", "type": "general", "reasonName": "globalInteractionReason"}]}, "venue": {"id": "525fd6e6498e85cfdc2444a6", "name": "Highbury Arts Club", "location": {"address": "73 Highbury Park", "lat": 51.55615461226508, "lng": -0.09808583613312956, "labeledLatLngs": [{"label": "display", "lat": 51.55615461226508, "lng": -0.09808583613312956}], "distance": 355, "postalCode": "N5 1UA", "cc": "GB", "city": "London", "state": "Greater London", "country": "United Kingdom", "formattedAddress": ["73 Highbury Park", "London", "Greater London", "N5 1UA", "United Kingdom"]}, "categories": [{"id": "4bf58dd8d48988d1db931735", "name": "Tapas Restaurant", "pluralName": "Tapas Restaurants", "shortName": "Tapas", "icon": {"prefix": "https://ss3.4sqi.net/img/categories_v2/food/tapas_", "suffix": ".png"}, "primary": true}], "photos": {"count": 0, "groups": []}, "venuePage": {"id": "102724840"}}, "referralId": "e-0-525fd6e6498e85cfdc2444a6-9"}, {"reasons": {"count": 0, "items": [{"summary": "This spot is popular", "type": "general", "reasonName": "globalInteractionReason"}]}, "venue": {"id": "4ba8bec8f964a520adeb39e3", "name": "Cinnamon Village", "location": {"address": "109 Highbury Park", "lat": 51.55776194479718, "lng": -0.09837559171965508, "labeledLatLngs": [{"label": "display", "lat": 51.55776194479718, "lng": -0.09837559171965508}], "distance": 175, "postalCode": "N5 1UB", "cc": "GB", "city": "Islington", "state": "Greater London", "country": "United Kingdom", "formattedAddress": ["109 Highbury Park", "Islington", "Greater London", "N5 1UB", "United Kingdom"]}, "categories": [{"id": "4bf58dd8d48988d16d941735", "name": "Caf\u00e9", "pluralName": "Caf\u00e9s", "shortName": "Caf\u00e9", "icon": {"prefix": "https://ss3.4sqi.net/img/categories_v2/food/cafe_", "suffix": ".png"}, "primary": true}], "photos": {"count": 0, "groups": []}}, "referralId": "e-0-4ba8bec8f964a520adeb39e3-10"}, {"reasons": {"count": 0, "items": [{"summary": "This spot is popular", "type": "general", "reasonName": "globalInteractionReason"}]}, "venue": {"id": "58665d92cf4451174caf0cdb", "name": "Sage Kitchen", "location": {"address": "88 Mountgrove Rd", "lat": 51.56104328782999, "lng": -0.09737996067712151, "labeledLatLngs": [{"label": "display", "lat": 51.56104328782999, "lng": -0.09737996067712151}], "distance": 206, "postalCode": "N4", "cc": "GB", "city": "London", "state": "Greater London", "country": "United Kingdom", "formattedAddress": ["88 Mountgrove Rd", "London", "Greater London", "N4", "United Kingdom"]}, "categories": [{"id": "4bf58dd8d48988d16d941735", "name": "Caf\u00e9", "pluralName": "Caf\u00e9s", "shortName": "Caf\u00e9", "icon": {"prefix": "https://ss3.4sqi.net/img/categories_v2/food/cafe_", "suffix": ".png"}, "primary": true}], "photos": {"count": 0, "groups": []}}, "referralId": "e-0-58665d92cf4451174caf0cdb-11"}, {"reasons": {"count": 0, "items": [{"summary": "This spot is popular", "type": "general", "reasonName": "globalInteractionReason"}]}, "venue": {"id": "4c2b3a7957a9c9b6c982f567", "name": "Cinnamon Village 2", "location": {"address": "162 Blackstock Rd", "lat": 51.560377460993905, "lng": -0.09863352779707836, "labeledLatLngs": [{"label": "display", "lat": 51.560377460993905, "lng": -0.09863352779707836}], "distance": 115, "postalCode": "N5 1HA", "cc": "GB", "city": "Islington", "state": "Greater London", "country": "United Kingdom", "formattedAddress": ["162 Blackstock Rd", "Islington", "Greater London", "N5 1HA", "United Kingdom"]}, "categories": [{"id": "4bf58dd8d48988d16d941735", "name": "Caf\u00e9", "pluralName": "Caf\u00e9s", "shortName": "Caf\u00e9", "icon": {"prefix": "https://ss3.4sqi.net/img/categories_v2/food/cafe_", "suffix": ".png"}, "primary": true}], "photos": {"count": 0, "groups": []}}, "referralId": "e-0-4c2b3a7957a9c9b6c982f567-12"}, {"reasons": {"count": 0, "items": [{"summary": "This spot is popular", "type": "general", "reasonName": "globalInteractionReason"}]}, "venue": {"id": "5824c831cf09bf7b053ecb94", "name": "Bun & Bar", "location": {"address": "104 Highbury Pk", "lat": 51.558031, "lng": -0.098468, "labeledLatLngs": [{"label": "display", "lat": 51.558031, "lng": -0.098468}], "distance": 145, "postalCode": "N5 2XE", "cc": "GB", "city": "London", "state": "Greater London", "country": "United Kingdom", "formattedAddress": ["104 Highbury Pk", "London", "Greater London", "N5 2XE", "United Kingdom"]}, "categories": [{"id": "4bf58dd8d48988d16c941735", "name": "Burger Joint", "pluralName": "Burger Joints", "shortName": "Burgers", "icon": {"prefix": "https://ss3.4sqi.net/img/categories_v2/food/burger_", "suffix": ".png"}, "primary": true}], "photos": {"count": 0, "groups": []}}, "referralId": "e-0-5824c831cf09bf7b053ecb94-13"}, {"reasons": {"count": 0, "items": [{"summary": "This spot is popular", "type": "general", "reasonName": "globalInteractionReason"}]}, "venue": {"id": "4be6a5162468c928658d0143", "name": "Il Bacio", "location": {"address": "178-184 Blackstock Rd", "lat": 51.559764666247126, "lng": -0.09861621430391049, "labeledLatLngs": [{"label": "display", "lat": 51.559764666247126, "lng": -0.09861621430391049}], "distance": 47, "postalCode": "N5 1HA", "cc": "GB", "city": "London", "state": "Greater London", "country": "United Kingdom", "formattedAddress": ["178-184 Blackstock Rd", "London", "Greater London", "N5 1HA", "United Kingdom"]}, "categories": [{"id": "4bf58dd8d48988d1ca941735", "name": "Pizza Place", "pluralName": "Pizza Places", "shortName": "Pizza", "icon": {"prefix": "https://ss3.4sqi.net/img/categories_v2/food/pizza_", "suffix": ".png"}, "primary": true}], "photos": {"count": 0, "groups": []}}, "referralId": "e-0-4be6a5162468c928658d0143-14"}, {"reasons": {"count": 0, "items": [{"summary": "This spot is popular", "type": "general", "reasonName": "globalInteractionReason"}]}, "venue": {"id": "583acdf36431e579a803fe0d", "name": "Little Highness play cafe", "location": {"lat": 51.55603017814094, "lng": -0.09815508488525963, "labeledLatLngs": [{"label": "display", "lat": 51.55603017814094, "lng": -0.09815508488525963}], "distance": 369, "cc": "GB", "country": "United Kingdom", "formattedAddress": ["United Kingdom"]}, "categories": [{"id": "4bf58dd8d48988d16d941735", "name": "Caf\u00e9", "pluralName": "Caf\u00e9s", "shortName": "Caf\u00e9", "icon": {"prefix": "https://ss3.4sqi.net/img/categories_v2/food/cafe_", "suffix": ".png"}, "primary": true}], "photos": {"count": 0, "groups": []}}, "referralId": "e-0-583acdf36431e579a803fe0d-15"}, {"reasons": {"count": 0, "items": [{"summary": "This spot is popular", "type": "general", "reasonName": "globalInteractionReason"}]}, "venue": {"id": "4bb5dcb7ef159c744b1a75f7", "name": "Subway", "location": {"address": "7 Old Stable Row, Woolwich", "crossStreet": "Anglesea Ln", "lat": 51.56052668037865, "lng": -0.09514571620678369, "labeledLatLngs": [{"label": "display", "lat": 51.56052668037865, "lng": -0.09514571620678369}], "distance": 270, "postalCode": "SE18 6JR", "cc": "GB", "neighborhood": "Greenwich", "city": "London", "country": "United Kingdom", "formattedAddress": ["7 Old Stable Row, Woolwich (Anglesea Ln)", "London", "SE18 6JR", "United Kingdom"]}, "categories": [{"id": "4bf58dd8d48988d1c5941735", "name": "Sandwich Place", "pluralName": "Sandwich Places", "shortName": "Sandwiches", "icon": {"prefix": "https://ss3.4sqi.net/img/categories_v2/food/deli_", "suffix": ".png"}, "primary": true}], "photos": {"count": 0, "groups": []}}, "referralId": "e-0-4bb5dcb7ef159c744b1a75f7-16"}, {"reasons": {"count": 0, "items": [{"summary": "This spot is popular", "type": "general", "reasonName": "globalInteractionReason"}]}, "venue": {"id": "5178382de4b09b29ca3021e4", "name": "Zing Zing", "location": {"address": "142 Blackstock Rd", "lat": 51.561325, "lng": -0.099215, "labeledLatLngs": [{"label": "display", "lat": 51.561325, "lng": -0.099215}], "distance": 225, "postalCode": "N4 2DX", "cc": "GB", "city": "London", "state": "Greater London", "country": "United Kingdom", "formattedAddress": ["142 Blackstock Rd", "London", "Greater London", "N4 2DX", "United Kingdom"]}, "categories": [{"id": "4bf58dd8d48988d145941735", "name": "Chinese Restaurant", "pluralName": "Chinese Restaurants", "shortName": "Chinese", "icon": {"prefix": "https://ss3.4sqi.net/img/categories_v2/food/asian_", "suffix": ".png"}, "primary": true}], "photos": {"count": 0, "groups": []}}, "referralId": "e-0-5178382de4b09b29ca3021e4-17"}, {"reasons": {"count": 0, "items": [{"summary": "This spot is popular", "type": "general", "reasonName": "globalInteractionReason"}]}, "venue": {"id": "4b6c9e4af964a520fc462ce3", "name": "Exquisito", "location": {"address": "167 Blackstock Road", "lat": 51.561045164850306, "lng": -0.098842, "labeledLatLngs": [{"label": "display", "lat": 51.561045164850306, "lng": -0.098842}], "distance": 191, "postalCode": "N4 2JS", "cc": "GB", "city": "London", "state": "Greater London", "country": "United Kingdom", "formattedAddress": ["167 Blackstock Road", "London", "Greater London", "N4 2JS", "United Kingdom"]}, "categories": [{"id": "4bf58dd8d48988d1c1941735", "name": "Mexican Restaurant", "pluralName": "Mexican Restaurants", "shortName": "Mexican", "icon": {"prefix": "https://ss3.4sqi.net/img/categories_v2/food/mexican_", "suffix": ".png"}, "primary": true}], "photos": {"count": 0, "groups": []}}, "referralId": "e-0-4b6c9e4af964a520fc462ce3-18"}, {"reasons": {"count": 0, "items": [{"summary": "This spot is popular", "type": "general", "reasonName": "globalInteractionReason"}]}, "venue": {"id": "4b6ed116f964a520d7cb2ce3", "name": "Star Express Cafe", "location": {"address": "Blackstock Road", "lat": 51.560845, "lng": -0.098676, "labeledLatLngs": [{"label": "display", "lat": 51.560845, "lng": -0.098676}], "distance": 168, "cc": "GB", "city": "Islington", "state": "Greater London", "country": "United Kingdom", "formattedAddress": ["Blackstock Road", "Islington", "Greater London", "United Kingdom"]}, "categories": [{"id": "4bf58dd8d48988d16d941735", "name": "Caf\u00e9", "pluralName": "Caf\u00e9s", "shortName": "Caf\u00e9", "icon": {"prefix": "https://ss3.4sqi.net/img/categories_v2/food/cafe_", "suffix": ".png"}, "primary": true}], "photos": {"count": 0, "groups": []}}, "referralId": "e-0-4b6ed116f964a520d7cb2ce3-19"}]}]}}