{"meta": {"code": 200, "requestId": "5feddab93a674158420709ac"}, "response": {"suggestedFilters": {"header": "Tap to show:", "filters": [{"name": "Open now", "key": "openNow"}]}, "headerLocation": "Lambeth", "headerFullLocation": "Lambeth, London", "headerLocationGranularity": "neighborhood", "query": "arts entertainment", "totalResults": 8, "suggestedBounds": {"ne": {"lat": 51.493804003600005, "lng": -0.11670703552499274}, "sw": {"lat": 51.48660399639999, "lng": -0.12824896447500728}}, "groups": [{"type": "Recommended Places", "name": "recommended", "items": [{"reasons": {"count": 0, "items": [{"summary": "This spot is popular", "type": "general", "reasonName": "globalInteractionReason"}]}, "venue": {"id": "4ac51183f964a52049a020e3", "name": "Tate Britain", "location": {"address": "Millbank", "lat": 51.49119040859932, "lng": -0.12787195475539193, "labeledLatLngs": [{"label": "display", "lat": 51.49119040859932, "lng": -0.12787195475539193}], "distance": 389, "postalCode": "SW1P 4RG", "cc": "GB", "neighborhood": "Millbank", "city": "London", "state": "Greater London", "country": "United Kingdom", "formattedAddress": ["Millbank", "London", "Greater London", "SW1P 4RG", "United Kingdom"]}, "categories": [{"id": "4bf58dd8d48988d18f941735", "name": "Art Museum", "pluralName": "Art Museums", "shortName": "Art Museum", "icon": {"prefix": "https://ss3.4sqi.net/img/categories_v2/arts_entertainment/museum_art_", "suffix": ".png"}, "primary": true}], "photos": {"count": 0, "groups": []}}, "referralId": "e-0-4ac51183f964a52049a020e3-0"}, {"reasons": {"count": 0, "items": [{"summary": "This spot is popular", "type": "general", "reasonName": "globalInteractionReason"}]}, "venue": {"id": "5b1641e71ffe97002c4f809e", "name": "Above The Stag Theatre", "location": {"address": "72 Albert Embankment", "lat": 51.48751986231018, "lng": -0.1231495649243991, "labeledLatLngs": [{"label": "display", "lat": 51.48751986231018, "lng": -0.1231495649243991}], "distance": 302, "postalCode": "SE1 7TP", "cc": "GB", "city": "London", "state": "Greater London", "country": "United Kingdom", "formattedAddress": ["72 Albert Embankment", "London", "Greater London", "SE1 7TP", "United Kingdom"]}, "categories": [{"id": "4bf58dd8d48988d137941735", "name": "Theater", "pluralName": "Theaters", "shortName": "Theater", "icon": {"prefix": "https://ss3.4sqi.net/img/categories_v2/arts_entertainment/performingarts_theater_", "suffix": ".png"}, "primary": true}], "photos": {"count": 0, "groups": []}, "venuePage": {"id": "495783187"}}, "referralId": "e-0-5b1641e71ffe97002c4f809e-1"}, {"reasons": {"count": 0, "items": [{"summary": "This spot is popular", "type": "general", "reasonName": "globalInteractionReason"}]}, "venue": {"id": "4e9ed02761afec1907f016cd", "name": "Beaconsfield", "location": {"address": "22 Newport St", "lat": 51.491931525138114, "lng": -0.11894109208640546, "labeledLatLngs": [{"label": "display", "lat": 51.491931525138114, "lng": -0.11894109208640546}], "distance": 311, "postalCode": "SE11 6AY", "cc": "GB", "city": "London", "state": "Greater London", "country": "United Kingdom", "formattedAddress": ["22 Newport St", "London", "Greater London", "SE11 6AY", "United Kingdom"]}, "categories": [{"id": "4bf58dd8d48988d1e2931735", "name": "Art Gallery", "pluralName": "Art Galleries", "shortName": "Art Gallery", "icon": {"prefix": "https://ss3.4sqi.net/img/categories_v2/arts_entertainment/artgallery_", "suffix": ".png"}, "primary": true}], "photos": {"count": 0, "groups": []}}, "referralId": "e-0-4e9ed02761afec1907f016cd-2"}, {"reasons": {"count": 0, "items": [{"summary": "This spot is popular", "type": "general", "reasonName": "globalInteractionReason"}]}, "venue": {"id": "5aeed4c6dd12f8002cf3f76b", "name": "Base Dance Studios", "location": {"lat": 51.489719, "lng": -0.121973, "labeledLatLngs": [{"label": "display", "lat": 51.489719, "lng": -0.121973}], "distance": 64, "postalCode": "SE11 5EJ", "cc": "GB", "city": "London", "state": "Greater London", "country": "United Kingdom", "formattedAddress": ["London", "Greater London", "SE11 5EJ", "United Kingdom"]}, "categories": [{"id": "4bf58dd8d48988d134941735", "name": "Dance Studio", "pluralName": "Dance Studios", "shortName": "Dance Studio", "icon": {"prefix": "https://ss3.4sqi.net/img/categories_v2/arts_entertainment/performingarts_dancestudio_", "suffix": ".png"}, "primary": true}], "photos": {"count": 0, "groups": []}}, "referralId": "e-0-5aeed4c6dd12f8002cf3f76b-3"}, {"reasons": {"count": 0, "items": [{"summary": "This spot is popular", "type": "general", "reasonName": "globalInteractionReason"}]}, "venue": {"id": "53e12b93498e8db166a365b9", "name": "Reels Cinema Cafe Bar", "location": {"address": "21-24 Millbank", "lat": 51.491893220197646, "lng": -0.12535976646749217, "labeledLatLngs": [{"label": "display", "lat": 51.491893220197646, "lng": -0.12535976646749217}], "distance": 274, "postalCode": "SW1P 4QP", "cc": "GB", "city": "London", "state": "Greater London", "country": "United Kingdom", "formattedAddress": ["21-24 Millbank", "London", "Greater London", "SW1P 4QP", "United Kingdom"]}, "categories": [{"id": "4bf58dd8d48988d17e941735", "name": "Indie Movie Theater", "pluralName": "Indie Movie Theaters", "shortName": "Indie Movies", "icon": {"prefix": "https://ss3.4sqi.net/img/categories_v2/arts_entertainment/movietheater_", "suffix": ".png"}, "primary": true}], "photos": {"count": 0, "groups": []}}, "referralId": "e-0-53e12b93498e8db166a365b9-4"}, {"reasons": {"count": 0, "items": [{"summary": "This spot is popular", "type": "general", "reasonName": "globalInteractionReason"}]}, "venue": {"id": "58bff21d8cb34e395a4e7dcf", "name": "The workshop", "location": {"lat": 51.49282, "lng": -0.1202327, "labeledLatLngs": [{"label": "display", "lat": 51.49282, "lng": -0.1202327}], "distance": 330, "postalCode": "S E11", "cc": "GB", "city": "London", "state": "Greater London", "country": "United Kingdom", "formattedAddress": ["London", "Greater London", "S E11", "United Kingdom"]}, "categories": [{"id": "4bf58dd8d48988d181941735", "name": "Museum", "pluralName": "Museums", "shortName": "Museum", "icon": {"prefix": "https://ss3.4sqi.net/img/categories_v2/arts_entertainment/museum_", "suffix": ".png"}, "primary": true}], "photos": {"count": 0, "groups": []}}, "referralId": "e-0-58bff21d8cb34e395a4e7dcf-5"}, {"reasons": {"count": 0, "items": [{"summary": "This spot is popular", "type": "general", "reasonName": "globalInteractionReason"}]}, "venue": {"id": "4cadbb86d1f8b60c4a0271c6", "name": "Clore Gallery", "location": {"address": "Millbank", "crossStreet": "Tate Britain", "lat": 51.49082927846403, "lng": -0.127481961826561, "labeledLatLngs": [{"label": "display", "lat": 51.49082927846403, "lng": -0.127481961826561}], "distance": 353, "postalCode": "SW1P 4RG", "cc": "GB", "city": "London", "state": "Greater London", "country": "United Kingdom", "formattedAddress": ["Millbank (Tate Britain)", "London", "Greater London", "SW1P 4RG", "United Kingdom"]}, "categories": [{"id": "4bf58dd8d48988d1e2931735", "name": "Art Gallery", "pluralName": "Art Galleries", "shortName": "Art Gallery", "icon": {"prefix": "https://ss3.4sqi.net/img/categories_v2/arts_entertainment/artgallery_", "suffix": ".png"}, "primary": true}], "photos": {"count": 0, "groups": []}}, "referralId": "e-0-4cadbb86d1f8b60c4a0271c6-6"}, {"reasons": {"count": 0, "items": [{"summary": "This spot is popular", "type": "general", "reasonName": "globalInteractionReason"}]}, "venue": {"id": "5b07c9586e465000390aeaea", "name": "Locking Piece By Henry Moore", "location": {"address": "Riverwalk Gardens", "lat": 51.489426, "lng": -0.12744081, "labeledLatLngs": [{"label": "display", "lat": 51.489426, "lng": -0.12744081}], "distance": 354, "postalCode": "SW1P 4RL", "cc": "GB", "city": "London", "state": "Greater London", "country": "United Kingdom", "formattedAddress": ["Riverwalk Gardens", "London", "Greater London", "SW1P 4RL", "United Kingdom"]}, "categories": [{"id": "52e81612bcbc57f1066b79ed", "name": "Outdoor Sculpture", "pluralName": "Outdoor Sculptures", "shortName": "Outdoor Sculpture", "icon": {"prefix": "https://ss3.4sqi.net/img/categories_v2/parks_outdoors/sculpture_", "suffix": ".png"}, "primary": true}], "photos": {"count": 0, "groups": []}}, "referralId": "e-0-5b07c9586e465000390aeaea-7"}]}]}}