{"meta": {"code": 200, "requestId": "5fedda4f91aecb7c6e1652b6"}, "response": {"suggestedFilters": {"header": "Tap to show:", "filters": [{"name": "Open now", "key": "openNow"}]}, "headerLocation": "Hackney", "headerFullLocation": "Hackney, London", "headerLocationGranularity": "neighborhood", "query": "college education", "totalResults": 44, "suggestedBounds": {"ne": {"lat": 51.53233000360001, "lng": -0.07079415343851193}, "sw": {"lat": 51.5251299964, "lng": -0.08234584656148806}}, "groups": [{"type": "Recommended Places", "name": "recommended", "items": [{"reasons": {"count": 0, "items": [{"summary": "This spot is popular", "type": "general", "reasonName": "globalInteractionReason"}]}, "venue": {"id": "4ad30c88f964a52003e320e3", "name": "The Grocery", "location": {"address": "54-56 Kingsland Rd", "lat": 51.52887127007046, "lng": -0.07779734768381653, "labeledLatLngs": [{"label": "display", "lat": 51.52887127007046, "lng": -0.07779734768381653}], "distance": 86, "postalCode": "E2 8DP", "cc": "GB", "neighborhood": "Hackney", "city": "London", "state": "Greater London", "country": "United Kingdom", "formattedAddress": ["54-56 Kingsland Rd", "London", "Greater London", "E2 8DP", "United Kingdom"]}, "categories": [{"id": "52f2ab2ebcbc57f1066b8b45", "name": "Organic Grocery", "pluralName": "Organic Groceries", "shortName": "Organic Grocery", "icon": {"prefix": "https://ss3.4sqi.net/img/categories_v2/shops/food_grocery_", "suffix": ".png"}, "primary": true}], "photos": {"count": 0, "groups": []}}, "referralId": "e-0-4ad30c88f964a52003e320e3-0"}, {"reasons": {"count": 0, "items": [{"summary": "This spot is popular", "type": "general", "reasonName": "globalInteractionReason"}]}, "venue": {"id": "579dfc4bcd10cf6ab82d9a98", "name": "GreatArt London Shoreditch", "location": {"address": "49 Kingsland Rd", "lat": 51.52932401648265, "lng": -0.07766355608242999, "labeledLatLngs": [{"label": "display", "lat": 51.52932401648265, "lng": -0.07766355608242999}], "distance": 100, "postalCode": "E2 8AG", "cc": "GB", "neighborhood": "Hackney, London, Greater London", "city": "London", "state": "Greater London", "country": "United Kingdom", "formattedAddress": ["49 Kingsland Rd", "London", "Greater London", "E2 8AG", "United Kingdom"]}, "categories": [{"id": "4bf58dd8d48988d127951735", "name": "Arts & Crafts Store", "pluralName": "Arts & Crafts Stores", "shortName": "Arts & Crafts", "icon": {"prefix": "https://ss3.4sqi.net/img/categories_v2/shops/artstore_", "suffix": ".png"}, "primary": true}], "photos": {"count": 0, "groups": []}}, "referralId": "e-0-579dfc4bcd10cf6ab82d9a98-1"}, {"reasons": {"count": 0, "items": [{"summary": "This spot is popular", "type": "general", "reasonName": "globalInteractionReason"}]}, "venue": {"id": "4ad0b056f964a52023d920e3", "name": "Artwords Bookshop", "location": {"address": "69 Rivington St", "lat": 51.52623596778329, "lng": -0.07970227950468468, "labeledLatLngs": [{"label": "display", "lat": 51.52623596778329, "lng": -0.07970227950468468}], "distance": 352, "postalCode": "EC2A 3AY", "cc": "GB", "neighborhood": "Shoreditch", "city": "London", "state": "Greater London", "country": "United Kingdom", "formattedAddress": ["69 Rivington St", "London", "Greater London", "EC2A 3AY", "United Kingdom"]}, "categories": [{"id": "4bf58dd8d48988d114951735", "name": "Bookstore", "pluralName": "Bookstores", "shortName": "Bookstore", "icon": {"prefix": "https://ss3.4sqi.net/img/categories_v2/shops/bookstore_", "suffix": ".png"}, "primary": true}], "photos": {"count": 0, "groups": []}}, "referralId": "e-0-4ad0b056f964a52023d920e3-2"}, {"reasons": {"count": 0, "items": [{"summary": "This spot is popular", "type": "general", "reasonName": "globalInteractionReason"}]}, "venue": {"id": "4bd2e5249854d13a4772fc4d", "name": "Goodhood", "location": {"address": "151 Curtain Rd", "lat": 51.526783761433826, "lng": -0.08052816568953669, "labeledLatLngs": [{"label": "display", "lat": 51.526783761433826, "lng": -0.08052816568953669}], "distance": 349, "postalCode": "EC2A 3QE", "cc": "GB", "city": "Hackney", "state": "Greater London", "country": "United Kingdom", "formattedAddress": ["151 Curtain Rd", "Hackney", "Greater London", "EC2A 3QE", "United Kingdom"]}, "categories": [{"id": "4bf58dd8d48988d104951735", "name": "Boutique", "pluralName": "Boutiques", "shortName": "Boutique", "icon": {"prefix": "https://ss3.4sqi.net/img/categories_v2/shops/apparel_boutique_", "suffix": ".png"}, "primary": true}], "photos": {"count": 0, "groups": []}}, "referralId": "e-0-4bd2e5249854d13a4772fc4d-3"}, {"reasons": {"count": 0, "items": [{"summary": "This spot is popular", "type": "general", "reasonName": "globalInteractionReason"}]}, "venue": {"id": "4bfacee3bc869521d2fd7a6b", "name": "Longdan Express", "location": {"address": "25 Hackney Rd", "lat": 51.527699773572444, "lng": -0.07666962794223388, "labeledLatLngs": [{"label": "display", "lat": 51.527699773572444, "lng": -0.07666962794223388}], "distance": 114, "postalCode": "E2 7NX", "cc": "GB", "city": "Shoreditch", "state": "Greater London", "country": "United Kingdom", "formattedAddress": ["25 Hackney Rd", "Shoreditch", "Greater London", "E2 7NX", "United Kingdom"]}, "categories": [{"id": "4bf58dd8d48988d1f9941735", "name": "Food & Drink Shop", "pluralName": "Food & Drink Shops", "shortName": "Food & Drink", "icon": {"prefix": "https://ss3.4sqi.net/img/categories_v2/shops/foodanddrink_", "suffix": ".png"}, "primary": true}], "photos": {"count": 0, "groups": []}}, "referralId": "e-0-4bfacee3bc869521d2fd7a6b-4"}, {"reasons": {"count": 0, "items": [{"summary": "This spot is popular", "type": "general", "reasonName": "globalInteractionReason"}]}, "venue": {"id": "594ff11d3731ee3b68473412", "name": "Raw Store", "location": {"lat": 51.52729218171551, "lng": -0.07885860007758544, "labeledLatLngs": [{"label": "display", "lat": 51.52729218171551, "lng": -0.07885860007758544}], "distance": 225, "postalCode": "EC1V 9LL", "cc": "GB", "city": "London", "state": "Greater London", "country": "United Kingdom", "formattedAddress": ["London", "Greater London", "EC1V 9LL", "United Kingdom"]}, "categories": [{"id": "52f2ab2ebcbc57f1066b8b45", "name": "Organic Grocery", "pluralName": "Organic Groceries", "shortName": "Organic Grocery", "icon": {"prefix": "https://ss3.4sqi.net/img/categories_v2/shops/food_grocery_", "suffix": ".png"}, "primary": true}], "photos": {"count": 0, "groups": []}}, "referralId": "e-0-594ff11d3731ee3b68473412-5"}, {"reasons": {"count": 0, "items": [{"summary": "This spot is popular", "type": "general", "reasonName": "globalInteractionReason"}]}, "venue": {"id": "4f71ff24e4b00bcde2f54e34", "name": "Article", "location": {"address": "96 Kingsland Road", "lat": 51.529894136335024, "lng": -0.07732209012312108, "labeledLatLngs": [{"label": "display", "lat": 51.529894136335024, "lng": -0.07732209012312108}], "distance": 139, "cc": "GB", "city": "London", "state": "Greater London", "country": "United Kingdom", "formattedAddress": ["96 Kingsland Road", "London", "Greater London", "United Kingdom"]}, "categories": [{"id": "4bf58dd8d48988d103951735", "name": "Clothing Store", "pluralName": "Clothing Stores", "shortName": "Apparel", "icon": {"prefix": "https://ss3.4sqi.net/img/categories_v2/shops/apparel_", "suffix": ".png"}, "primary": true}], "photos": {"count": 0, "groups": []}}, "referralId": "e-0-4f71ff24e4b00bcde2f54e34-6"}, {"reasons": {"count": 0, "items": [{"summary": "This spot is popular", "type": "general", "reasonName": "globalInteractionReason"}]}, "venue": {"id": "4ac518ebf964a5204dac20e3", "name": "Ally Capellino", "location": {"address": "9 Calvert Avenue, Shoreditch", "lat": 51.52606932211897, "lng": -0.07601182428770081, "labeledLatLngs": [{"label": "display", "lat": 51.52606932211897, "lng": -0.07601182428770081}], "distance": 298, "postalCode": "E2 7JP", "cc": "GB", "city": "London", "state": "Greater London", "country": "United Kingdom", "formattedAddress": ["9 Calvert Avenue, Shoreditch", "London", "Greater London", "E2 7JP", "United Kingdom"]}, "categories": [{"id": "4bf58dd8d48988d102951735", "name": "Accessories Store", "pluralName": "Accessories Stores", "shortName": "Accessories", "icon": {"prefix": "https://ss3.4sqi.net/img/categories_v2/shops/apparel_accessories_", "suffix": ".png"}, "primary": true}], "photos": {"count": 0, "groups": []}, "venuePage": {"id": "583237317"}}, "referralId": "e-0-4ac518ebf964a5204dac20e3-7"}, {"reasons": {"count": 0, "items": [{"summary": "This spot is popular", "type": "general", "reasonName": "globalInteractionReason"}]}, "venue": {"id": "53e37471498eea60fee44f86", "name": "Sister Ray Ace", "location": {"address": "100 Shoreditch High St", "lat": 51.52545228717892, "lng": -0.07746026762091782, "labeledLatLngs": [{"label": "display", "lat": 51.52545228717892, "lng": -0.07746026762091782}], "distance": 370, "cc": "GB", "city": "London", "state": "Greater London", "country": "United Kingdom", "formattedAddress": ["100 Shoreditch High St", "London", "Greater London", "United Kingdom"]}, "categories": [{"id": "4bf58dd8d48988d10d951735", "name": "Record Shop", "pluralName": "Record Shops", "shortName": "Record Shop", "icon": {"prefix": "https://ss3.4sqi.net/img/categories_v2/shops/record_shop_", "suffix": ".png"}, "primary": true}], "photos": {"count": 0, "groups": []}}, "referralId": "e-0-53e37471498eea60fee44f86-8"}, {"reasons": {"count": 0, "items": [{"summary": "This spot is popular", "type": "general", "reasonName": "globalInteractionReason"}]}, "venue": {"id": "54a2cd71498e71c90204d0ce", "name": "House of Hackney", "location": {"address": "131-132 Shoreditch High St", "lat": 51.52665406962257, "lng": -0.0780341385041268, "labeledLatLngs": [{"label": "display", "lat": 51.52665406962257, "lng": -0.0780341385041268}], "distance": 252, "postalCode": "E1 6JE", "cc": "GB", "city": "London", "state": "Greater London", "country": "United Kingdom", "formattedAddress": ["131-132 Shoreditch High St", "London", "Greater London", "E1 6JE", "United Kingdom"]}, "categories": [{"id": "52f2ab2ebcbc57f1066b8b26", "name": "Fabric Shop", "pluralName": "Fabric Shops", "shortName": "Fabric Shop", "icon": {"prefix": "https://ss3.4sqi.net/img/categories_v2/shops/default_", "suffix": ".png"}, "primary": true}], "photos": {"count": 0, "groups": []}}, "referralId": "e-0-54a2cd71498e71c90204d0ce-9"}, {"reasons": {"count": 0, "items": [{"summary": "This spot is popular", "type": "general", "reasonName": "globalInteractionReason"}]}, "venue": {"id": "4f4fc4e7e4b0a99a796de653", "name": "Carhartt WIP", "location": {"address": "140 Shoreditch High Street", "lat": 51.5261619, "lng": -0.0780502, "labeledLatLngs": [{"label": "display", "lat": 51.5261619, "lng": -0.0780502}], "distance": 303, "postalCode": "E1 6HU", "cc": "GB", "city": "London", "state": "Greater London", "country": "United Kingdom", "formattedAddress": ["140 Shoreditch High Street", "London", "Greater London", "E1 6HU", "United Kingdom"]}, "categories": [{"id": "4bf58dd8d48988d103951735", "name": "Clothing Store", "pluralName": "Clothing Stores", "shortName": "Apparel", "icon": {"prefix": "https://ss3.4sqi.net/img/categories_v2/shops/apparel_", "suffix": ".png"}, "primary": true}], "photos": {"count": 0, "groups": []}}, "referralId": "e-0-4f4fc4e7e4b0a99a796de653-10"}, {"reasons": {"count": 0, "items": [{"summary": "This spot is popular", "type": "general", "reasonName": "globalInteractionReason"}]}, "venue": {"id": "4ae32dd1f964a520569121e3", "name": "Cowling & Wilcox", "location": {"address": "112 Shoreditch High St", "lat": 51.526279835287525, "lng": -0.07785347499987444, "labeledLatLngs": [{"label": "display", "lat": 51.526279835287525, "lng": -0.07785347499987444}], "distance": 286, "postalCode": "E1 6JN", "cc": "GB", "neighborhood": "Shoreditch, London, Greater London", "city": "London", "state": "Greater London", "country": "United Kingdom", "formattedAddress": ["112 Shoreditch High St", "London", "Greater London", "E1 6JN", "United Kingdom"]}, "categories": [{"id": "4bf58dd8d48988d127951735", "name": "Arts & Crafts Store", "pluralName": "Arts & Crafts Stores", "shortName": "Arts & Crafts", "icon": {"prefix": "https://ss3.4sqi.net/img/categories_v2/shops/artstore_", "suffix": ".png"}, "primary": true}], "photos": {"count": 0, "groups": []}}, "referralId": "e-0-4ae32dd1f964a520569121e3-11"}, {"reasons": {"count": 0, "items": [{"summary": "This spot is popular", "type": "general", "reasonName": "globalInteractionReason"}]}, "venue": {"id": "4ce9266d595cb1f78c0bcd14", "name": "Hoxton Street Monster Supplies", "location": {"address": "159 Hoxton St", "lat": 51.531316731769, "lng": -0.08015563030890456, "labeledLatLngs": [{"label": "display", "lat": 51.531316731769, "lng": -0.08015563030890456}], "distance": 380, "postalCode": "N1 6PJ", "cc": "GB", "city": "Hackney", "state": "Greater London", "country": "United Kingdom", "formattedAddress": ["159 Hoxton St", "Hackney", "Greater London", "N1 6PJ", "United Kingdom"]}, "categories": [{"id": "4bf58dd8d48988d117951735", "name": "Candy Store", "pluralName": "Candy Stores", "shortName": "Candy Store", "icon": {"prefix": "https://ss3.4sqi.net/img/categories_v2/shops/candystore_", "suffix": ".png"}, "primary": true}], "photos": {"count": 0, "groups": []}}, "referralId": "e-0-4ce9266d595cb1f78c0bcd14-12"}, {"reasons": {"count": 0, "items": [{"summary": "This spot is popular", "type": "general", "reasonName": "globalInteractionReason"}]}, "venue": {"id": "4b3f4f7df964a5206ea525e3", "name": "SCP", "location": {"address": "135-139 Curtain Rd.", "lat": 51.526324409210694, "lng": -0.08040592392642557, "labeledLatLngs": [{"label": "display", "lat": 51.526324409210694, "lng": -0.08040592392642557}], "distance": 377, "postalCode": "EC2A 3BX", "cc": "GB", "city": "Shoreditch", "state": "Greater London", "country": "United Kingdom", "formattedAddress": ["135-139 Curtain Rd.", "Shoreditch", "Greater London", "EC2A 3BX", "United Kingdom"]}, "categories": [{"id": "4bf58dd8d48988d1f8941735", "name": "Furniture / Home Store", "pluralName": "Furniture / Home Stores", "shortName": "Furniture / Home", "icon": {"prefix": "https://ss3.4sqi.net/img/categories_v2/shops/furniture_", "suffix": ".png"}, "primary": true}], "photos": {"count": 0, "groups": []}}, "referralId": "e-0-4b3f4f7df964a5206ea525e3-13"}, {"reasons": {"count": 0, "items": [{"summary": "This spot is popular", "type": "general", "reasonName": "globalInteractionReason"}]}, "venue": {"id": "5670535e498ee86ae9f055f8", "name": "Longdan", "location": {"address": "57-59 Kingsland Road", "lat": 51.52966233942758, "lng": -0.07747678912315731, "labeledLatLngs": [{"label": "display", "lat": 51.52966233942758, "lng": -0.07747678912315731}], "distance": 121, "cc": "GB", "neighborhood": "Hackney", "city": "London", "state": "Greater London", "country": "United Kingdom", "formattedAddress": ["57-59 Kingsland Road", "London", "Greater London", "United Kingdom"]}, "categories": [{"id": "4bf58dd8d48988d118951735", "name": "Grocery Store", "pluralName": "Grocery Stores", "shortName": "Grocery Store", "icon": {"prefix": "https://ss3.4sqi.net/img/categories_v2/shops/food_grocery_", "suffix": ".png"}, "primary": true}], "photos": {"count": 0, "groups": []}}, "referralId": "e-0-5670535e498ee86ae9f055f8-14"}, {"reasons": {"count": 0, "items": [{"summary": "This spot is popular", "type": "general", "reasonName": "globalInteractionReason"}]}, "venue": {"id": "50c33b5e498eb4ce465fa7ee", "name": "Religion", "location": {"address": "128 Shoreditch High Street", "lat": 51.526478595095334, "lng": -0.077982423955696, "labeledLatLngs": [{"label": "display", "lat": 51.526478595095334, "lng": -0.077982423955696}], "distance": 269, "cc": "GB", "city": "London", "state": "Greater London", "country": "United Kingdom", "formattedAddress": ["128 Shoreditch High Street", "London", "Greater London", "United Kingdom"]}, "categories": [{"id": "4bf58dd8d48988d103951735", "name": "Clothing Store", "pluralName": "Clothing Stores", "shortName": "Apparel", "icon": {"prefix": "https://ss3.4sqi.net/img/categories_v2/shops/apparel_", "suffix": ".png"}, "primary": true}], "photos": {"count": 0, "groups": []}}, "referralId": "e-0-50c33b5e498eb4ce465fa7ee-15"}, {"reasons": {"count": 0, "items": [{"summary": "This spot is popular", "type": "general", "reasonName": "globalInteractionReason"}]}, "venue": {"id": "532c4720498ef44396dcd812", "name": "Sneakersnstuff London", "location": {"address": "Shoreditch High Street 107-108", "lat": 51.52600343718777, "lng": -0.07783927076020887, "labeledLatLngs": [{"label": "display", "lat": 51.52600343718777, "lng": -0.07783927076020887}], "distance": 315, "cc": "GB", "country": "United Kingdom", "formattedAddress": ["Shoreditch High Street 107-108", "United Kingdom"]}, "categories": [{"id": "4bf58dd8d48988d107951735", "name": "Shoe Store", "pluralName": "Shoe Stores", "shortName": "Shoes", "icon": {"prefix": "https://ss3.4sqi.net/img/categories_v2/shops/apparel_shoestore_", "suffix": ".png"}, "primary": true}], "photos": {"count": 0, "groups": []}, "venuePage": {"id": "98674103"}}, "referralId": "e-0-532c4720498ef44396dcd812-16"}, {"reasons": {"count": 0, "items": [{"summary": "This spot is popular", "type": "general", "reasonName": "globalInteractionReason"}]}, "venue": {"id": "5217410611d219e540b34e72", "name": "That Flower Shop", "location": {"address": "100 Shoreditch High St", "lat": 51.52585689728199, "lng": -0.07775125200605162, "labeledLatLngs": [{"label": "display", "lat": 51.52585689728199, "lng": -0.07775125200605162}], "distance": 330, "postalCode": "E1 6JQ", "cc": "GB", "city": "London", "state": "Greater London", "country": "United Kingdom", "formattedAddress": ["100 Shoreditch High St", "London", "Greater London", "E1 6JQ", "United Kingdom"]}, "categories": [{"id": "4bf58dd8d48988d11b951735", "name": "Flower Shop", "pluralName": "Flower Shops", "shortName": "Flower Shop", "icon": {"prefix": "https://ss3.4sqi.net/img/categories_v2/shops/flowershop_", "suffix": ".png"}, "primary": true}], "photos": {"count": 0, "groups": []}}, "referralId": "e-0-5217410611d219e540b34e72-17"}, {"reasons": {"count": 0, "items": [{"summary": "This spot is popular", "type": "general", "reasonName": "globalInteractionReason"}]}, "venue": {"id": "54b58f33498eb2f6dfee6019", "name": "Sainsbury's Local", "location": {"address": "112-118 Kingsland Rd", "lat": 51.530278460336746, "lng": -0.07697269554950426, "labeledLatLngs": [{"label": "display", "lat": 51.530278460336746, "lng": -0.07697269554950426}], "distance": 174, "postalCode": "E2 8DJ", "cc": "GB", "city": "Hoxton", "state": "Greater London", "country": "United Kingdom", "formattedAddress": ["112-118 Kingsland Rd", "Hoxton", "Greater London", "E2 8DJ", "United Kingdom"]}, "categories": [{"id": "4bf58dd8d48988d118951735", "name": "Grocery Store", "pluralName": "Grocery Stores", "shortName": "Grocery Store", "icon": {"prefix": "https://ss3.4sqi.net/img/categories_v2/shops/food_grocery_", "suffix": ".png"}, "primary": true}], "photos": {"count": 0, "groups": []}}, "referralId": "e-0-54b58f33498eb2f6dfee6019-18"}, {"reasons": {"count": 0, "items": [{"summary": "This spot is popular", "type": "general", "reasonName": "globalInteractionReason"}]}, "venue": {"id": "4c3a070993db0f4716632492", "name": "Tesco Express", "location": {"address": "79-85 Hackney Rd, Hackney", "lat": 51.529261204854215, "lng": -0.07534204059993499, "labeledLatLngs": [{"label": "display", "lat": 51.529261204854215, "lng": -0.07534204059993499}], "distance": 103, "postalCode": "E2 7QU", "cc": "GB", "city": "London", "state": "Greater London", "country": "United Kingdom", "formattedAddress": ["79-85 Hackney Rd, Hackney", "London", "Greater London", "E2 7QU", "United Kingdom"]}, "categories": [{"id": "4bf58dd8d48988d118951735", "name": "Grocery Store", "pluralName": "Grocery Stores", "shortName": "Grocery Store", "icon": {"prefix": "https://ss3.4sqi.net/img/categories_v2/shops/food_grocery_", "suffix": ".png"}, "primary": true}], "photos": {"count": 0, "groups": []}}, "referralId": "e-0-4c3a070993db0f4716632492-19"}, {"reasons": {"count": 0, "items": [{"summary": "This spot is popular", "type": "general", "reasonName": "globalInteractionReason"}]}, "venue": {"id": "5855544b2b04f83e93a0e70d", "name": "Therapies At The Grocery", "location": {"lat": 51.5289, "lng": -0.07761944, "labeledLatLngs": [{"label": "display", "lat": 51.5289, "lng": -0.07761944}], "distance": 75, "postalCode": "E2 8AB", "cc": "GB", "neighborhood": "Hackney", "city": "London", "state": "Greater London", "country": "United Kingdom", "formattedAddress": ["London", "Greater London", "E2 8AB", "United Kingdom"]}, "categories": [{"id": "52f2ab2ebcbc57f1066b8b3c", "name": "Massage Studio", "pluralName": "Massage Studios", "shortName": "Massage Studio", "icon": {"prefix": "https://ss3.4sqi.net/img/categories_v2/shops/spa_", "suffix": ".png"}, "primary": true}], "photos": {"count": 0, "groups": []}}, "referralId": "e-0-5855544b2b04f83e93a0e70d-20"}, {"reasons": {"count": 0, "items": [{"summary": "This spot is popular", "type": "general", "reasonName": "globalInteractionReason"}]}, "venue": {"id": "4b1a9f90f964a520abed23e3", "name": "East London Design Show", "location": {"address": "Old Street", "crossStreet": "Curtain Road", "lat": 51.52683711534406, "lng": -0.07947049711151159, "labeledLatLngs": [{"label": "display", "lat": 51.52683711534406, "lng": -0.07947049711151159}], "distance": 291, "cc": "GB", "city": "London", "state": "Greater London", "country": "United Kingdom", "formattedAddress": ["Old Street (Curtain Road)", "London", "Greater London", "United Kingdom"]}, "categories": [{"id": "4bf58dd8d48988d127951735", "name": "Arts & Crafts Store", "pluralName": "Arts & Crafts Stores", "shortName": "Arts & Crafts", "icon": {"prefix": "https://ss3.4sqi.net/img/categories_v2/shops/artstore_", "suffix": ".png"}, "primary": true}], "photos": {"count": 0, "groups": []}}, "referralId": "e-0-4b1a9f90f964a520abed23e3-21"}, {"reasons": {"count": 0, "items": [{"summary": "This spot is popular", "type": "general", "reasonName": "globalInteractionReason"}]}, "venue": {"id": "4ad7853cf964a520bd0b21e3", "name": "Flowers East", "location": {"address": "Kingsland Road", "lat": 51.531565148133566, "lng": -0.07742234375286955, "labeledLatLngs": [{"label": "display", "lat": 51.531565148133566, "lng": -0.07742234375286955}], "distance": 321, "cc": "GB", "city": "London", "state": "Greater London", "country": "United Kingdom", "formattedAddress": ["Kingsland Road", "London", "Greater London", "United Kingdom"]}, "categories": [{"id": "4bf58dd8d48988d11b951735", "name": "Flower Shop", "pluralName": "Flower Shops", "shortName": "Flower Shop", "icon": {"prefix": "https://ss3.4sqi.net/img/categories_v2/shops/flowershop_", "suffix": ".png"}, "primary": true}], "photos": {"count": 0, "groups": []}}, "referralId": "e-0-4ad7853cf964a520bd0b21e3-22"}, {"reasons": {"count": 0, "items": [{"summary": "This spot is popular", "type": "general", "reasonName": "globalInteractionReason"}]}, "venue": {"id": "5b603cbc90d1ed002c520532", "name": "EFL Contracts", "location": {"address": "81 Rivington Street", "lat": 51.526191629356966, "lng": -0.0794684886932373, "labeledLatLngs": [{"label": "display", "lat": 51.526191629356966, "lng": -0.0794684886932373}], "distance": 346, "postalCode": "EC2A 3AY", "cc": "GB", "city": "Shoreditch", "state": "Greater London", "country": "United Kingdom", "formattedAddress": ["81 Rivington Street", "Shoreditch", "Greater London", "EC2A 3AY", "United Kingdom"]}, "categories": [{"id": "5453de49498eade8af355881", "name": "Business Service", "pluralName": "Business Services", "shortName": "Business Services", "icon": {"prefix": "https://ss3.4sqi.net/img/categories_v2/building/default_", "suffix": ".png"}, "primary": true}], "photos": {"count": 0, "groups": []}, "venuePage": {"id": "510962684"}}, "referralId": "e-0-5b603cbc90d1ed002c520532-23"}, {"reasons": {"count": 0, "items": [{"summary": "This spot is popular", "type": "general", "reasonName": "globalInteractionReason"}]}, "venue": {"id": "5ab223952db4a90706b25b71", "name": "One Louder Recording Studios", "location": {"address": "188A Hackney Rd", "lat": 51.53068589999999, "lng": -0.0722077000000354, "labeledLatLngs": [{"label": "display", "lat": 51.53068589999999, "lng": -0.0722077000000354}], "distance": 372, "postalCode": "E2 7QL", "cc": "GB", "city": "London", "state": "Greater London", "country": "United Kingdom", "formattedAddress": ["188A Hackney Rd", "London", "Greater London", "E2 7QL", "United Kingdom"]}, "categories": [{"id": "52f2ab2ebcbc57f1066b8b37", "name": "Recording Studio", "pluralName": "Recording Studios", "shortName": "Recording Studio", "icon": {"prefix": "https://ss3.4sqi.net/img/categories_v2/building/school_music_", "suffix": ".png"}, "primary": true}], "photos": {"count": 0, "groups": []}, "venuePage": {"id": "485293434"}}, "referralId": "e-0-5ab223952db4a90706b25b71-24"}, {"reasons": {"count": 0, "items": [{"summary": "This spot is popular", "type": "general", "reasonName": "globalInteractionReason"}]}, "venue": {"id": "4d85fe5de83fa143a7f385a1", "name": "Two Columbia Road", "location": {"address": "2 Columbia Road", "lat": 51.528220740638034, "lng": -0.07572134344370787, "labeledLatLngs": [{"label": "display", "lat": 51.528220740638034, "lng": -0.07572134344370787}], "distance": 81, "cc": "GB", "city": "London", "state": "Greater London", "country": "United Kingdom", "formattedAddress": ["2 Columbia Road", "London", "Greater London", "United Kingdom"]}, "categories": [{"id": "4bf58dd8d48988d1f8941735", "name": "Furniture / Home Store", "pluralName": "Furniture / Home Stores", "shortName": "Furniture / Home", "icon": {"prefix": "https://ss3.4sqi.net/img/categories_v2/shops/furniture_", "suffix": ".png"}, "primary": true}], "photos": {"count": 0, "groups": []}}, "referralId": "e-0-4d85fe5de83fa143a7f385a1-25"}, {"reasons": {"count": 0, "items": [{"summary": "This spot is popular", "type": "general", "reasonName": "globalInteractionReason"}]}, "venue": {"id": "5004216fe4b07c8aea289bd8", "name": "Pro Centre", "location": {"address": "14 Union Walk", "lat": 51.529770600058896, "lng": -0.07680824505846688, "labeledLatLngs": [{"label": "display", "lat": 51.529770600058896, "lng": -0.07680824505846688}], "distance": 117, "postalCode": "E2 8HP", "cc": "GB", "city": "London", "state": "Greater London", "country": "United Kingdom", "formattedAddress": ["14 Union Walk", "London", "Greater London", "E2 8HP", "United Kingdom"]}, "categories": [{"id": "4eb1bdf03b7b55596b4a7491", "name": "Camera Store", "pluralName": "Camera Stores", "shortName": "Camera Store", "icon": {"prefix": "https://ss3.4sqi.net/img/categories_v2/shops/camerastore_", "suffix": ".png"}, "primary": true}], "photos": {"count": 0, "groups": []}}, "referralId": "e-0-5004216fe4b07c8aea289bd8-26"}, {"reasons": {"count": 0, "items": [{"summary": "This spot is popular", "type": "general", "reasonName": "globalInteractionReason"}]}, "venue": {"id": "51f8bcc0498e01878b65ca75", "name": "JJ Media Group", "location": {"address": "17A Perseverance Works,  25-27 Hackney Rd", "lat": 51.528011, "lng": -0.076891, "labeledLatLngs": [{"label": "display", "lat": 51.528011, "lng": -0.076891}], "distance": 83, "postalCode": "E2 8DD", "cc": "GB", "city": "London", "state": "Greater London", "country": "United Kingdom", "formattedAddress": ["17A Perseverance Works,  25-27 Hackney Rd", "London", "Greater London", "E2 8DD", "United Kingdom"]}, "categories": [{"id": "554a5e17498efabeda6cc559", "name": "Photography Studio", "pluralName": "Photography Studios", "shortName": "Photo Studio", "icon": {"prefix": "https://ss3.4sqi.net/img/categories_v2/shops/camerastore_", "suffix": ".png"}, "primary": true}], "photos": {"count": 0, "groups": []}, "venuePage": {"id": "88818048"}}, "referralId": "e-0-51f8bcc0498e01878b65ca75-27"}, {"reasons": {"count": 0, "items": [{"summary": "This spot is popular", "type": "general", "reasonName": "globalInteractionReason"}]}, "venue": {"id": "565c245c38faef99b76d0704", "name": "ilithium limited", "location": {"address": "154-158 Shoreditch High St", "crossStreet": "2nd Floor", "lat": 51.52536431232852, "lng": -0.07778968383593718, "labeledLatLngs": [{"label": "display", "lat": 51.52536431232852, "lng": -0.07778968383593718}], "distance": 384, "postalCode": "E1 6HD", "cc": "GB", "neighborhood": "Shoreditch, London, Greater London", "city": "London", "state": "Greater London", "country": "United Kingdom", "formattedAddress": ["154-158 Shoreditch High St (2nd Floor)", "London", "Greater London", "E1 6HD", "United Kingdom"]}, "categories": [{"id": "52f2ab2ebcbc57f1066b8b36", "name": "IT Services", "pluralName": "IT Services", "shortName": "IT Services", "icon": {"prefix": "https://ss3.4sqi.net/img/categories_v2/shops/technology_", "suffix": ".png"}, "primary": true}], "photos": {"count": 0, "groups": []}, "venuePage": {"id": "193902513"}}, "referralId": "e-0-565c245c38faef99b76d0704-28"}, {"reasons": {"count": 0, "items": [{"summary": "This spot is popular", "type": "general", "reasonName": "globalInteractionReason"}]}, "venue": {"id": "5983455375a6ea2b65897266", "name": "Facebar London", "location": {"address": "67-68 Charlotte Road", "lat": 51.52662817363722, "lng": -0.08126556873321533, "labeledLatLngs": [{"label": "display", "lat": 51.52662817363722, "lng": -0.08126556873321533}], "distance": 400, "postalCode": "EC2A 3PE", "cc": "GB", "city": "Shoreditch", "state": "Greater London", "country": "United Kingdom", "formattedAddress": ["67-68 Charlotte Road", "Shoreditch", "Greater London", "EC2A 3PE", "United Kingdom"]}, "categories": [{"id": "4bf58dd8d48988d10c951735", "name": "Cosmetics Shop", "pluralName": "Cosmetics Shops", "shortName": "Cosmetics", "icon": {"prefix": "https://ss3.4sqi.net/img/categories_v2/shops/beauty_cosmetic_", "suffix": ".png"}, "primary": true}], "photos": {"count": 0, "groups": []}, "venuePage": {"id": "435630788"}}, "referralId": "e-0-5983455375a6ea2b65897266-29"}, {"reasons": {"count": 0, "items": [{"summary": "This spot is popular", "type": "general", "reasonName": "globalInteractionReason"}]}, "venue": {"id": "4bfe861cf7c82d7fa5b08f04", "name": "Paintworks", "location": {"address": "99-101 Kingsland Road", "lat": 51.530776601338275, "lng": -0.07708680242319639, "labeledLatLngs": [{"label": "display", "lat": 51.530776601338275, "lng": -0.07708680242319639}], "distance": 230, "postalCode": "E2 8AG", "cc": "GB", "city": "Hackney", "state": "Greater London", "country": "United Kingdom", "formattedAddress": ["99-101 Kingsland Road", "Hackney", "Greater London", "E2 8AG", "United Kingdom"]}, "categories": [{"id": "4bf58dd8d48988d127951735", "name": "Arts & Crafts Store", "pluralName": "Arts & Crafts Stores", "shortName": "Arts & Crafts", "icon": {"prefix": "https://ss3.4sqi.net/img/categories_v2/shops/artstore_", "suffix": ".png"}, "primary": true}], "photos": {"count": 0, "groups": []}}, "referralId": "e-0-4bfe861cf7c82d7fa5b08f04-30"}, {"reasons": {"count": 0, "items": [{"summary": "This spot is popular", "type": "general", "reasonName": "globalInteractionReason"}]}, "venue": {"id": "4bd8b0b2f645c9b6e6c7a8e0", "name": "Nisa", "location": {"address": "341-343 Old St.", "lat": 51.52733597368719, "lng": -0.07932845449515216, "labeledLatLngs": [{"label": "display", "lat": 51.52733597368719, "lng": -0.07932845449515216}], "distance": 246, "postalCode": "EC1V 9LL", "cc": "GB", "city": "Shoreditch", "state": "Greater London", "country": "United Kingdom", "formattedAddress": ["341-343 Old St.", "Shoreditch", "Greater London", "EC1V 9LL", "United Kingdom"]}, "categories": [{"id": "4d954b0ea243a5684a65b473", "name": "Convenience Store", "pluralName": "Convenience Stores", "shortName": "Convenience Store", "icon": {"prefix": "https://ss3.4sqi.net/img/categories_v2/shops/conveniencestore_", "suffix": ".png"}, "primary": true}], "photos": {"count": 0, "groups": []}}, "referralId": "e-0-4bd8b0b2f645c9b6e6c7a8e0-31"}, {"reasons": {"count": 0, "items": [{"summary": "This spot is popular", "type": "general", "reasonName": "globalInteractionReason"}]}, "venue": {"id": "569ca663498ed458082dce03", "name": "RedPixie", "location": {"address": "Eagle House, 167 City Road", "lat": 51.526439326565296, "lng": -0.07776778784407973, "labeledLatLngs": [{"label": "display", "lat": 51.526439326565296, "lng": -0.07776778784407973}], "distance": 268, "postalCode": "EC1V 1NR", "cc": "GB", "city": "London", "state": "Greater London", "country": "United Kingdom", "formattedAddress": ["Eagle House, 167 City Road", "London", "Greater London", "EC1V 1NR", "United Kingdom"]}, "categories": [{"id": "52f2ab2ebcbc57f1066b8b36", "name": "IT Services", "pluralName": "IT Services", "shortName": "IT Services", "icon": {"prefix": "https://ss3.4sqi.net/img/categories_v2/shops/technology_", "suffix": ".png"}, "primary": true}], "photos": {"count": 0, "groups": []}}, "referralId": "e-0-569ca663498ed458082dce03-32"}, {"reasons": {"count": 0, "items": [{"summary": "This spot is popular", "type": "general", "reasonName": "globalInteractionReason"}]}, "venue": {"id": "4fc36b374fc6508191124c99", "name": "Mawi", "location": {"address": "11 Calvert Avenue", "lat": 51.526174274468524, "lng": -0.07578849792480469, "labeledLatLngs": [{"label": "display", "lat": 51.526174274468524, "lng": -0.07578849792480469}], "distance": 289, "postalCode": "E2 7JP", "cc": "GB", "city": "London", "state": "Greater London", "country": "United Kingdom", "formattedAddress": ["11 Calvert Avenue", "London", "Greater London", "E2 7JP", "United Kingdom"]}, "categories": [{"id": "4bf58dd8d48988d111951735", "name": "Jewelry Store", "pluralName": "Jewelry Stores", "shortName": "Jewelry", "icon": {"prefix": "https://ss3.4sqi.net/img/categories_v2/shops/jewelry_", "suffix": ".png"}, "primary": true}], "photos": {"count": 0, "groups": []}}, "referralId": "e-0-4fc36b374fc6508191124c99-33"}, {"reasons": {"count": 0, "items": [{"summary": "This spot is popular", "type": "general", "reasonName": "globalInteractionReason"}]}, "venue": {"id": "4feaeede582f83fe3ba397a9", "name": "S.E.H Kelly", "location": {"address": "1 Cleve Workshops", "crossStreet": "Boundary Street", "lat": 51.52607414904275, "lng": -0.07666826248168945, "labeledLatLngs": [{"label": "display", "lat": 51.52607414904275, "lng": -0.07666826248168945}], "distance": 295, "postalCode": "E2 7JD", "cc": "GB", "city": "Shoreditch", "state": "Greater London", "country": "United Kingdom", "formattedAddress": ["1 Cleve Workshops (Boundary Street)", "Shoreditch", "Greater London", "E2 7JD", "United Kingdom"]}, "categories": [{"id": "4bf58dd8d48988d106951735", "name": "Men's Store", "pluralName": "Men's Stores", "shortName": "Men's Store", "icon": {"prefix": "https://ss3.4sqi.net/img/categories_v2/shops/apparel_men_", "suffix": ".png"}, "primary": true}], "photos": {"count": 0, "groups": []}, "venuePage": {"id": "90484549"}}, "referralId": "e-0-4feaeede582f83fe3ba397a9-34"}, {"reasons": {"count": 0, "items": [{"summary": "This spot is popular", "type": "general", "reasonName": "globalInteractionReason"}]}, "venue": {"id": "51da97575019117a961c633b", "name": "Flanders", "location": {"address": "86 Hoxton Street", "lat": 51.5304661107123, "lng": -0.08007466793060303, "labeledLatLngs": [{"label": "display", "lat": 51.5304661107123, "lng": -0.08007466793060303}], "distance": 310, "postalCode": "N1 6LP", "cc": "GB", "city": "London", "state": "Greater London", "country": "United Kingdom", "formattedAddress": ["86 Hoxton Street", "London", "Greater London", "N1 6LP", "United Kingdom"]}, "categories": [{"id": "4bf58dd8d48988d101951735", "name": "Thrift / Vintage Store", "pluralName": "Thrift / Vintage Stores", "shortName": "Thrift / Vintage", "icon": {"prefix": "https://ss3.4sqi.net/img/categories_v2/shops/default_", "suffix": ".png"}, "primary": true}], "photos": {"count": 0, "groups": []}, "venuePage": {"id": "60944273"}}, "referralId": "e-0-51da97575019117a961c633b-35"}, {"reasons": {"count": 0, "items": [{"summary": "This spot is popular", "type": "general", "reasonName": "globalInteractionReason"}]}, "venue": {"id": "56f4be64cd1083ad45c828be", "name": "Garden", "location": {"address": "148 Curtain Rd", "lat": 51.5267557, "lng": -0.0801105, "labeledLatLngs": [{"label": "display", "lat": 51.5267557, "lng": -0.0801105}], "distance": 329, "postalCode": "EC2A 3AR", "cc": "GB", "city": "London", "state": "Greater London", "country": "United Kingdom", "formattedAddress": ["148 Curtain Rd", "London", "Greater London", "EC2A 3AR", "United Kingdom"]}, "categories": [{"id": "52f2ab2ebcbc57f1066b8b28", "name": "Print Shop", "pluralName": "Print Shops", "shortName": "Print Shop", "icon": {"prefix": "https://ss3.4sqi.net/img/categories_v2/shops/default_", "suffix": ".png"}, "primary": true}], "photos": {"count": 0, "groups": []}}, "referralId": "e-0-56f4be64cd1083ad45c828be-36"}, {"reasons": {"count": 0, "items": [{"summary": "This spot is popular", "type": "general", "reasonName": "globalInteractionReason"}]}, "venue": {"id": "4c53f57330f92d7fcb6aa4b9", "name": "British Food And Wine", "location": {"address": "http://www.foodandwine.com", "lat": 51.527, "lng": -0.080467, "labeledLatLngs": [{"label": "display", "lat": 51.527, "lng": -0.080467}], "distance": 331, "cc": "GB", "country": "United Kingdom", "formattedAddress": ["http://www.foodandwine.com", "United Kingdom"]}, "categories": [{"id": "4bf58dd8d48988d118951735", "name": "Grocery Store", "pluralName": "Grocery Stores", "shortName": "Grocery Store", "icon": {"prefix": "https://ss3.4sqi.net/img/categories_v2/shops/food_grocery_", "suffix": ".png"}, "primary": true}], "photos": {"count": 0, "groups": []}}, "referralId": "e-0-4c53f57330f92d7fcb6aa4b9-37"}, {"reasons": {"count": 0, "items": [{"summary": "This spot is popular", "type": "general", "reasonName": "globalInteractionReason"}]}, "venue": {"id": "5fc667875b4d4e01d2a094dd", "name": "Beleza Tropical", "location": {"address": "134-146 Curtain Road", "lat": 51.52657241, "lng": -0.08008007, "labeledLatLngs": [{"label": "display", "lat": 51.52657241, "lng": -0.08008007}], "distance": 341, "postalCode": "EC2A 3AR", "cc": "GB", "city": "London", "state": "Greater London", "country": "United Kingdom", "formattedAddress": ["134-146 Curtain Road", "London", "Greater London", "EC2A 3AR", "United Kingdom"]}, "categories": [{"id": "54541900498ea6ccd0202697", "name": "Health & Beauty Service", "pluralName": "Health & Beauty Services", "shortName": "Health & Beauty", "icon": {"prefix": "https://ss3.4sqi.net/img/categories_v2/shops/salon_barber_", "suffix": ".png"}, "primary": true}], "photos": {"count": 0, "groups": []}, "venuePage": {"id": "1359010995"}}, "referralId": "e-0-5fc667875b4d4e01d2a094dd-38"}, {"reasons": {"count": 0, "items": [{"summary": "This spot is popular", "type": "general", "reasonName": "globalInteractionReason"}]}, "venue": {"id": "4ca2057e79d9b1f78640c499", "name": "A-Z Dry Cleaners", "location": {"lat": 51.527395532353154, "lng": -0.08143402150963525, "labeledLatLngs": [{"label": "display", "lat": 51.527395532353154, "lng": -0.08143402150963525}], "distance": 368, "cc": "GB", "city": "Hackney", "state": "Greater London", "country": "United Kingdom", "formattedAddress": ["Hackney", "Greater London", "United Kingdom"]}, "categories": [{"id": "52f2ab2ebcbc57f1066b8b1d", "name": "Dry Cleaner", "pluralName": "Dry Cleaners", "shortName": "Dry Cleaner", "icon": {"prefix": "https://ss3.4sqi.net/img/categories_v2/shops/drycleaner_", "suffix": ".png"}, "primary": true}], "photos": {"count": 0, "groups": []}}, "referralId": "e-0-4ca2057e79d9b1f78640c499-39"}, {"reasons": {"count": 0, "items": [{"summary": "This spot is popular", "type": "general", "reasonName": "globalInteractionReason"}]}, "venue": {"id": "597c7e93e1f2280f3b733022", "name": "Dragon Trail Interactive", "location": {"address": "154-158 Shoreditch High St", "lat": 51.52544412, "lng": -0.07787411, "labeledLatLngs": [{"label": "display", "lat": 51.52544412, "lng": -0.07787411}], "distance": 376, "postalCode": "E1 6HU", "cc": "GB", "city": "London", "state": "Greater London", "country": "United Kingdom", "formattedAddress": ["154-158 Shoreditch High St", "London", "Greater London", "E1 6HU", "United Kingdom"]}, "categories": [{"id": "52f2ab2ebcbc57f1066b8b36", "name": "IT Services", "pluralName": "IT Services", "shortName": "IT Services", "icon": {"prefix": "https://ss3.4sqi.net/img/categories_v2/shops/technology_", "suffix": ".png"}, "primary": true}], "photos": {"count": 0, "groups": []}}, "referralId": "e-0-597c7e93e1f2280f3b733022-40"}, {"reasons": {"count": 0, "items": [{"summary": "This spot is popular", "type": "general", "reasonName": "globalInteractionReason"}]}, "venue": {"id": "4ac518f4f964a520feae20e3", "name": "Vintage Heaven", "location": {"address": "82 Columbia Road", "lat": 51.5284519, "lng": -0.0711411, "labeledLatLngs": [{"label": "display", "lat": 51.5284519, "lng": -0.0711411}], "distance": 377, "postalCode": "E2 7RG", "cc": "GB", "city": "London", "state": "Greater London", "country": "United Kingdom", "formattedAddress": ["82 Columbia Road", "London", "Greater London", "E2 7RG", "United Kingdom"]}, "categories": [{"id": "4bf58dd8d48988d101951735", "name": "Thrift / Vintage Store", "pluralName": "Thrift / Vintage Stores", "shortName": "Thrift / Vintage", "icon": {"prefix": "https://ss3.4sqi.net/img/categories_v2/shops/default_", "suffix": ".png"}, "primary": true}], "photos": {"count": 0, "groups": []}}, "referralId": "e-0-4ac518f4f964a520feae20e3-41"}, {"reasons": {"count": 0, "items": [{"summary": "This spot is popular", "type": "general", "reasonName": "globalInteractionReason"}]}, "venue": {"id": "4bcb6ac0511f95216d71b1c7", "name": "Strongroom Music Studios", "location": {"address": "120-124 Curtain Rd", "lat": 51.52607381989855, "lng": -0.0800928656836658, "labeledLatLngs": [{"label": "display", "lat": 51.52607381989855, "lng": -0.0800928656836658}], "distance": 383, "postalCode": "EC2A 3SQ", "cc": "GB", "city": "London", "state": "Greater London", "country": "United Kingdom", "formattedAddress": ["120-124 Curtain Rd", "London", "Greater London", "EC2A 3SQ", "United Kingdom"]}, "categories": [{"id": "52f2ab2ebcbc57f1066b8b37", "name": "Recording Studio", "pluralName": "Recording Studios", "shortName": "Recording Studio", "icon": {"prefix": "https://ss3.4sqi.net/img/categories_v2/building/school_music_", "suffix": ".png"}, "primary": true}], "photos": {"count": 0, "groups": []}}, "referralId": "e-0-4bcb6ac0511f95216d71b1c7-42"}, {"reasons": {"count": 0, "items": [{"summary": "This spot is popular", "type": "general", "reasonName": "globalInteractionReason"}]}, "venue": {"id": "4c02d6d6f423a5936567cf16", "name": "Gold Wines Off License", "location": {"lat": 51.526176, "lng": -0.080323, "labeledLatLngs": [{"label": "display", "lat": 51.526176, "lng": -0.080323}], "distance": 385, "cc": "GB", "country": "United Kingdom", "formattedAddress": ["United Kingdom"]}, "categories": [{"id": "4bf58dd8d48988d186941735", "name": "Liquor Store", "pluralName": "Liquor Stores", "shortName": "Liquor Store", "icon": {"prefix": "https://ss3.4sqi.net/img/categories_v2/shops/food_liquor_", "suffix": ".png"}, "primary": true}], "photos": {"count": 0, "groups": []}}, "referralId": "e-0-4c02d6d6f423a5936567cf16-43"}]}]}}