{"meta": {"code": 200, "requestId": "5feddce291aecb7c6e1f6c3f"}, "response": {"warning": {"text": "There aren't a lot of results near you. Try something more general, reset your filters, or expand the search area."}, "headerLocation": "Brentford", "headerFullLocation": "Brentford, London", "headerLocationGranularity": "neighborhood", "query": "arts entertainment", "totalResults": 3, "suggestedBounds": {"ne": {"lat": 51.48583000360001, "lng": -0.299760044648679}, "sw": {"lat": 51.478629996399995, "lng": -0.31129995535132104}}, "groups": [{"type": "Recommended Places", "name": "recommended", "items": [{"reasons": {"count": 0, "items": [{"summary": "This spot is popular", "type": "general", "reasonName": "globalInteractionReason"}]}, "venue": {"id": "4ee3a55e0e61681b9578bb6f", "name": "Music In The Market", "location": {"lat": 51.48277781180471, "lng": -0.30609254742587655, "labeledLatLngs": [{"label": "display", "lat": 51.48277781180471, "lng": -0.30609254742587655}], "distance": 72, "cc": "GB", "city": "Brentford", "state": "Greater London", "country": "United Kingdom", "formattedAddress": ["Brentford", "Greater London", "United Kingdom"]}, "categories": [{"id": "4bf58dd8d48988d1e5931735", "name": "Music Venue", "pluralName": "Music Venues", "shortName": "Music Venue", "icon": {"prefix": "https://ss3.4sqi.net/img/categories_v2/arts_entertainment/musicvenue_", "suffix": ".png"}, "primary": true}], "photos": {"count": 0, "groups": []}}, "referralId": "e-0-4ee3a55e0e61681b9578bb6f-0"}, {"reasons": {"count": 0, "items": [{"summary": "This spot is popular", "type": "general", "reasonName": "globalInteractionReason"}]}, "venue": {"id": "54707ed8498e7269b2685ed8", "name": "johnson's island", "location": {"lat": 51.482275, "lng": -0.305527, "labeledLatLngs": [{"label": "display", "lat": 51.482275, "lng": -0.305527}], "distance": 5, "cc": "GB", "country": "United Kingdom", "formattedAddress": ["United Kingdom"]}, "categories": [{"id": "4bf58dd8d48988d1e2931735", "name": "Art Gallery", "pluralName": "Art Galleries", "shortName": "Art Gallery", "icon": {"prefix": "https://ss3.4sqi.net/img/categories_v2/arts_entertainment/artgallery_", "suffix": ".png"}, "primary": true}], "photos": {"count": 0, "groups": []}}, "referralId": "e-0-54707ed8498e7269b2685ed8-1"}, {"reasons": {"count": 0, "items": [{"summary": "This spot is popular", "type": "general", "reasonName": "globalInteractionReason"}]}, "venue": {"id": "4e209f2b45dd950bb01c70b4", "name": "Docking Station", "location": {"address": "108 High Street", "lat": 51.48310643240236, "lng": -0.3075177087146239, "labeledLatLngs": [{"label": "display", "lat": 51.48310643240236, "lng": -0.3075177087146239}], "distance": 168, "postalCode": "TW8 8AT", "cc": "GB", "city": "London", "state": "Greater London", "country": "United Kingdom", "formattedAddress": ["108 High Street", "London", "Greater London", "TW8 8AT", "United Kingdom"]}, "categories": [{"id": "4bf58dd8d48988d1e9931735", "name": "Rock Club", "pluralName": "Rock Clubs", "shortName": "Rock Club", "icon": {"prefix": "https://ss3.4sqi.net/img/categories_v2/arts_entertainment/musicvenue_rockclub_", "suffix": ".png"}, "primary": true}], "photos": {"count": 0, "groups": []}}, "referralId": "e-0-4e209f2b45dd950bb01c70b4-2"}]}]}}