{"meta": {"code": 200, "requestId": "5feddba5a58dfc2a7c4c877b"}, "response": {"suggestedFilters": {"header": "Tap to show:", "filters": [{"name": "Open now", "key": "openNow"}]}, "headerLocation": "Islington", "headerFullLocation": "Islington, London", "headerLocationGranularity": "neighborhood", "query": "arts entertainment", "totalResults": 9, "suggestedBounds": {"ne": {"lat": 51.527210003600004, "lng": -0.08991480288081087}, "sw": {"lat": 51.52000999639999, "lng": -0.10146519711918912}}, "groups": [{"type": "Recommended Places", "name": "recommended", "items": [{"reasons": {"count": 0, "items": [{"summary": "This spot is popular", "type": "general", "reasonName": "globalInteractionReason"}]}, "venue": {"id": "4c36021404cbb71378f5ed0d", "name": "LSO St Luke's", "location": {"address": "161 Old St.", "lat": 51.524964952038104, "lng": -0.09381398950699273, "labeledLatLngs": [{"label": "display", "lat": 51.524964952038104, "lng": -0.09381398950699273}], "distance": 199, "postalCode": "EC1V 9NG", "cc": "GB", "city": "London", "state": "Greater London", "country": "United Kingdom", "formattedAddress": ["161 Old St.", "London", "Greater London", "EC1V 9NG", "United Kingdom"]}, "categories": [{"id": "5032792091d4c4b30a586d5c", "name": "Concert Hall", "pluralName": "Concert Halls", "shortName": "Concert Hall", "icon": {"prefix": "https://ss3.4sqi.net/img/categories_v2/arts_entertainment/musicvenue_", "suffix": ".png"}, "primary": true}], "photos": {"count": 0, "groups": []}, "venuePage": {"id": "32862947"}}, "referralId": "e-0-4c36021404cbb71378f5ed0d-0"}, {"reasons": {"count": 0, "items": [{"summary": "This spot is popular", "type": "general", "reasonName": "globalInteractionReason"}]}, "venue": {"id": "4fc5137be4b0662a3290a1f5", "name": "London Dance Academy", "location": {"address": "4951 Central St", "lat": 51.52557117027983, "lng": -0.09637989678371732, "labeledLatLngs": [{"label": "display", "lat": 51.52557117027983, "lng": -0.09637989678371732}], "distance": 223, "postalCode": "EC1V 8AB", "cc": "GB", "country": "United Kingdom", "formattedAddress": ["4951 Central St", "EC1V 8AB", "United Kingdom"]}, "categories": [{"id": "4bf58dd8d48988d134941735", "name": "Dance Studio", "pluralName": "Dance Studios", "shortName": "Dance Studio", "icon": {"prefix": "https://ss3.4sqi.net/img/categories_v2/arts_entertainment/performingarts_dancestudio_", "suffix": ".png"}, "primary": true}], "photos": {"count": 0, "groups": []}}, "referralId": "e-0-4fc5137be4b0662a3290a1f5-1"}, {"reasons": {"count": 0, "items": [{"summary": "This spot is popular", "type": "general", "reasonName": "globalInteractionReason"}]}, "venue": {"id": "50bfabdae4b030ae4895818c", "name": "Barbican Cinemas 2&3", "location": {"address": "Beech St", "lat": 51.52107320464917, "lng": -0.09297898897784762, "labeledLatLngs": [{"label": "display", "lat": 51.52107320464917, "lng": -0.09297898897784762}], "distance": 339, "postalCode": "EC2Y 8AE", "cc": "GB", "city": "Barbican", "state": "Greater London", "country": "United Kingdom", "formattedAddress": ["Beech St", "Barbican", "Greater London", "EC2Y 8AE", "United Kingdom"]}, "categories": [{"id": "4bf58dd8d48988d17e941735", "name": "Indie Movie Theater", "pluralName": "Indie Movie Theaters", "shortName": "Indie Movies", "icon": {"prefix": "https://ss3.4sqi.net/img/categories_v2/arts_entertainment/movietheater_", "suffix": ".png"}, "primary": true}], "photos": {"count": 0, "groups": []}}, "referralId": "e-0-50bfabdae4b030ae4895818c-2"}, {"reasons": {"count": 0, "items": [{"summary": "This spot is popular", "type": "general", "reasonName": "globalInteractionReason"}]}, "venue": {"id": "509fc6e63950fae8584fd4ff", "name": "the Charterhouse London", "location": {"address": "The Charterhouse, Sutton's Hospital", "crossStreet": "Charterhouse Sq & Clerkenwell Rd", "lat": 51.52085011894743, "lng": -0.09930472100613773, "labeledLatLngs": [{"label": "display", "lat": 51.52085011894743, "lng": -0.09930472100613773}], "distance": 396, "postalCode": "EC1M 6AN", "cc": "GB", "city": "London", "state": "Greater London", "country": "United Kingdom", "formattedAddress": ["The Charterhouse, Sutton's Hospital (Charterhouse Sq & Clerkenwell Rd)", "London", "Greater London", "EC1M 6AN", "United Kingdom"]}, "categories": [{"id": "4bf58dd8d48988d181941735", "name": "Museum", "pluralName": "Museums", "shortName": "Museum", "icon": {"prefix": "https://ss3.4sqi.net/img/categories_v2/arts_entertainment/museum_", "suffix": ".png"}, "primary": true}], "photos": {"count": 0, "groups": []}, "venuePage": {"id": "67197186"}}, "referralId": "e-0-509fc6e63950fae8584fd4ff-3"}, {"reasons": {"count": 0, "items": [{"summary": "This spot is popular", "type": "general", "reasonName": "globalInteractionReason"}]}, "venue": {"id": "5092d31de4b075af17cbffb0", "name": "Zaha Hadid Gallery", "location": {"lat": 51.52538970921411, "lng": -0.09969084665465656, "labeledLatLngs": [{"label": "display", "lat": 51.52538970921411, "lng": -0.09969084665465656}], "distance": 340, "cc": "GB", "country": "United Kingdom", "formattedAddress": ["United Kingdom"]}, "categories": [{"id": "4bf58dd8d48988d1e2931735", "name": "Art Gallery", "pluralName": "Art Galleries", "shortName": "Art Gallery", "icon": {"prefix": "https://ss3.4sqi.net/img/categories_v2/arts_entertainment/artgallery_", "suffix": ".png"}, "primary": true}], "photos": {"count": 0, "groups": []}}, "referralId": "e-0-5092d31de4b075af17cbffb0-4"}, {"reasons": {"count": 0, "items": [{"summary": "This spot is popular", "type": "general", "reasonName": "globalInteractionReason"}]}, "venue": {"id": "580b760738fa6aa4f6399a52", "name": "Sway Gallery", "location": {"address": "70-72 Old St", "lat": 51.524348, "lng": -0.095174, "labeledLatLngs": [{"label": "display", "lat": 51.524348, "lng": -0.095174}], "distance": 89, "postalCode": "EC1V 9AN", "cc": "GB", "country": "United Kingdom", "formattedAddress": ["70-72 Old St", "EC1V 9AN", "United Kingdom"]}, "categories": [{"id": "4bf58dd8d48988d1e2931735", "name": "Art Gallery", "pluralName": "Art Galleries", "shortName": "Art Gallery", "icon": {"prefix": "https://ss3.4sqi.net/img/categories_v2/arts_entertainment/artgallery_", "suffix": ".png"}, "primary": true}], "photos": {"count": 0, "groups": []}}, "referralId": "e-0-580b760738fa6aa4f6399a52-5"}, {"reasons": {"count": 0, "items": [{"summary": "This spot is popular", "type": "general", "reasonName": "globalInteractionReason"}]}, "venue": {"id": "59bf84344acb1902f3b280a4", "name": "Banksy's Portrait of Basquiat", "location": {"lat": 51.521871, "lng": -0.09448, "labeledLatLngs": [{"label": "display", "lat": 51.521871, "lng": -0.09448}], "distance": 210, "postalCode": "EC1Y 0RS", "cc": "GB", "city": "London", "state": "Greater London", "country": "United Kingdom", "formattedAddress": ["London", "Greater London", "EC1Y 0RS", "United Kingdom"]}, "categories": [{"id": "52e81612bcbc57f1066b79ee", "name": "Street Art", "pluralName": "Street Art Installations", "shortName": "Street Art", "icon": {"prefix": "https://ss3.4sqi.net/img/categories_v2/arts_entertainment/default_", "suffix": ".png"}, "primary": true}], "photos": {"count": 0, "groups": []}}, "referralId": "e-0-59bf84344acb1902f3b280a4-6"}, {"reasons": {"count": 0, "items": [{"summary": "This spot is popular", "type": "general", "reasonName": "globalInteractionReason"}]}, "venue": {"id": "50ba073ae4b054161c113ac4", "name": "AMTA Studios", "location": {"address": "Europa House", "crossStreet": "13-17 Ironmonger Row", "lat": 51.526888826179295, "lng": -0.09441812365853519, "labeledLatLngs": [{"label": "display", "lat": 51.526888826179295, "lng": -0.09441812365853519}], "distance": 375, "postalCode": "EC1V 3QG", "cc": "GB", "city": "London", "state": "Greater London", "country": "United Kingdom", "formattedAddress": ["Europa House (13-17 Ironmonger Row)", "London", "Greater London", "EC1V 3QG", "United Kingdom"]}, "categories": [{"id": "4bf58dd8d48988d134941735", "name": "Dance Studio", "pluralName": "Dance Studios", "shortName": "Dance Studio", "icon": {"prefix": "https://ss3.4sqi.net/img/categories_v2/arts_entertainment/performingarts_dancestudio_", "suffix": ".png"}, "primary": true}], "photos": {"count": 0, "groups": []}}, "referralId": "e-0-50ba073ae4b054161c113ac4-7"}, {"reasons": {"count": 0, "items": [{"summary": "This spot is popular", "type": "general", "reasonName": "globalInteractionReason"}]}, "venue": {"id": "4d8bc05a761e224bd117c329", "name": "The basement (guildhall Su)", "location": {"address": "Sundial Court", "lat": 51.52123, "lng": -0.091434, "labeledLatLngs": [{"label": "display", "lat": 51.52123, "lng": -0.091434}], "distance": 396, "postalCode": "EC1Y 4SB", "cc": "GB", "city": "Islington", "state": "Greater London", "country": "United Kingdom", "formattedAddress": ["Sundial Court", "Islington", "Greater London", "EC1Y 4SB", "United Kingdom"]}, "categories": [{"id": "4bf58dd8d48988d1e5931735", "name": "Music Venue", "pluralName": "Music Venues", "shortName": "Music Venue", "icon": {"prefix": "https://ss3.4sqi.net/img/categories_v2/arts_entertainment/musicvenue_", "suffix": ".png"}, "primary": true}], "photos": {"count": 0, "groups": []}}, "referralId": "e-0-4d8bc05a761e224bd117c329-8"}]}]}}