{"meta": {"code": 200, "requestId": "5feddc3bc932c558bea2d10c"}, "response": {"headerLocation": "Colindale", "headerFullLocation": "Colindale, London", "headerLocationGranularity": "neighborhood", "query": "travel", "totalResults": 5, "suggestedBounds": {"ne": {"lat": 51.5991100036, "lng": -0.2376356651521023}, "sw": {"lat": 51.59190999639999, "lng": -0.2492043348478977}}, "groups": [{"type": "Recommended Places", "name": "recommended", "items": [{"reasons": {"count": 0, "items": [{"summary": "This spot is popular", "type": "general", "reasonName": "globalInteractionReason"}]}, "venue": {"id": "530a24a6498ea17f86c8c491", "name": "Beaufort Park QS Bus Stop", "location": {"lat": 51.596573552307206, "lng": -0.2448715782426352, "labeledLatLngs": [{"label": "display", "lat": 51.596573552307206, "lng": -0.2448715782426352}], "distance": 155, "cc": "GB", "country": "United Kingdom", "formattedAddress": ["United Kingdom"]}, "categories": [{"id": "52f2ab2ebcbc57f1066b8b4f", "name": "Bus Stop", "pluralName": "Bus Stops", "shortName": "Bus Stop", "icon": {"prefix": "https://ss3.4sqi.net/img/categories_v2/travel/busstation_", "suffix": ".png"}, "primary": true}], "photos": {"count": 0, "groups": []}}, "referralId": "e-0-530a24a6498ea17f86c8c491-0"}, {"reasons": {"count": 0, "items": [{"summary": "This spot is popular", "type": "general", "reasonName": "globalInteractionReason"}]}, "venue": {"id": "50d373c1e4b0602c970acbc1", "name": "Cherry Close Bus Stop QT", "location": {"address": "Lanacre Ave", "crossStreet": "Cherry Close", "lat": 51.59750105081716, "lng": -0.2461992381241879, "labeledLatLngs": [{"label": "display", "lat": 51.59750105081716, "lng": -0.2461992381241879}], "distance": 293, "postalCode": "NW9", "cc": "GB", "city": "London", "state": "Greater London", "country": "United Kingdom", "formattedAddress": ["Lanacre Ave (Cherry Close)", "London", "Greater London", " NW9", "United Kingdom"]}, "categories": [{"id": "52f2ab2ebcbc57f1066b8b4f", "name": "Bus Stop", "pluralName": "Bus Stops", "shortName": "Bus Stop", "icon": {"prefix": "https://ss3.4sqi.net/img/categories_v2/travel/busstation_", "suffix": ".png"}, "primary": true}], "photos": {"count": 0, "groups": []}}, "referralId": "e-0-50d373c1e4b0602c970acbc1-1"}, {"reasons": {"count": 0, "items": [{"summary": "This spot is popular", "type": "general", "reasonName": "globalInteractionReason"}]}, "venue": {"id": "50798d0be4b047ff2bcd3c07", "name": "RAF Museum Bus Stop QR", "location": {"lat": 51.59760982374019, "lng": -0.2408276979807055, "labeledLatLngs": [{"label": "display", "lat": 51.59760982374019, "lng": -0.2408276979807055}], "distance": 294, "cc": "GB", "country": "United Kingdom", "formattedAddress": ["United Kingdom"]}, "categories": [{"id": "52f2ab2ebcbc57f1066b8b4f", "name": "Bus Stop", "pluralName": "Bus Stops", "shortName": "Bus Stop", "icon": {"prefix": "https://ss3.4sqi.net/img/categories_v2/travel/busstation_", "suffix": ".png"}, "primary": true}], "photos": {"count": 0, "groups": []}}, "referralId": "e-0-50798d0be4b047ff2bcd3c07-2"}, {"reasons": {"count": 0, "items": [{"summary": "This spot is popular", "type": "general", "reasonName": "globalInteractionReason"}]}, "venue": {"id": "51953b32498e9efad896f053", "name": "Cherry Close Bus Stop QH", "location": {"address": "Lanacre Ave", "crossStreet": "Cherry Close", "lat": 51.59791087437759, "lng": -0.2458593249320984, "labeledLatLngs": [{"label": "display", "lat": 51.59791087437759, "lng": -0.2458593249320984}], "distance": 316, "postalCode": "NW9", "cc": "GB", "city": "London", "state": "Greater London", "country": "United Kingdom", "formattedAddress": ["Lanacre Ave (Cherry Close)", "London", "Greater London", " NW9", "United Kingdom"]}, "categories": [{"id": "52f2ab2ebcbc57f1066b8b4f", "name": "Bus Stop", "pluralName": "Bus Stops", "shortName": "Bus Stop", "icon": {"prefix": "https://ss3.4sqi.net/img/categories_v2/travel/busstation_", "suffix": ".png"}, "primary": true}], "photos": {"count": 0, "groups": []}}, "referralId": "e-0-51953b32498e9efad896f053-3"}, {"reasons": {"count": 0, "items": [{"summary": "This spot is popular", "type": "general", "reasonName": "globalInteractionReason"}]}, "venue": {"id": "50799058e4b08aa6be4637ef", "name": "Colindale Station Bus Stop CA", "location": {"address": "Colindale Ave.", "lat": 51.59579930528995, "lng": -0.24890051337794727, "labeledLatLngs": [{"label": "display", "lat": 51.59579930528995, "lng": -0.24890051337794727}], "distance": 380, "postalCode": "NW9", "cc": "GB", "city": "London", "state": "Greater London", "country": "United Kingdom", "formattedAddress": ["Colindale Ave.", "London", "Greater London", " NW9", "United Kingdom"]}, "categories": [{"id": "52f2ab2ebcbc57f1066b8b4f", "name": "Bus Stop", "pluralName": "Bus Stops", "shortName": "Bus Stop", "icon": {"prefix": "https://ss3.4sqi.net/img/categories_v2/travel/busstation_", "suffix": ".png"}, "primary": true}], "photos": {"count": 0, "groups": []}}, "referralId": "e-0-50799058e4b08aa6be4637ef-4"}]}]}}