{"meta": {"code": 200, "requestId": "5feddb3fc8e80157c8f086f2"}, "response": {"warning": {"text": "There aren't a lot of results near you. Try something more general, reset your filters, or expand the search area."}, "headerLocation": "Whetstone", "headerFullLocation": "Whetstone, London", "headerLocationGranularity": "neighborhood", "query": "travel", "totalResults": 3, "suggestedBounds": {"ne": {"lat": 51.631266003600004, "lng": -0.16936156614749034}, "sw": {"lat": 51.62406599639999, "lng": -0.18093843385250966}}, "groups": [{"type": "Recommended Places", "name": "recommended", "items": [{"reasons": {"count": 0, "items": [{"summary": "This spot is popular", "type": "general", "reasonName": "globalInteractionReason"}]}, "venue": {"id": "57cd9af6498e75e3c458b076", "name": "Bus Stop E", "location": {"lat": 51.628732, "lng": -0.17439, "labeledLatLngs": [{"label": "display", "lat": 51.628732, "lng": -0.17439}], "distance": 129, "cc": "GB", "country": "United Kingdom", "formattedAddress": ["United Kingdom"]}, "categories": [{"id": "52f2ab2ebcbc57f1066b8b4f", "name": "Bus Stop", "pluralName": "Bus Stops", "shortName": "Bus Stop", "icon": {"prefix": "https://ss3.4sqi.net/img/categories_v2/travel/busstation_", "suffix": ".png"}, "primary": true}], "photos": {"count": 0, "groups": []}}, "referralId": "e-0-57cd9af6498e75e3c458b076-0"}, {"reasons": {"count": 0, "items": [{"summary": "This spot is popular", "type": "general", "reasonName": "globalInteractionReason"}]}, "venue": {"id": "5873386652a051541b37c0d6", "name": "Bus Stop D Whetstone - The Griffin", "location": {"lat": 51.629896, "lng": -0.173916, "labeledLatLngs": [{"label": "display", "lat": 51.629896, "lng": -0.173916}], "distance": 262, "cc": "GB", "country": "United Kingdom", "formattedAddress": ["United Kingdom"]}, "categories": [{"id": "52f2ab2ebcbc57f1066b8b4f", "name": "Bus Stop", "pluralName": "Bus Stops", "shortName": "Bus Stop", "icon": {"prefix": "https://ss3.4sqi.net/img/categories_v2/travel/busstation_", "suffix": ".png"}, "primary": true}], "photos": {"count": 0, "groups": []}}, "referralId": "e-0-5873386652a051541b37c0d6-1"}, {"reasons": {"count": 0, "items": [{"summary": "This spot is popular", "type": "general", "reasonName": "globalInteractionReason"}]}, "venue": {"id": "53aa786a498ef91b3d3f9a59", "name": "Totteridge & Whestone Bus Stop", "location": {"lat": 51.63022579105589, "lng": -0.17553473727850516, "labeledLatLngs": [{"label": "display", "lat": 51.63022579105589, "lng": -0.17553473727850516}], "distance": 286, "cc": "GB", "country": "United Kingdom", "formattedAddress": ["United Kingdom"]}, "categories": [{"id": "52f2ab2ebcbc57f1066b8b4f", "name": "Bus Stop", "pluralName": "Bus Stops", "shortName": "Bus Stop", "icon": {"prefix": "https://ss3.4sqi.net/img/categories_v2/travel/busstation_", "suffix": ".png"}, "primary": true}], "photos": {"count": 0, "groups": []}}, "referralId": "e-0-53aa786a498ef91b3d3f9a59-2"}]}]}}