{"meta": {"code": 200, "requestId": "5feddb9fba978f64270f1253"}, "response": {"suggestedFilters": {"header": "Tap to show:", "filters": [{"name": "Open now", "key": "openNow"}]}, "headerLocation": "Lambeth", "headerFullLocation": "Lambeth, London", "headerLocationGranularity": "neighborhood", "query": "food", "totalResults": 16, "suggestedBounds": {"ne": {"lat": 51.4955580036, "lng": -0.11433181349085426}, "sw": {"lat": 51.48835799639999, "lng": -0.12587418650914575}}, "groups": [{"type": "Recommended Places", "name": "recommended", "items": [{"reasons": {"count": 0, "items": [{"summary": "This spot is popular", "type": "general", "reasonName": "globalInteractionReason"}]}, "venue": {"id": "55f00e45498ebe303494b573", "name": "The Garden Cafe, Lambeth Palace", "location": {"address": "Lambeth Palace", "crossStreet": "5 Lambeth Palace Rd", "lat": 51.49520957211074, "lng": -0.11996248565146224, "labeledLatLngs": [{"label": "display", "lat": 51.49520957211074, "lng": -0.11996248565146224}], "distance": 362, "cc": "GB", "neighborhood": "Lambeth", "city": "London", "state": "Greater London", "country": "United Kingdom", "formattedAddress": ["Lambeth Palace (5 Lambeth Palace Rd)", "London", "Greater London", "United Kingdom"]}, "categories": [{"id": "4bf58dd8d48988d16d941735", "name": "Caf\u00e9", "pluralName": "Caf\u00e9s", "shortName": "Caf\u00e9", "icon": {"prefix": "https://ss3.4sqi.net/img/categories_v2/food/cafe_", "suffix": ".png"}, "primary": true}], "photos": {"count": 0, "groups": []}}, "referralId": "e-0-55f00e45498ebe303494b573-0"}, {"reasons": {"count": 0, "items": [{"summary": "This spot is popular", "type": "general", "reasonName": "globalInteractionReason"}]}, "venue": {"id": "598821e4bfc6d0756dcd3fa8", "name": "Park Plaza Riverbank Restaurant", "location": {"address": "Park Plaza Riverbank Hotel", "lat": 51.491482979898926, "lng": -0.12150662548881307, "labeledLatLngs": [{"label": "display", "lat": 51.491482979898926, "lng": -0.12150662548881307}], "distance": 110, "postalCode": "SE1 7TJ", "cc": "GB", "city": "London", "state": "Greater London", "country": "United Kingdom", "formattedAddress": ["Park Plaza Riverbank Hotel", "London", "Greater London", "SE1 7TJ", "United Kingdom"]}, "categories": [{"id": "4bf58dd8d48988d1c4941735", "name": "Restaurant", "pluralName": "Restaurants", "shortName": "Restaurant", "icon": {"prefix": "https://ss3.4sqi.net/img/categories_v2/food/default_", "suffix": ".png"}, "primary": true}], "photos": {"count": 0, "groups": []}}, "referralId": "e-0-598821e4bfc6d0756dcd3fa8-1"}, {"reasons": {"count": 0, "items": [{"summary": "This spot is popular", "type": "general", "reasonName": "globalInteractionReason"}]}, "venue": {"id": "4d89bf1c7d4c548171805971", "name": "Riverside Cafe", "location": {"address": "Lambeth Pier", "crossStreet": "Lambeth Bridge", "lat": 51.495053440162856, "lng": -0.12121530493572784, "labeledLatLngs": [{"label": "display", "lat": 51.495053440162856, "lng": -0.12121530493572784}], "distance": 353, "postalCode": "SE1 7SG", "cc": "GB", "city": "London", "state": "Greater London", "country": "United Kingdom", "formattedAddress": ["Lambeth Pier (Lambeth Bridge)", "London", "Greater London", "SE1 7SG", "United Kingdom"]}, "categories": [{"id": "4bf58dd8d48988d16d941735", "name": "Caf\u00e9", "pluralName": "Caf\u00e9s", "shortName": "Caf\u00e9", "icon": {"prefix": "https://ss3.4sqi.net/img/categories_v2/food/cafe_", "suffix": ".png"}, "primary": true}], "photos": {"count": 0, "groups": []}}, "referralId": "e-0-4d89bf1c7d4c548171805971-2"}, {"reasons": {"count": 0, "items": [{"summary": "This spot is popular", "type": "general", "reasonName": "globalInteractionReason"}]}, "venue": {"id": "522f544f11d24f9ad0f6bba2", "name": "Pizzeria Big Ben Pizza", "location": {"address": "145 Lambeth Walk", "lat": 51.492888, "lng": -0.117081, "labeledLatLngs": [{"label": "display", "lat": 51.492888, "lng": -0.117081}], "distance": 233, "postalCode": "SE11 6EE", "cc": "GB", "city": "London", "state": "Greater London", "country": "United Kingdom", "formattedAddress": ["145 Lambeth Walk", "London", "Greater London", "SE11 6EE", "United Kingdom"]}, "categories": [{"id": "4bf58dd8d48988d1ca941735", "name": "Pizza Place", "pluralName": "Pizza Places", "shortName": "Pizza", "icon": {"prefix": "https://ss3.4sqi.net/img/categories_v2/food/pizza_", "suffix": ".png"}, "primary": true}], "photos": {"count": 0, "groups": []}}, "referralId": "e-0-522f544f11d24f9ad0f6bba2-3"}, {"reasons": {"count": 0, "items": [{"summary": "This spot is popular", "type": "general", "reasonName": "globalInteractionReason"}]}, "venue": {"id": "4acf113af964a5205dd220e3", "name": "Sirena's", "location": {"address": "Black Prince Road", "lat": 51.4921927022502, "lng": -0.12049410887936866, "labeledLatLngs": [{"label": "display", "lat": 51.4921927022502, "lng": -0.12049410887936866}], "distance": 37, "postalCode": "Se1 7sj", "cc": "GB", "city": "London", "state": "Greater London", "country": "United Kingdom", "formattedAddress": ["Black Prince Road", "London", "Greater London", "Se1 7sj", "United Kingdom"]}, "categories": [{"id": "4bf58dd8d48988d110941735", "name": "Italian Restaurant", "pluralName": "Italian Restaurants", "shortName": "Italian", "icon": {"prefix": "https://ss3.4sqi.net/img/categories_v2/food/italian_", "suffix": ".png"}, "primary": true}], "photos": {"count": 0, "groups": []}}, "referralId": "e-0-4acf113af964a5205dd220e3-4"}, {"reasons": {"count": 0, "items": [{"summary": "This spot is popular", "type": "general", "reasonName": "globalInteractionReason"}]}, "venue": {"id": "4cb6ee2e9c7ba35de3169506", "name": "Ragged Canteen", "location": {"address": "22 Newport St", "lat": 51.49189299615052, "lng": -0.11898362605324145, "labeledLatLngs": [{"label": "display", "lat": 51.49189299615052, "lng": -0.11898362605324145}], "distance": 77, "postalCode": "SE11 6AY", "cc": "GB", "city": "London", "state": "Greater London", "country": "United Kingdom", "formattedAddress": ["22 Newport St", "London", "Greater London", "SE11 6AY", "United Kingdom"]}, "categories": [{"id": "4bf58dd8d48988d1d3941735", "name": "Vegetarian / Vegan Restaurant", "pluralName": "Vegetarian / Vegan Restaurants", "shortName": "Vegetarian / Vegan", "icon": {"prefix": "https://ss3.4sqi.net/img/categories_v2/food/vegetarian_", "suffix": ".png"}, "primary": true}], "photos": {"count": 0, "groups": []}}, "referralId": "e-0-4cb6ee2e9c7ba35de3169506-5"}, {"reasons": {"count": 0, "items": [{"summary": "This spot is popular", "type": "general", "reasonName": "globalInteractionReason"}]}, "venue": {"id": "5d010e93419a9e002cc241f0", "name": "Mezemiso", "location": {"address": "Crowne Plaza London", "crossStreet": "15th Floor", "lat": 51.491888, "lng": -0.121383, "labeledLatLngs": [{"label": "display", "lat": 51.491888, "lng": -0.121383}], "distance": 89, "postalCode": "SE1 7SP", "cc": "GB", "city": "South Bank", "state": "Greater London", "country": "United Kingdom", "formattedAddress": ["Crowne Plaza London (15th Floor)", "South Bank", "Greater London", "SE1 7SP", "United Kingdom"]}, "categories": [{"id": "4bf58dd8d48988d1c4941735", "name": "Restaurant", "pluralName": "Restaurants", "shortName": "Restaurant", "icon": {"prefix": "https://ss3.4sqi.net/img/categories_v2/food/default_", "suffix": ".png"}, "primary": true}], "photos": {"count": 0, "groups": []}}, "referralId": "e-0-5d010e93419a9e002cc241f0-6"}, {"reasons": {"count": 0, "items": [{"summary": "This spot is popular", "type": "general", "reasonName": "globalInteractionReason"}]}, "venue": {"id": "4ad6f281f964a520670821e3", "name": "Queens Head", "location": {"address": "71 Black Prince Rd", "lat": 51.491710295453096, "lng": -0.11884029019178509, "labeledLatLngs": [{"label": "display", "lat": 51.491710295453096, "lng": -0.11884029019178509}], "distance": 91, "postalCode": "SE11 6ab", "cc": "GB", "city": "London", "state": "Greater London", "country": "United Kingdom", "formattedAddress": ["71 Black Prince Rd", "London", "Greater London", "SE11 6ab", "United Kingdom"]}, "categories": [{"id": "4bf58dd8d48988d16d941735", "name": "Caf\u00e9", "pluralName": "Caf\u00e9s", "shortName": "Caf\u00e9", "icon": {"prefix": "https://ss3.4sqi.net/img/categories_v2/food/cafe_", "suffix": ".png"}, "primary": true}], "photos": {"count": 0, "groups": []}}, "referralId": "e-0-4ad6f281f964a520670821e3-7"}, {"reasons": {"count": 0, "items": [{"summary": "This spot is popular", "type": "general", "reasonName": "globalInteractionReason"}]}, "venue": {"id": "56d1e112498e02f903b44748", "name": "Pharmacy 2", "location": {"address": "Newport St", "lat": 51.49349629598888, "lng": -0.11703251201699141, "labeledLatLngs": [{"label": "display", "lat": 51.49349629598888, "lng": -0.11703251201699141}], "distance": 273, "postalCode": "SE11 6AJ", "cc": "GB", "city": "London", "state": "Greater London", "country": "United Kingdom", "formattedAddress": ["Newport St", "London", "Greater London", "SE11 6AJ", "United Kingdom"]}, "categories": [{"id": "4bf58dd8d48988d1c4941735", "name": "Restaurant", "pluralName": "Restaurants", "shortName": "Restaurant", "icon": {"prefix": "https://ss3.4sqi.net/img/categories_v2/food/default_", "suffix": ".png"}, "primary": true}], "photos": {"count": 0, "groups": []}}, "referralId": "e-0-56d1e112498e02f903b44748-8"}, {"reasons": {"count": 0, "items": [{"summary": "This spot is popular", "type": "general", "reasonName": "globalInteractionReason"}]}, "venue": {"id": "574d3327498e5d427f754fc7", "name": "Breakfast at Novotel Waterloo London", "location": {"lat": 51.494554, "lng": -0.119197, "labeledLatLngs": [{"label": "display", "lat": 51.494554, "lng": -0.119197}], "distance": 295, "cc": "GB", "country": "United Kingdom", "formattedAddress": ["United Kingdom"]}, "categories": [{"id": "4bf58dd8d48988d143941735", "name": "Breakfast Spot", "pluralName": "Breakfast Spots", "shortName": "Breakfast", "icon": {"prefix": "https://ss3.4sqi.net/img/categories_v2/food/breakfast_", "suffix": ".png"}, "primary": true}], "photos": {"count": 0, "groups": []}}, "referralId": "e-0-574d3327498e5d427f754fc7-9"}, {"reasons": {"count": 0, "items": [{"summary": "This spot is popular", "type": "general", "reasonName": "globalInteractionReason"}]}, "venue": {"id": "4ac518c2f964a520fba320e3", "name": "Chino Latino", "location": {"address": "18 Albert Embankment", "lat": 51.491542592532774, "lng": -0.12173547166968025, "labeledLatLngs": [{"label": "display", "lat": 51.491542592532774, "lng": -0.12173547166968025}], "distance": 122, "postalCode": "SE1 7TJ", "cc": "GB", "city": "London", "state": "Greater London", "country": "United Kingdom", "formattedAddress": ["18 Albert Embankment", "London", "Greater London", "SE1 7TJ", "United Kingdom"]}, "categories": [{"id": "4bf58dd8d48988d142941735", "name": "Asian Restaurant", "pluralName": "Asian Restaurants", "shortName": "Asian", "icon": {"prefix": "https://ss3.4sqi.net/img/categories_v2/food/asian_", "suffix": ".png"}, "primary": true}], "photos": {"count": 0, "groups": []}, "venuePage": {"id": "353142993"}}, "referralId": "e-0-4ac518c2f964a520fba320e3-10"}, {"reasons": {"count": 0, "items": [{"summary": "This spot is popular", "type": "general", "reasonName": "globalInteractionReason"}]}, "venue": {"id": "4e74eac71838f918899d30c4", "name": "Elements Restaurant", "location": {"address": "113 Lambeth", "lat": 51.49463091629362, "lng": -0.11894930281206395, "labeledLatLngs": [{"label": "display", "lat": 51.49463091629362, "lng": -0.11894930281206395}], "distance": 308, "cc": "GB", "city": "London", "country": "United Kingdom", "formattedAddress": ["113 Lambeth", "London", "United Kingdom"]}, "categories": [{"id": "4bf58dd8d48988d1c4941735", "name": "Restaurant", "pluralName": "Restaurants", "shortName": "Restaurant", "icon": {"prefix": "https://ss3.4sqi.net/img/categories_v2/food/default_", "suffix": ".png"}, "primary": true}], "photos": {"count": 0, "groups": []}}, "referralId": "e-0-4e74eac71838f918899d30c4-11"}, {"reasons": {"count": 0, "items": [{"summary": "This spot is popular", "type": "general", "reasonName": "globalInteractionReason"}]}, "venue": {"id": "4de8b6af52b1741cdb086f7f", "name": "Mick Darnald's", "location": {"lat": 51.491136025967535, "lng": -0.11996766055833397, "labeledLatLngs": [{"label": "display", "lat": 51.491136025967535, "lng": -0.11996766055833397}], "distance": 91, "cc": "GB", "city": "London", "state": "Greater London", "country": "United Kingdom", "formattedAddress": ["London", "Greater London", "United Kingdom"]}, "categories": [{"id": "4bf58dd8d48988d16c941735", "name": "Burger Joint", "pluralName": "Burger Joints", "shortName": "Burgers", "icon": {"prefix": "https://ss3.4sqi.net/img/categories_v2/food/burger_", "suffix": ".png"}, "primary": true}], "photos": {"count": 0, "groups": []}}, "referralId": "e-0-4de8b6af52b1741cdb086f7f-12"}, {"reasons": {"count": 0, "items": [{"summary": "This spot is popular", "type": "general", "reasonName": "globalInteractionReason"}]}, "venue": {"id": "4acf3427f964a520b6d220e3", "name": "Porters Sandwich Bar", "location": {"address": "55 Black Prince Road", "lat": 51.4915439283058, "lng": -0.11832298057450145, "labeledLatLngs": [{"label": "display", "lat": 51.4915439283058, "lng": -0.11832298057450145}], "distance": 131, "postalCode": "SE11 6AB", "cc": "GB", "city": "London", "state": "Greater London", "country": "United Kingdom", "formattedAddress": ["55 Black Prince Road", "London", "Greater London", "SE11 6AB", "United Kingdom"]}, "categories": [{"id": "4bf58dd8d48988d1c5941735", "name": "Sandwich Place", "pluralName": "Sandwich Places", "shortName": "Sandwiches", "icon": {"prefix": "https://ss3.4sqi.net/img/categories_v2/food/deli_", "suffix": ".png"}, "primary": true}], "photos": {"count": 0, "groups": []}}, "referralId": "e-0-4acf3427f964a520b6d220e3-13"}, {"reasons": {"count": 0, "items": [{"summary": "This spot is popular", "type": "general", "reasonName": "globalInteractionReason"}]}, "venue": {"id": "4ba22d52f964a52081e137e3", "name": "Etsu Cafe", "location": {"address": "30 Millbank", "lat": 51.492610001727805, "lng": -0.125133353506938, "labeledLatLngs": [{"label": "display", "lat": 51.492610001727805, "lng": -0.125133353506938}], "distance": 356, "postalCode": "SW1P 4RD", "cc": "GB", "neighborhood": "Millbank, London, Greater London", "city": "London", "state": "Greater London", "country": "United Kingdom", "formattedAddress": ["30 Millbank", "London", "Greater London", "SW1P 4RD", "United Kingdom"]}, "categories": [{"id": "4bf58dd8d48988d16d941735", "name": "Caf\u00e9", "pluralName": "Caf\u00e9s", "shortName": "Caf\u00e9", "icon": {"prefix": "https://ss3.4sqi.net/img/categories_v2/food/cafe_", "suffix": ".png"}, "primary": true}], "photos": {"count": 0, "groups": []}}, "referralId": "e-0-4ba22d52f964a52081e137e3-14"}, {"reasons": {"count": 0, "items": [{"summary": "This spot is popular", "type": "general", "reasonName": "globalInteractionReason"}]}, "venue": {"id": "590338418f2c1a0693de4174", "name": "Burrito Kitchen", "location": {"lat": 51.492674, "lng": -0.125577, "labeledLatLngs": [{"label": "display", "lat": 51.492674, "lng": -0.125577}], "distance": 387, "postalCode": "SW1P 4DU", "cc": "GB", "city": "London", "state": "Greater London", "country": "United Kingdom", "formattedAddress": ["London", "Greater London", "SW1P 4DU", "United Kingdom"]}, "categories": [{"id": "4bf58dd8d48988d153941735", "name": "Burrito Place", "pluralName": "Burrito Places", "shortName": "Burritos", "icon": {"prefix": "https://ss3.4sqi.net/img/categories_v2/food/burrito_", "suffix": ".png"}, "primary": true}], "photos": {"count": 0, "groups": []}}, "referralId": "e-0-590338418f2c1a0693de4174-15"}]}]}}