{"meta": {"code": 200, "requestId": "5feddc3e8549cf75f719c373"}, "response": {"suggestedFilters": {"header": "Tap to show:", "filters": [{"name": "Open now", "key": "openNow"}]}, "headerLocation": "Hoxton", "headerFullLocation": "Hoxton, London", "headerLocationGranularity": "neighborhood", "query": "travel", "totalResults": 24, "suggestedBounds": {"ne": {"lat": 51.530885003600005, "lng": -0.08177733674784504}, "sw": {"lat": 51.52368499639999, "lng": -0.09332866325215497}}, "groups": [{"type": "Recommended Places", "name": "recommended", "items": [{"reasons": {"count": 0, "items": [{"summary": "This spot is popular", "type": "general", "reasonName": "globalInteractionReason"}]}, "venue": {"id": "4ac518b8f964a52081a120e3", "name": "The Hoxton", "location": {"address": "81 Great Eastern St", "lat": 51.525575398843905, "lng": -0.0828844999591638, "labeledLatLngs": [{"label": "display", "lat": 51.525575398843905, "lng": -0.0828844999591638}], "distance": 375, "postalCode": "EC2A 3HU", "cc": "GB", "city": "London", "state": "Greater London", "country": "United Kingdom", "formattedAddress": ["81 Great Eastern St", "London", "Greater London", "EC2A 3HU", "United Kingdom"]}, "categories": [{"id": "4bf58dd8d48988d1fa931735", "name": "Hotel", "pluralName": "Hotels", "shortName": "Hotel", "icon": {"prefix": "https://ss3.4sqi.net/img/categories_v2/travel/hotel_", "suffix": ".png"}, "primary": true}], "photos": {"count": 0, "groups": []}, "venuePage": {"id": "72100645"}}, "referralId": "e-0-4ac518b8f964a52081a120e3-0"}, {"reasons": {"count": 0, "items": [{"summary": "This spot is popular", "type": "general", "reasonName": "globalInteractionReason"}]}, "venue": {"id": "55061264498e0ee5ed850341", "name": "The Z Hotel Shoreditch", "location": {"address": "136-144 City Rd", "lat": 51.52695972867464, "lng": -0.08820423662667704, "labeledLatLngs": [{"label": "display", "lat": 51.52695972867464, "lng": -0.08820423662667704}], "distance": 57, "postalCode": "EC1V 2RL", "cc": "GB", "city": "London", "state": "Greater London", "country": "United Kingdom", "formattedAddress": ["136-144 City Rd", "London", "Greater London", "EC1V 2RL", "United Kingdom"]}, "categories": [{"id": "4bf58dd8d48988d1fa931735", "name": "Hotel", "pluralName": "Hotels", "shortName": "Hotel", "icon": {"prefix": "https://ss3.4sqi.net/img/categories_v2/travel/hotel_", "suffix": ".png"}, "primary": true}], "photos": {"count": 0, "groups": []}}, "referralId": "e-0-55061264498e0ee5ed850341-1"}, {"reasons": {"count": 0, "items": [{"summary": "This spot is popular", "type": "general", "reasonName": "globalInteractionReason"}]}, "venue": {"id": "4ee21830469093b958913aee", "name": "Premier Inn London City Old Street", "location": {"address": "Corsham Street", "crossStreet": "Corsham St", "lat": 51.527299, "lng": -0.0875498, "labeledLatLngs": [{"label": "display", "lat": 51.527299, "lng": -0.0875498}], "distance": 1, "postalCode": "N1 6DR", "cc": "GB", "city": "City of London", "state": "Greater London", "country": "United Kingdom", "formattedAddress": ["Corsham Street (Corsham St)", "City of London", "Greater London", "N1 6DR", "United Kingdom"]}, "categories": [{"id": "4bf58dd8d48988d1fa931735", "name": "Hotel", "pluralName": "Hotels", "shortName": "Hotel", "icon": {"prefix": "https://ss3.4sqi.net/img/categories_v2/travel/hotel_", "suffix": ".png"}, "primary": true}], "photos": {"count": 0, "groups": []}, "venuePage": {"id": "149624931"}}, "referralId": "e-0-4ee21830469093b958913aee-2"}, {"reasons": {"count": 0, "items": [{"summary": "This spot is popular", "type": "general", "reasonName": "globalInteractionReason"}]}, "venue": {"id": "4c4c1b3bf7b49c74c4df75c2", "name": "TfL Santander Cycle Hire", "location": {"address": "Old Street Tube Station", "crossStreet": "Old St", "lat": 51.5257270458621, "lng": -0.08831977844238281, "labeledLatLngs": [{"label": "display", "lat": 51.5257270458621, "lng": -0.08831977844238281}], "distance": 181, "postalCode": "EC1Y 1BE", "cc": "GB", "city": "London", "state": "Greater London", "country": "United Kingdom", "formattedAddress": ["Old Street Tube Station (Old St)", "London", "Greater London", "EC1Y 1BE", "United Kingdom"]}, "categories": [{"id": "4e4c9077bd41f78e849722f9", "name": "Bike Rental / Bike Share", "pluralName": "Bike Rentals / Bike Shares", "shortName": "Bike", "icon": {"prefix": "https://ss3.4sqi.net/img/categories_v2/shops/bikeshop_", "suffix": ".png"}, "primary": true}], "photos": {"count": 0, "groups": []}}, "referralId": "e-0-4c4c1b3bf7b49c74c4df75c2-3"}, {"reasons": {"count": 0, "items": [{"summary": "This spot is popular", "type": "general", "reasonName": "globalInteractionReason"}]}, "venue": {"id": "4f1fd983e4b0bf9c51fca01f", "name": "Old Street Bus Stop C", "location": {"address": "City Road", "lat": 51.52694606579614, "lng": -0.08803332835002639, "labeledLatLngs": [{"label": "display", "lat": 51.52694606579614, "lng": -0.08803332835002639}], "distance": 50, "cc": "GB", "country": "United Kingdom", "formattedAddress": ["City Road", "United Kingdom"]}, "categories": [{"id": "52f2ab2ebcbc57f1066b8b4f", "name": "Bus Stop", "pluralName": "Bus Stops", "shortName": "Bus Stop", "icon": {"prefix": "https://ss3.4sqi.net/img/categories_v2/travel/busstation_", "suffix": ".png"}, "primary": true}], "photos": {"count": 0, "groups": []}}, "referralId": "e-0-4f1fd983e4b0bf9c51fca01f-4"}, {"reasons": {"count": 0, "items": [{"summary": "This spot is popular", "type": "general", "reasonName": "globalInteractionReason"}]}, "venue": {"id": "52591072498e688243f066d7", "name": "Old Street Station Bus Stop D", "location": {"address": "East Road", "crossStreet": "Silicon Way", "lat": 51.52665664973387, "lng": -0.08783150011402889, "labeledLatLngs": [{"label": "display", "lat": 51.52665664973387, "lng": -0.08783150011402889}], "distance": 72, "cc": "GB", "city": "London", "state": "Greater London", "country": "United Kingdom", "formattedAddress": ["East Road (Silicon Way)", "London", "Greater London", "United Kingdom"]}, "categories": [{"id": "52f2ab2ebcbc57f1066b8b4f", "name": "Bus Stop", "pluralName": "Bus Stops", "shortName": "Bus Stop", "icon": {"prefix": "https://ss3.4sqi.net/img/categories_v2/travel/busstation_", "suffix": ".png"}, "primary": true}], "photos": {"count": 0, "groups": []}}, "referralId": "e-0-52591072498e688243f066d7-5"}, {"reasons": {"count": 0, "items": [{"summary": "This spot is popular", "type": "general", "reasonName": "globalInteractionReason"}]}, "venue": {"id": "4e776fe452b1c8e51a51705a", "name": "Bus Stop K", "location": {"lat": 51.526072703949495, "lng": -0.08601103445124453, "labeledLatLngs": [{"label": "display", "lat": 51.526072703949495, "lng": -0.08601103445124453}], "distance": 172, "cc": "GB", "city": "Shoreditch", "state": "Greater London", "country": "United Kingdom", "formattedAddress": ["Shoreditch", "Greater London", "United Kingdom"]}, "categories": [{"id": "52f2ab2ebcbc57f1066b8b4f", "name": "Bus Stop", "pluralName": "Bus Stops", "shortName": "Bus Stop", "icon": {"prefix": "https://ss3.4sqi.net/img/categories_v2/travel/busstation_", "suffix": ".png"}, "primary": true}], "photos": {"count": 0, "groups": []}}, "referralId": "e-0-4e776fe452b1c8e51a51705a-6"}, {"reasons": {"count": 0, "items": [{"summary": "This spot is popular", "type": "general", "reasonName": "globalInteractionReason"}]}, "venue": {"id": "4ad9dc27f964a520601b21e3", "name": "Old Street London Underground Station", "location": {"address": "Old St", "crossStreet": "City Rd", "lat": 51.52570817449869, "lng": -0.08751974753624095, "labeledLatLngs": [{"label": "display", "lat": 51.52570817449869, "lng": -0.08751974753624095}], "distance": 175, "postalCode": "EC1V 9NR", "cc": "GB", "city": "London", "state": "Greater London", "country": "United Kingdom", "formattedAddress": ["Old St (City Rd)", "London", "Greater London", "EC1V 9NR", "United Kingdom"]}, "categories": [{"id": "4bf58dd8d48988d1fd931735", "name": "Metro Station", "pluralName": "Metro Stations", "shortName": "Metro", "icon": {"prefix": "https://ss3.4sqi.net/img/categories_v2/travel/subway_", "suffix": ".png"}, "primary": true}], "photos": {"count": 0, "groups": []}}, "referralId": "e-0-4ad9dc27f964a520601b21e3-7"}, {"reasons": {"count": 0, "items": [{"summary": "This spot is popular", "type": "general", "reasonName": "globalInteractionReason"}]}, "venue": {"id": "4e0f06f362e1d5a30d06ca44", "name": "Old Street Bus Stop L", "location": {"lat": 51.52590971, "lng": -0.086218, "labeledLatLngs": [{"label": "display", "lat": 51.52590971, "lng": -0.086218}], "distance": 178, "cc": "GB", "city": "Islington", "state": "Greater London", "country": "United Kingdom", "formattedAddress": ["Islington", "Greater London", "United Kingdom"]}, "categories": [{"id": "52f2ab2ebcbc57f1066b8b4f", "name": "Bus Stop", "pluralName": "Bus Stops", "shortName": "Bus Stop", "icon": {"prefix": "https://ss3.4sqi.net/img/categories_v2/travel/busstation_", "suffix": ".png"}, "primary": true}], "photos": {"count": 0, "groups": []}}, "referralId": "e-0-4e0f06f362e1d5a30d06ca44-8"}, {"reasons": {"count": 0, "items": [{"summary": "This spot is popular", "type": "general", "reasonName": "globalInteractionReason"}]}, "venue": {"id": "4cb4c91864998cfa483909a2", "name": "Bus Stop A", "location": {"address": "Provost St", "lat": 51.52783670678873, "lng": -0.08873400435566452, "labeledLatLngs": [{"label": "display", "lat": 51.52783670678873, "lng": -0.08873400435566452}], "distance": 102, "cc": "GB", "country": "United Kingdom", "formattedAddress": ["Provost St", "United Kingdom"]}, "categories": [{"id": "52f2ab2ebcbc57f1066b8b4f", "name": "Bus Stop", "pluralName": "Bus Stops", "shortName": "Bus Stop", "icon": {"prefix": "https://ss3.4sqi.net/img/categories_v2/travel/busstation_", "suffix": ".png"}, "primary": true}], "photos": {"count": 0, "groups": []}}, "referralId": "e-0-4cb4c91864998cfa483909a2-9"}, {"reasons": {"count": 0, "items": [{"summary": "This spot is popular", "type": "general", "reasonName": "globalInteractionReason"}]}, "venue": {"id": "4b0a8180f964a520942423e3", "name": "Old Street Roundabout", "location": {"address": "Old St", "crossStreet": "at City Rd", "lat": 51.52565961660283, "lng": -0.08745460603868727, "labeledLatLngs": [{"label": "display", "lat": 51.52565961660283, "lng": -0.08745460603868727}], "distance": 181, "postalCode": "EC1Y 1BE", "cc": "GB", "city": "London", "state": "Greater London", "country": "United Kingdom", "formattedAddress": ["Old St (at City Rd)", "London", "Greater London", "EC1Y 1BE", "United Kingdom"]}, "categories": [{"id": "52f2ab2ebcbc57f1066b8b4c", "name": "Intersection", "pluralName": "Intersections", "shortName": "Intersection", "icon": {"prefix": "https://ss3.4sqi.net/img/categories_v2/travel/default_", "suffix": ".png"}, "primary": true}], "photos": {"count": 0, "groups": []}}, "referralId": "e-0-4b0a8180f964a520942423e3-10"}, {"reasons": {"count": 0, "items": [{"summary": "This spot is popular", "type": "general", "reasonName": "globalInteractionReason"}]}, "venue": {"id": "577775e1498e7209a7c73206", "name": "JOURNEY EXPERTS LTD", "location": {"address": "152-160 City Road", "lat": 51.52727158, "lng": -0.0887646, "labeledLatLngs": [{"label": "display", "lat": 51.52727158, "lng": -0.0887646}], "distance": 83, "postalCode": "EC1V 2NX", "cc": "GB", "city": "London", "state": "Greater London", "country": "United Kingdom", "formattedAddress": ["152-160 City Road", "London", "Greater London", "EC1V 2NX", "United Kingdom"]}, "categories": [{"id": "4bf58dd8d48988d1fa931735", "name": "Hotel", "pluralName": "Hotels", "shortName": "Hotel", "icon": {"prefix": "https://ss3.4sqi.net/img/categories_v2/travel/hotel_", "suffix": ".png"}, "primary": true}], "photos": {"count": 0, "groups": []}, "venuePage": {"id": "209900147"}}, "referralId": "e-0-577775e1498e7209a7c73206-11"}, {"reasons": {"count": 0, "items": [{"summary": "This spot is popular", "type": "general", "reasonName": "globalInteractionReason"}]}, "venue": {"id": "578c979c498e9404b638b016", "name": "M by Montcalm Wellness", "location": {"lat": 51.527728, "lng": -0.088968, "labeledLatLngs": [{"label": "display", "lat": 51.527728, "lng": -0.088968}], "distance": 109, "cc": "GB", "country": "United Kingdom", "formattedAddress": ["United Kingdom"]}, "categories": [{"id": "4bf58dd8d48988d1fa931735", "name": "Hotel", "pluralName": "Hotels", "shortName": "Hotel", "icon": {"prefix": "https://ss3.4sqi.net/img/categories_v2/travel/hotel_", "suffix": ".png"}, "primary": true}], "photos": {"count": 0, "groups": []}}, "referralId": "e-0-578c979c498e9404b638b016-12"}, {"reasons": {"count": 0, "items": [{"summary": "This spot is popular", "type": "general", "reasonName": "globalInteractionReason"}]}, "venue": {"id": "4d41e608aed776ebe27f6897", "name": "Waytostay", "location": {"address": "Paul Street, Liverpool Street", "lat": 51.52623, "lng": -0.0851, "labeledLatLngs": [{"label": "display", "lat": 51.52623, "lng": -0.0851}], "distance": 206, "postalCode": "EC2A 4NY", "cc": "GB", "city": "London", "state": "Greater London", "country": "United Kingdom", "formattedAddress": ["Paul Street, Liverpool Street", "London", "Greater London", "EC2A 4NY", "United Kingdom"]}, "categories": [{"id": "4bf58dd8d48988d1fa931735", "name": "Hotel", "pluralName": "Hotels", "shortName": "Hotel", "icon": {"prefix": "https://ss3.4sqi.net/img/categories_v2/travel/hotel_", "suffix": ".png"}, "primary": true}], "photos": {"count": 0, "groups": []}}, "referralId": "e-0-4d41e608aed776ebe27f6897-13"}, {"reasons": {"count": 0, "items": [{"summary": "This spot is popular", "type": "general", "reasonName": "globalInteractionReason"}]}, "venue": {"id": "4df867c488778675b54876cd", "name": "Bus Stop F", "location": {"address": "Old St.", "crossStreet": "Btwn Bath St & City Rd", "lat": 51.525581788428774, "lng": -0.08896899948037985, "labeledLatLngs": [{"label": "display", "lat": 51.525581788428774, "lng": -0.08896899948037985}], "distance": 213, "postalCode": "EC1", "cc": "GB", "city": "London", "state": "Greater London", "country": "United Kingdom", "formattedAddress": ["Old St. (Btwn Bath St & City Rd)", "London", "Greater London", " EC1", "United Kingdom"]}, "categories": [{"id": "52f2ab2ebcbc57f1066b8b4f", "name": "Bus Stop", "pluralName": "Bus Stops", "shortName": "Bus Stop", "icon": {"prefix": "https://ss3.4sqi.net/img/categories_v2/travel/busstation_", "suffix": ".png"}, "primary": true}], "photos": {"count": 0, "groups": []}}, "referralId": "e-0-4df867c488778675b54876cd-14"}, {"reasons": {"count": 0, "items": [{"summary": "This spot is popular", "type": "general", "reasonName": "globalInteractionReason"}]}, "venue": {"id": "4dc818092271f270516be9f9", "name": "Bunhill Row Bus Stop G", "location": {"address": "Old St", "crossStreet": "in front of Cornerstone sandwich stop", "lat": 51.525295, "lng": -0.0898245, "labeledLatLngs": [{"label": "display", "lat": 51.525295, "lng": -0.0898245}], "distance": 271, "postalCode": "EC1V 9FL", "cc": "GB", "neighborhood": "Islington", "city": "Islington", "state": "Greater London", "country": "United Kingdom", "formattedAddress": ["Old St (in front of Cornerstone sandwich stop)", "Islington", "Greater London", "EC1V 9FL", "United Kingdom"]}, "categories": [{"id": "52f2ab2ebcbc57f1066b8b4f", "name": "Bus Stop", "pluralName": "Bus Stops", "shortName": "Bus Stop", "icon": {"prefix": "https://ss3.4sqi.net/img/categories_v2/travel/busstation_", "suffix": ".png"}, "primary": true}], "photos": {"count": 0, "groups": []}}, "referralId": "e-0-4dc818092271f270516be9f9-15"}, {"reasons": {"count": 0, "items": [{"summary": "This spot is popular", "type": "general", "reasonName": "globalInteractionReason"}]}, "venue": {"id": "5637a9e2498e26546ac86a9b", "name": "shoreditch one", "location": {"lat": 51.525712, "lng": -0.084456, "labeledLatLngs": [{"label": "display", "lat": 51.525712, "lng": -0.084456}], "distance": 276, "cc": "GB", "country": "United Kingdom", "formattedAddress": ["United Kingdom"]}, "categories": [{"id": "4bf58dd8d48988d1fa931735", "name": "Hotel", "pluralName": "Hotels", "shortName": "Hotel", "icon": {"prefix": "https://ss3.4sqi.net/img/categories_v2/travel/hotel_", "suffix": ".png"}, "primary": true}], "photos": {"count": 0, "groups": []}}, "referralId": "e-0-5637a9e2498e26546ac86a9b-16"}, {"reasons": {"count": 0, "items": [{"summary": "This spot is popular", "type": "general", "reasonName": "globalInteractionReason"}]}, "venue": {"id": "4c4c1f2bf7b49c743d1077c2", "name": "TfL Santander Cycle Hire", "location": {"address": "Bath St", "crossStreet": "Old St", "lat": 51.5254533942986, "lng": -0.09030657554101523, "labeledLatLngs": [{"label": "display", "lat": 51.5254533942986, "lng": -0.09030657554101523}], "distance": 279, "postalCode": "EC1V 9DX", "cc": "GB", "city": "London", "state": "Greater London", "country": "United Kingdom", "formattedAddress": ["Bath St (Old St)", "London", "Greater London", "EC1V 9DX", "United Kingdom"]}, "categories": [{"id": "4e4c9077bd41f78e849722f9", "name": "Bike Rental / Bike Share", "pluralName": "Bike Rentals / Bike Shares", "shortName": "Bike", "icon": {"prefix": "https://ss3.4sqi.net/img/categories_v2/shops/bikeshop_", "suffix": ".png"}, "primary": true}], "photos": {"count": 0, "groups": []}}, "referralId": "e-0-4c4c1f2bf7b49c743d1077c2-17"}, {"reasons": {"count": 0, "items": [{"summary": "This spot is popular", "type": "general", "reasonName": "globalInteractionReason"}]}, "venue": {"id": "50007c93e4b0c123dd0e4cab", "name": "Bus Stop M @ City Road", "location": {"address": "City Road", "lat": 51.52418747270788, "lng": -0.08742193727483277, "labeledLatLngs": [{"label": "display", "lat": 51.52418747270788, "lng": -0.08742193727483277}], "distance": 344, "cc": "GB", "city": "London", "state": "Greater London", "country": "United Kingdom", "formattedAddress": ["City Road", "London", "Greater London", "United Kingdom"]}, "categories": [{"id": "52f2ab2ebcbc57f1066b8b4f", "name": "Bus Stop", "pluralName": "Bus Stops", "shortName": "Bus Stop", "icon": {"prefix": "https://ss3.4sqi.net/img/categories_v2/travel/busstation_", "suffix": ".png"}, "primary": true}], "photos": {"count": 0, "groups": []}}, "referralId": "e-0-50007c93e4b0c123dd0e4cab-18"}, {"reasons": {"count": 0, "items": [{"summary": "This spot is popular", "type": "general", "reasonName": "globalInteractionReason"}]}, "venue": {"id": "4c7cf6b5ad90224bec878b0c", "name": "TfL Santander Cycle Hire", "location": {"address": "Leonard Circus", "crossStreet": "Leonard St", "lat": 51.524655, "lng": -0.084473, "labeledLatLngs": [{"label": "display", "lat": 51.524655, "lng": -0.084473}], "distance": 362, "postalCode": "EC2A 4BY", "cc": "GB", "city": "Hackney", "state": "Greater London", "country": "United Kingdom", "formattedAddress": ["Leonard Circus (Leonard St)", "Hackney", "Greater London", "EC2A 4BY", "United Kingdom"]}, "categories": [{"id": "4e4c9077bd41f78e849722f9", "name": "Bike Rental / Bike Share", "pluralName": "Bike Rentals / Bike Shares", "shortName": "Bike", "icon": {"prefix": "https://ss3.4sqi.net/img/categories_v2/shops/bikeshop_", "suffix": ".png"}, "primary": true}], "photos": {"count": 0, "groups": []}}, "referralId": "e-0-4c7cf6b5ad90224bec878b0c-19"}, {"reasons": {"count": 0, "items": [{"summary": "This spot is popular", "type": "general", "reasonName": "globalInteractionReason"}]}, "venue": {"id": "4d41e5f6aed776eb737d6897", "name": "Waytostay", "location": {"address": "Rivington Street, Shoreditch", "lat": 51.52563, "lng": -0.08272, "labeledLatLngs": [{"label": "display", "lat": 51.52563, "lng": -0.08272}], "distance": 382, "postalCode": "EC2A 3DZ", "cc": "GB", "city": "London", "state": "Greater London", "country": "United Kingdom", "formattedAddress": ["Rivington Street, Shoreditch", "London", "Greater London", "EC2A 3DZ", "United Kingdom"]}, "categories": [{"id": "4bf58dd8d48988d1fa931735", "name": "Hotel", "pluralName": "Hotels", "shortName": "Hotel", "icon": {"prefix": "https://ss3.4sqi.net/img/categories_v2/travel/hotel_", "suffix": ".png"}, "primary": true}], "photos": {"count": 0, "groups": []}}, "referralId": "e-0-4d41e5f6aed776eb737d6897-20"}, {"reasons": {"count": 0, "items": [{"summary": "This spot is popular", "type": "general", "reasonName": "globalInteractionReason"}]}, "venue": {"id": "4d7533c09d2fa1435cf3fcd6", "name": "Old Street Station Bus Stop N", "location": {"address": "City Road", "crossStreet": "Old Street", "lat": 51.52383596505014, "lng": -0.0873659789183114, "labeledLatLngs": [{"label": "display", "lat": 51.52383596505014, "lng": -0.0873659789183114}], "distance": 384, "cc": "GB", "neighborhood": "Islington", "city": "Islington", "state": "Greater London", "country": "United Kingdom", "formattedAddress": ["City Road (Old Street)", "Islington", "Greater London", "United Kingdom"]}, "categories": [{"id": "52f2ab2ebcbc57f1066b8b4f", "name": "Bus Stop", "pluralName": "Bus Stops", "shortName": "Bus Stop", "icon": {"prefix": "https://ss3.4sqi.net/img/categories_v2/travel/busstation_", "suffix": ".png"}, "primary": true}], "photos": {"count": 0, "groups": []}}, "referralId": "e-0-4d7533c09d2fa1435cf3fcd6-21"}, {"reasons": {"count": 0, "items": [{"summary": "This spot is popular", "type": "general", "reasonName": "globalInteractionReason"}]}, "venue": {"id": "4d61062c29105941a8cdfb46", "name": "Old Street Railway Station (OLD)", "location": {"address": "Old St", "lat": 51.525614740545926, "lng": -0.08747785505700645, "labeledLatLngs": [{"label": "display", "lat": 51.525614740545926, "lng": -0.08747785505700645}], "distance": 186, "postalCode": "EC1V 9NR", "cc": "GB", "city": "Shoreditch", "state": "Greater London", "country": "United Kingdom", "formattedAddress": ["Old St", "Shoreditch", "Greater London", "EC1V 9NR", "United Kingdom"]}, "categories": [{"id": "4bf58dd8d48988d129951735", "name": "Train Station", "pluralName": "Train Stations", "shortName": "Train Station", "icon": {"prefix": "https://ss3.4sqi.net/img/categories_v2/travel/trainstation_", "suffix": ".png"}, "primary": true}], "photos": {"count": 0, "groups": []}}, "referralId": "e-0-4d61062c29105941a8cdfb46-22"}, {"reasons": {"count": 0, "items": [{"summary": "This spot is popular", "type": "general", "reasonName": "globalInteractionReason"}]}, "venue": {"id": "4b7596a4f964a52069162ee3", "name": "Holiday Inn Express", "location": {"address": "275 Old St", "lat": 51.526801343662186, "lng": -0.0828938601189293, "labeledLatLngs": [{"label": "display", "lat": 51.526801343662186, "lng": -0.0828938601189293}], "distance": 327, "postalCode": "EC1V 9LN", "cc": "GB", "city": "London", "state": "Greater London", "country": "United Kingdom", "formattedAddress": ["275 Old St", "London", "Greater London", "EC1V 9LN", "United Kingdom"]}, "categories": [{"id": "4bf58dd8d48988d1fa931735", "name": "Hotel", "pluralName": "Hotels", "shortName": "Hotel", "icon": {"prefix": "https://ss3.4sqi.net/img/categories_v2/travel/hotel_", "suffix": ".png"}, "primary": true}], "photos": {"count": 0, "groups": []}}, "referralId": "e-0-4b7596a4f964a52069162ee3-23"}]}]}}