{"meta": {"code": 200, "requestId": "5feddc32d3e79e09bc45f8b2"}, "response": {"headerLocation": "Brook Green", "headerFullLocation": "Brook Green, London", "headerLocationGranularity": "neighborhood", "query": "college education", "totalResults": 4, "suggestedBounds": {"ne": {"lat": 51.5021800036, "lng": -0.20780797502689718}, "sw": {"lat": 51.49497999639999, "lng": -0.2193520249731028}}, "groups": [{"type": "Recommended Places", "name": "recommended", "items": [{"reasons": {"count": 0, "items": [{"summary": "This spot is popular", "type": "general", "reasonName": "globalInteractionReason"}]}, "venue": {"id": "535b9079498e7cb0446c538a", "name": "Brook Green Market & Kitchen", "location": {"address": "Bolingbroke Rd", "crossStreet": "Redan St", "lat": 51.49948442327844, "lng": -0.2191463540362841, "labeledLatLngs": [{"label": "display", "lat": 51.49948442327844, "lng": -0.2191463540362841}], "distance": 398, "postalCode": "W14 0DT", "cc": "GB", "city": "London", "state": "Greater London", "country": "United Kingdom", "formattedAddress": ["Bolingbroke Rd (Redan St)", "London", "Greater London", "W14 0DT", "United Kingdom"]}, "categories": [{"id": "4bf58dd8d48988d1fa941735", "name": "Farmers Market", "pluralName": "Farmers Markets", "shortName": "Farmer's Market", "icon": {"prefix": "https://ss3.4sqi.net/img/categories_v2/shops/food_farmersmarket_", "suffix": ".png"}, "primary": true}], "photos": {"count": 0, "groups": []}}, "referralId": "e-0-535b9079498e7cb0446c538a-0"}, {"reasons": {"count": 0, "items": [{"summary": "This spot is popular", "type": "general", "reasonName": "globalInteractionReason"}]}, "venue": {"id": "4c263026905a0f478dc36260", "name": "Masbro Food And Wine", "location": {"address": "Masbro Road", "lat": 51.49972776484804, "lng": -0.21573576572173303, "labeledLatLngs": [{"label": "display", "lat": 51.49972776484804, "lng": -0.21573576572173303}], "distance": 196, "postalCode": "W14", "cc": "GB", "country": "United Kingdom", "formattedAddress": ["Masbro Road", " W14", "United Kingdom"]}, "categories": [{"id": "4bf58dd8d48988d118951735", "name": "Grocery Store", "pluralName": "Grocery Stores", "shortName": "Grocery Store", "icon": {"prefix": "https://ss3.4sqi.net/img/categories_v2/shops/food_grocery_", "suffix": ".png"}, "primary": true}], "photos": {"count": 0, "groups": []}}, "referralId": "e-0-4c263026905a0f478dc36260-1"}, {"reasons": {"count": 0, "items": [{"summary": "This spot is popular", "type": "general", "reasonName": "globalInteractionReason"}]}, "venue": {"id": "596102e8c876c841c0d7ffbe", "name": "Olympia Foods", "location": {"address": "64-68 Blythe Road", "lat": 51.497354, "lng": -0.21588, "labeledLatLngs": [{"label": "display", "lat": 51.497354, "lng": -0.21588}], "distance": 209, "postalCode": "W14 0HB", "cc": "GB", "city": "London", "state": "Greater London", "country": "United Kingdom", "formattedAddress": ["64-68 Blythe Road", "London", "Greater London", "W14 0HB", "United Kingdom"]}, "categories": [{"id": "4bf58dd8d48988d118951735", "name": "Grocery Store", "pluralName": "Grocery Stores", "shortName": "Grocery Store", "icon": {"prefix": "https://ss3.4sqi.net/img/categories_v2/shops/food_grocery_", "suffix": ".png"}, "primary": true}], "photos": {"count": 0, "groups": []}}, "referralId": "e-0-596102e8c876c841c0d7ffbe-2"}, {"reasons": {"count": 0, "items": [{"summary": "This spot is popular", "type": "general", "reasonName": "globalInteractionReason"}]}, "venue": {"id": "59bb388758002c35fee37726", "name": "Cheeki Monkeys", "location": {"address": "Masbro Centre, 87, Masbro Rd", "lat": 51.5000928, "lng": -0.2154995, "labeledLatLngs": [{"label": "display", "lat": 51.5000928, "lng": -0.2154995}], "distance": 214, "postalCode": "W14 0LR", "cc": "GB", "city": "London", "state": "Greater London", "country": "United Kingdom", "formattedAddress": ["Masbro Centre, 87, Masbro Rd", "London", "Greater London", "W14 0LR", "United Kingdom"]}, "categories": [{"id": "4bf58dd8d48988d1f7941735", "name": "Flea Market", "pluralName": "Flea Markets", "shortName": "Flea Market", "icon": {"prefix": "https://ss3.4sqi.net/img/categories_v2/shops/fleamarket_", "suffix": ".png"}, "primary": true}], "photos": {"count": 0, "groups": []}, "venuePage": {"id": "450749940"}}, "referralId": "e-0-59bb388758002c35fee37726-3"}]}]}}