{"meta": {"code": 200, "requestId": "5feddb5d9d303e30fe8c8f0c"}, "response": {"headerLocation": "Lambeth", "headerFullLocation": "Lambeth, London", "headerLocationGranularity": "neighborhood", "query": "college education", "totalResults": 6, "suggestedBounds": {"ne": {"lat": 51.49445600360001, "lng": -0.1163089529926944}, "sw": {"lat": 51.487255996399995, "lng": -0.12785104700730557}}, "groups": [{"type": "Recommended Places", "name": "recommended", "items": [{"reasons": {"count": 0, "items": [{"summary": "This spot is popular", "type": "general", "reasonName": "globalInteractionReason"}]}, "venue": {"id": "4f367079e4b0ea2d7cc64038", "name": "Tate Britain Gallery Shop", "location": {"address": "Millbank", "crossStreet": "Tate Britain", "lat": 51.490823834083294, "lng": -0.1274813711643219, "labeledLatLngs": [{"label": "display", "lat": 51.490823834083294, "lng": -0.1274813711643219}], "distance": 374, "postalCode": "SW1P 4RG", "cc": "GB", "city": "London", "state": "Greater London", "country": "United Kingdom", "formattedAddress": ["Millbank (Tate Britain)", "London", "Greater London", "SW1P 4RG", "United Kingdom"]}, "categories": [{"id": "4bf58dd8d48988d128951735", "name": "Gift Shop", "pluralName": "Gift Shops", "shortName": "Gift Shop", "icon": {"prefix": "https://ss3.4sqi.net/img/categories_v2/shops/giftshop_", "suffix": ".png"}, "primary": true}], "photos": {"count": 0, "groups": []}}, "referralId": "e-0-4f367079e4b0ea2d7cc64038-0"}, {"reasons": {"count": 0, "items": [{"summary": "This spot is popular", "type": "general", "reasonName": "globalInteractionReason"}]}, "venue": {"id": "5c3ef8b4d3cce8002cc1099b", "name": "danielebanzato.com", "location": {"address": "30 Millbank", "lat": 51.4923168, "lng": -0.12593149999997877, "labeledLatLngs": [{"label": "display", "lat": 51.4923168, "lng": -0.12593149999997877}], "distance": 312, "postalCode": "SW1P 4DU", "cc": "GB", "city": "London", "state": "Greater London", "country": "United Kingdom", "formattedAddress": ["30 Millbank", "London", "Greater London", "SW1P 4DU", "United Kingdom"]}, "categories": [{"id": "5453de49498eade8af355881", "name": "Business Service", "pluralName": "Business Services", "shortName": "Business Services", "icon": {"prefix": "https://ss3.4sqi.net/img/categories_v2/building/default_", "suffix": ".png"}, "primary": true}], "photos": {"count": 0, "groups": []}, "venuePage": {"id": "531920210"}}, "referralId": "e-0-5c3ef8b4d3cce8002cc1099b-1"}, {"reasons": {"count": 0, "items": [{"summary": "This spot is popular", "type": "general", "reasonName": "globalInteractionReason"}]}, "venue": {"id": "5a3a5dcada70804741cf13f6", "name": "Quinn Builders", "location": {"address": "29 Laud Street", "lat": 51.4882089, "lng": -0.1202498, "labeledLatLngs": [{"label": "display", "lat": 51.4882089, "lng": -0.1202498}], "distance": 320, "postalCode": "SE11 5HW", "cc": "GB", "city": "London", "state": "Greater London", "country": "United Kingdom", "formattedAddress": ["29 Laud Street", "London", "Greater London", "SE11 5HW", "United Kingdom"]}, "categories": [{"id": "5454144b498ec1f095bff2f2", "name": "Construction & Landscaping", "pluralName": "Construction & Landscaping", "shortName": "Construction", "icon": {"prefix": "https://ss3.4sqi.net/img/categories_v2/shops/realestate_", "suffix": ".png"}, "primary": true}], "photos": {"count": 0, "groups": []}}, "referralId": "e-0-5a3a5dcada70804741cf13f6-2"}, {"reasons": {"count": 0, "items": [{"summary": "This spot is popular", "type": "general", "reasonName": "globalInteractionReason"}]}, "venue": {"id": "4dda49d6c65bee535af55c1a", "name": "Prince Food & Wine", "location": {"address": "57-59 Black Prince Rd", "lat": 51.49217425632163, "lng": -0.11782357139361271, "labeledLatLngs": [{"label": "display", "lat": 51.49217425632163, "lng": -0.11782357139361271}], "distance": 329, "postalCode": "SE11 6AB", "cc": "GB", "city": "London", "state": "Greater London", "country": "United Kingdom", "formattedAddress": ["57-59 Black Prince Rd", "London", "Greater London", "SE11 6AB", "United Kingdom"]}, "categories": [{"id": "4d954b0ea243a5684a65b473", "name": "Convenience Store", "pluralName": "Convenience Stores", "shortName": "Convenience Store", "icon": {"prefix": "https://ss3.4sqi.net/img/categories_v2/shops/conveniencestore_", "suffix": ".png"}, "primary": true}], "photos": {"count": 0, "groups": []}}, "referralId": "e-0-4dda49d6c65bee535af55c1a-3"}, {"reasons": {"count": 0, "items": [{"summary": "This spot is popular", "type": "general", "reasonName": "globalInteractionReason"}]}, "venue": {"id": "5ea1d59e6613510008775e30", "name": "Cobbler & Shoe Repair", "location": {"address": "10 Black Prince Road", "lat": 51.49097739999999, "lng": -0.1167739, "labeledLatLngs": [{"label": "display", "lat": 51.49097739999999, "lng": -0.1167739}], "distance": 368, "postalCode": "WN1 1HH", "cc": "GB", "city": "London", "state": "Greater London", "country": "United Kingdom", "formattedAddress": ["10 Black Prince Road", "London", "Greater London", "WN1 1HH", "United Kingdom"]}, "categories": [{"id": "52f2ab2ebcbc57f1066b8b39", "name": "Shoe Repair", "pluralName": "Shoe Repair Shops", "shortName": "Shoe Repair", "icon": {"prefix": "https://ss3.4sqi.net/img/categories_v2/shops/apparel_shoestore_", "suffix": ".png"}, "primary": true}], "photos": {"count": 0, "groups": []}, "venuePage": {"id": "586973069"}}, "referralId": "e-0-5ea1d59e6613510008775e30-4"}, {"reasons": {"count": 0, "items": [{"summary": "This spot is popular", "type": "general", "reasonName": "globalInteractionReason"}]}, "venue": {"id": "5968dce20d8a0f7f00498f75", "name": "London Kitchen Store", "location": {"address": "71 Albert Embarkment", "crossStreet": "Glasshouse Walk", "lat": 51.487362, "lng": -0.123012, "labeledLatLngs": [{"label": "display", "lat": 51.487362, "lng": -0.123012}], "distance": 394, "postalCode": "SE1 7TP", "cc": "GB", "city": "London", "state": "Greater London", "country": "United Kingdom", "formattedAddress": ["71 Albert Embarkment (Glasshouse Walk)", "London", "Greater London", "SE1 7TP", "United Kingdom"]}, "categories": [{"id": "4bf58dd8d48988d1f8941735", "name": "Furniture / Home Store", "pluralName": "Furniture / Home Stores", "shortName": "Furniture / Home", "icon": {"prefix": "https://ss3.4sqi.net/img/categories_v2/shops/furniture_", "suffix": ".png"}, "primary": true}], "photos": {"count": 0, "groups": []}}, "referralId": "e-0-5968dce20d8a0f7f00498f75-5"}]}]}}