{"meta": {"code": 200, "requestId": "5feddac020e8e96675858034"}, "response": {"suggestedFilters": {"header": "Tap to show:", "filters": [{"name": "Open now", "key": "openNow"}]}, "headerLocation": "Lambeth", "headerFullLocation": "Lambeth, London", "headerLocationGranularity": "neighborhood", "query": "food", "totalResults": 59, "suggestedBounds": {"ne": {"lat": 51.50835000360001, "lng": -0.10799719350555599}, "sw": {"lat": 51.501149996399995, "lng": -0.119542806494444}}, "groups": [{"type": "Recommended Places", "name": "recommended", "items": [{"reasons": {"count": 0, "items": [{"summary": "This spot is popular", "type": "general", "reasonName": "globalInteractionReason"}]}, "venue": {"id": "5033e5d1e4b011c548922311", "name": "Brasserie Blanc", "location": {"address": "9 Belvedere Rd", "lat": 51.50580044075621, "lng": -0.1151077287549722, "labeledLatLngs": [{"label": "display", "lat": 51.50580044075621, "lng": -0.1151077287549722}], "distance": 149, "postalCode": "SE1 8YP", "cc": "GB", "city": "London", "state": "Greater London", "country": "United Kingdom", "formattedAddress": ["9 Belvedere Rd", "London", "Greater London", "SE1 8YP", "United Kingdom"]}, "categories": [{"id": "4bf58dd8d48988d10c941735", "name": "French Restaurant", "pluralName": "French Restaurants", "shortName": "French", "icon": {"prefix": "https://ss3.4sqi.net/img/categories_v2/food/french_", "suffix": ".png"}, "primary": true}], "photos": {"count": 0, "groups": []}}, "referralId": "e-0-5033e5d1e4b011c548922311-0"}, {"reasons": {"count": 0, "items": [{"summary": "This spot is popular", "type": "general", "reasonName": "globalInteractionReason"}]}, "venue": {"id": "5bd624623af988002c966b09", "name": "GAIL's Bakery", "location": {"address": "28 York Rd", "lat": 51.50288543411381, "lng": -0.11634867428399269, "labeledLatLngs": [{"label": "display", "lat": 51.50288543411381, "lng": -0.11634867428399269}], "distance": 273, "postalCode": "SE1 7ND", "cc": "GB", "city": "Waterloo", "state": "Greater London", "country": "United Kingdom", "formattedAddress": ["28 York Rd", "Waterloo", "Greater London", "SE1 7ND", "United Kingdom"]}, "categories": [{"id": "4bf58dd8d48988d16a941735", "name": "Bakery", "pluralName": "Bakeries", "shortName": "Bakery", "icon": {"prefix": "https://ss3.4sqi.net/img/categories_v2/food/bakery_", "suffix": ".png"}, "primary": true}], "photos": {"count": 0, "groups": []}}, "referralId": "e-0-5bd624623af988002c966b09-1"}, {"reasons": {"count": 0, "items": [{"summary": "This spot is popular", "type": "general", "reasonName": "globalInteractionReason"}]}, "venue": {"id": "4fdb6829e4b039664cf873f5", "name": "Wahaca", "location": {"address": "Southbank Centre,, Queen Elizabeth Hall, Belvedere Rd", "crossStreet": "Belvedere Rd", "lat": 51.50675035880741, "lng": -0.11612568640448462, "labeledLatLngs": [{"label": "display", "lat": 51.50675035880741, "lng": -0.11612568640448462}], "distance": 276, "postalCode": "SE1 8XX", "cc": "GB", "city": "South Bank", "state": "Greater London", "country": "United Kingdom", "formattedAddress": ["Southbank Centre,, Queen Elizabeth Hall, Belvedere Rd (Belvedere Rd)", "South Bank", "Greater London", "SE1 8XX", "United Kingdom"]}, "categories": [{"id": "4bf58dd8d48988d1c1941735", "name": "Mexican Restaurant", "pluralName": "Mexican Restaurants", "shortName": "Mexican", "icon": {"prefix": "https://ss3.4sqi.net/img/categories_v2/food/mexican_", "suffix": ".png"}, "primary": true}], "photos": {"count": 0, "groups": []}}, "referralId": "e-0-4fdb6829e4b039664cf873f5-2"}, {"reasons": {"count": 0, "items": [{"summary": "This spot is popular", "type": "general", "reasonName": "globalInteractionReason"}]}, "venue": {"id": "4adbb0fff964a5200e2a21e3", "name": "Skylon", "location": {"address": "Belvedere Rd", "lat": 51.505998693636236, "lng": -0.11698315007379279, "labeledLatLngs": [{"label": "display", "lat": 51.505998693636236, "lng": -0.11698315007379279}], "distance": 262, "postalCode": "SE1 8XX", "cc": "GB", "city": "London", "state": "Greater London", "country": "United Kingdom", "formattedAddress": ["Belvedere Rd", "London", "Greater London", "SE1 8XX", "United Kingdom"]}, "categories": [{"id": "4bf58dd8d48988d1c4941735", "name": "Restaurant", "pluralName": "Restaurants", "shortName": "Restaurant", "icon": {"prefix": "https://ss3.4sqi.net/img/categories_v2/food/default_", "suffix": ".png"}, "primary": true}], "photos": {"count": 0, "groups": []}, "venuePage": {"id": "34408650"}}, "referralId": "e-0-4adbb0fff964a5200e2a21e3-3"}, {"reasons": {"count": 0, "items": [{"summary": "This spot is popular", "type": "general", "reasonName": "globalInteractionReason"}]}, "venue": {"id": "5c2e38e52f97ec00396c5213", "name": "Spiritland", "location": {"address": "Belvedere Rd", "lat": 51.50559934886189, "lng": -0.11639242235105485, "labeledLatLngs": [{"label": "display", "lat": 51.50559934886189, "lng": -0.11639242235105485}], "distance": 204, "postalCode": "SE1 8XX", "cc": "GB", "city": "London", "state": "Greater London", "country": "United Kingdom", "formattedAddress": ["Belvedere Rd", "London", "Greater London", "SE1 8XX", "United Kingdom"]}, "categories": [{"id": "4bf58dd8d48988d1c4941735", "name": "Restaurant", "pluralName": "Restaurants", "shortName": "Restaurant", "icon": {"prefix": "https://ss3.4sqi.net/img/categories_v2/food/default_", "suffix": ".png"}, "primary": true}], "photos": {"count": 0, "groups": []}}, "referralId": "e-0-5c2e38e52f97ec00396c5213-4"}, {"reasons": {"count": 0, "items": [{"summary": "This spot is popular", "type": "general", "reasonName": "globalInteractionReason"}]}, "venue": {"id": "4b83da2df964a520991331e3", "name": "Bagel Factory", "location": {"address": "Waterloo Stn. Concourse", "lat": 51.50310905164344, "lng": -0.11238073975150471, "labeledLatLngs": [{"label": "display", "lat": 51.50310905164344, "lng": -0.11238073975150471}], "distance": 206, "postalCode": "SE1 7LX", "cc": "GB", "city": "Waterloo", "state": "Greater London", "country": "United Kingdom", "formattedAddress": ["Waterloo Stn. Concourse", "Waterloo", "Greater London", "SE1 7LX", "United Kingdom"]}, "categories": [{"id": "4bf58dd8d48988d179941735", "name": "Bagel Shop", "pluralName": "Bagel Shops", "shortName": "Bagels", "icon": {"prefix": "https://ss3.4sqi.net/img/categories_v2/food/bagels_", "suffix": ".png"}, "primary": true}], "photos": {"count": 0, "groups": []}}, "referralId": "e-0-4b83da2df964a520991331e3-5"}, {"reasons": {"count": 0, "items": [{"summary": "This spot is popular", "type": "general", "reasonName": "globalInteractionReason"}]}, "venue": {"id": "5297139711d20f2ed80a54e8", "name": "KORRITO", "location": {"address": "Southbank Centre Sq", "lat": 51.50544959538727, "lng": -0.11629604001486127, "labeledLatLngs": [{"label": "display", "lat": 51.50544959538727, "lng": -0.11629604001486127}], "distance": 191, "postalCode": "SE1 8XX", "cc": "GB", "city": "London", "state": "Greater London", "country": "United Kingdom", "formattedAddress": ["Southbank Centre Sq", "London", "Greater London", "SE1 8XX", "United Kingdom"]}, "categories": [{"id": "4bf58dd8d48988d113941735", "name": "Korean Restaurant", "pluralName": "Korean Restaurants", "shortName": "Korean", "icon": {"prefix": "https://ss3.4sqi.net/img/categories_v2/food/korean_", "suffix": ".png"}, "primary": true}], "photos": {"count": 0, "groups": []}, "venuePage": {"id": "75282165"}}, "referralId": "e-0-5297139711d20f2ed80a54e8-6"}, {"reasons": {"count": 0, "items": [{"summary": "This spot is popular", "type": "general", "reasonName": "globalInteractionReason"}]}, "venue": {"id": "582369332735c10d02b2c71a", "name": "Sticky Mango", "location": {"address": "33 Coin St", "lat": 51.50615221140699, "lng": -0.11007311867713461, "labeledLatLngs": [{"label": "display", "lat": 51.50615221140699, "lng": -0.11007311867713461}], "distance": 299, "postalCode": "SE1 9NR", "cc": "GB", "country": "United Kingdom", "formattedAddress": ["33 Coin St", "SE1 9NR", "United Kingdom"]}, "categories": [{"id": "4bf58dd8d48988d142941735", "name": "Asian Restaurant", "pluralName": "Asian Restaurants", "shortName": "Asian", "icon": {"prefix": "https://ss3.4sqi.net/img/categories_v2/food/asian_", "suffix": ".png"}, "primary": true}], "photos": {"count": 0, "groups": []}}, "referralId": "e-0-582369332735c10d02b2c71a-7"}, {"reasons": {"count": 0, "items": [{"summary": "This spot is popular", "type": "general", "reasonName": "globalInteractionReason"}]}, "venue": {"id": "4ec6abe02c5b532d05aa85b2", "name": "Nando's", "location": {"address": "108 Stamford Street", "crossStreet": "Coin St", "lat": 51.50626884, "lng": -0.1105591, "labeledLatLngs": [{"label": "display", "lat": 51.50626884, "lng": -0.1105591}], "distance": 279, "postalCode": "SE1 9NH", "cc": "GB", "city": "London", "state": "Greater London", "country": "United Kingdom", "formattedAddress": ["108 Stamford Street (Coin St)", "London", "Greater London", "SE1 9NH", "United Kingdom"]}, "categories": [{"id": "4def73e84765ae376e57713a", "name": "Portuguese Restaurant", "pluralName": "Portuguese Restaurants", "shortName": "Portuguese", "icon": {"prefix": "https://ss3.4sqi.net/img/categories_v2/food/portuguese_", "suffix": ".png"}, "primary": true}], "photos": {"count": 0, "groups": []}, "venuePage": {"id": "561217051"}}, "referralId": "e-0-4ec6abe02c5b532d05aa85b2-8"}, {"reasons": {"count": 0, "items": [{"summary": "This spot is popular", "type": "general", "reasonName": "globalInteractionReason"}]}, "venue": {"id": "598c9e340868a228a8301bd2", "name": "Crust Bros Pizza", "location": {"address": "111 Waterloo Rd", "lat": 51.50276752794855, "lng": -0.1104568660224363, "labeledLatLngs": [{"label": "display", "lat": 51.50276752794855, "lng": -0.1104568660224363}], "distance": 318, "postalCode": "SE1 8UL", "cc": "GB", "city": "Waterloo", "state": "Greater London", "country": "United Kingdom", "formattedAddress": ["111 Waterloo Rd", "Waterloo", "Greater London", "SE1 8UL", "United Kingdom"]}, "categories": [{"id": "4bf58dd8d48988d1ca941735", "name": "Pizza Place", "pluralName": "Pizza Places", "shortName": "Pizza", "icon": {"prefix": "https://ss3.4sqi.net/img/categories_v2/food/pizza_", "suffix": ".png"}, "primary": true}], "photos": {"count": 0, "groups": []}}, "referralId": "e-0-598c9e340868a228a8301bd2-9"}, {"reasons": {"count": 0, "items": [{"summary": "This spot is popular", "type": "general", "reasonName": "globalInteractionReason"}]}, "venue": {"id": "51b9e091498e101f9fc7c7d7", "name": "Wahaca", "location": {"address": "119 Waterloo Rd, Bishop's, Bishops", "crossStreet": "at The Cut", "lat": 51.5027358, "lng": -0.1100846, "labeledLatLngs": [{"label": "display", "lat": 51.5027358, "lng": -0.1100846}], "distance": 339, "postalCode": "SE1 8UL", "cc": "GB", "city": "Waterloo", "state": "Greater London", "country": "United Kingdom", "formattedAddress": ["119 Waterloo Rd, Bishop's, Bishops (at The Cut)", "Waterloo", "Greater London", "SE1 8UL", "United Kingdom"]}, "categories": [{"id": "4bf58dd8d48988d1c1941735", "name": "Mexican Restaurant", "pluralName": "Mexican Restaurants", "shortName": "Mexican", "icon": {"prefix": "https://ss3.4sqi.net/img/categories_v2/food/mexican_", "suffix": ".png"}, "primary": true}], "photos": {"count": 0, "groups": []}}, "referralId": "e-0-51b9e091498e101f9fc7c7d7-10"}, {"reasons": {"count": 0, "items": [{"summary": "This spot is popular", "type": "general", "reasonName": "globalInteractionReason"}]}, "venue": {"id": "4bd07820462cb7137561d807", "name": "wagamama", "location": {"address": "riverside level, royal festival hall, southbank", "lat": 51.5058093, "lng": -0.1174239, "labeledLatLngs": [{"label": "display", "lat": 51.5058093, "lng": -0.1174239}], "distance": 279, "postalCode": "SE1 8XX", "cc": "GB", "city": "Waterloo", "state": "Greater London", "country": "United Kingdom", "formattedAddress": ["riverside level, royal festival hall, southbank", "Waterloo", "Greater London", "SE1 8XX", "United Kingdom"]}, "categories": [{"id": "4bf58dd8d48988d142941735", "name": "Asian Restaurant", "pluralName": "Asian Restaurants", "shortName": "Asian", "icon": {"prefix": "https://ss3.4sqi.net/img/categories_v2/food/asian_", "suffix": ".png"}, "primary": true}], "photos": {"count": 0, "groups": []}}, "referralId": "e-0-4bd07820462cb7137561d807-11"}, {"reasons": {"count": 0, "items": [{"summary": "This spot is popular", "type": "general", "reasonName": "globalInteractionReason"}]}, "venue": {"id": "51865084498e750990bec5ac", "name": "Horn OK Please", "location": {"address": "Southbank Centre Sq", "lat": 51.50535760320381, "lng": -0.1163308389368467, "labeledLatLngs": [{"label": "display", "lat": 51.50535760320381, "lng": -0.1163308389368467}], "distance": 189, "postalCode": "SE1 8XX", "cc": "GB", "neighborhood": "South Bank, London, Greater London", "city": "London", "state": "Greater London", "country": "United Kingdom", "formattedAddress": ["Southbank Centre Sq", "London", "Greater London", "SE1 8XX", "United Kingdom"]}, "categories": [{"id": "4bf58dd8d48988d10f941735", "name": "Indian Restaurant", "pluralName": "Indian Restaurants", "shortName": "Indian", "icon": {"prefix": "https://ss3.4sqi.net/img/categories_v2/food/indian_", "suffix": ".png"}, "primary": true}], "photos": {"count": 0, "groups": []}}, "referralId": "e-0-51865084498e750990bec5ac-12"}, {"reasons": {"count": 0, "items": [{"summary": "This spot is popular", "type": "general", "reasonName": "globalInteractionReason"}]}, "venue": {"id": "5a5dd828628c833187fc3d8e", "name": "Honest Burgers", "location": {"address": "9 Festival Terrace, Southbank", "lat": 51.5053683, "lng": -0.1169535, "labeledLatLngs": [{"label": "display", "lat": 51.5053683, "lng": -0.1169535}], "distance": 231, "postalCode": "SE1 8XX", "cc": "GB", "city": "London", "state": "Greater London", "country": "United Kingdom", "formattedAddress": ["9 Festival Terrace, Southbank", "London", "Greater London", "SE1 8XX", "United Kingdom"]}, "categories": [{"id": "4bf58dd8d48988d16c941735", "name": "Burger Joint", "pluralName": "Burger Joints", "shortName": "Burgers", "icon": {"prefix": "https://ss3.4sqi.net/img/categories_v2/food/burger_", "suffix": ".png"}, "primary": true}], "photos": {"count": 0, "groups": []}}, "referralId": "e-0-5a5dd828628c833187fc3d8e-13"}, {"reasons": {"count": 0, "items": [{"summary": "This spot is popular", "type": "general", "reasonName": "globalInteractionReason"}]}, "venue": {"id": "58c3fb665a5869779c45ebb3", "name": "Pret A Manger", "location": {"address": "152 Waterloo Road", "lat": 51.5023315, "lng": -0.1104033, "labeledLatLngs": [{"label": "display", "lat": 51.5023315, "lng": -0.1104033}], "distance": 356, "postalCode": "SE1 7AA", "cc": "GB", "city": "London", "state": "Greater London", "country": "United Kingdom", "formattedAddress": ["152 Waterloo Road", "London", "Greater London", "SE1 7AA", "United Kingdom"]}, "categories": [{"id": "4bf58dd8d48988d1c5941735", "name": "Sandwich Place", "pluralName": "Sandwich Places", "shortName": "Sandwiches", "icon": {"prefix": "https://ss3.4sqi.net/img/categories_v2/food/deli_", "suffix": ".png"}, "primary": true}], "photos": {"count": 0, "groups": []}}, "referralId": "e-0-58c3fb665a5869779c45ebb3-14"}, {"reasons": {"count": 0, "items": [{"summary": "This spot is popular", "type": "general", "reasonName": "globalInteractionReason"}]}, "venue": {"id": "4c1f4de6b4e62d7f2d65df93", "name": "Chilli \u0421hutney", "location": {"address": "47 York Rd.", "lat": 51.50308135342487, "lng": -0.1158647568350921, "labeledLatLngs": [{"label": "display", "lat": 51.50308135342487, "lng": -0.1158647568350921}], "distance": 235, "postalCode": "SE1 7NJ", "cc": "GB", "city": "London", "state": "Greater London", "country": "United Kingdom", "formattedAddress": ["47 York Rd.", "London", "Greater London", "SE1 7NJ", "United Kingdom"]}, "categories": [{"id": "4bf58dd8d48988d10f941735", "name": "Indian Restaurant", "pluralName": "Indian Restaurants", "shortName": "Indian", "icon": {"prefix": "https://ss3.4sqi.net/img/categories_v2/food/indian_", "suffix": ".png"}, "primary": true}], "photos": {"count": 0, "groups": []}}, "referralId": "e-0-4c1f4de6b4e62d7f2d65df93-15"}, {"reasons": {"count": 0, "items": [{"summary": "This spot is popular", "type": "general", "reasonName": "globalInteractionReason"}]}, "venue": {"id": "4adb38ddf964a520002521e3", "name": "Le Pain Quotidien", "location": {"address": "Festival Walk", "lat": 51.505478, "lng": -0.117289, "labeledLatLngs": [{"label": "display", "lat": 51.505478, "lng": -0.117289}], "distance": 256, "postalCode": "SE1 8XX", "cc": "GB", "neighborhood": "Southbank", "city": "South Bank", "state": "Greater London", "country": "United Kingdom", "formattedAddress": ["Festival Walk", "South Bank", "Greater London", "SE1 8XX", "United Kingdom"]}, "categories": [{"id": "4bf58dd8d48988d16a941735", "name": "Bakery", "pluralName": "Bakeries", "shortName": "Bakery", "icon": {"prefix": "https://ss3.4sqi.net/img/categories_v2/food/bakery_", "suffix": ".png"}, "primary": true}], "photos": {"count": 0, "groups": []}}, "referralId": "e-0-4adb38ddf964a520002521e3-16"}, {"reasons": {"count": 0, "items": [{"summary": "This spot is popular", "type": "general", "reasonName": "globalInteractionReason"}]}, "venue": {"id": "4adc5eb1f964a520e32b21e3", "name": "Ping Pong", "location": {"address": "Belvedere Rd", "lat": 51.50530331051285, "lng": -0.1163492915657116, "labeledLatLngs": [{"label": "display", "lat": 51.50530331051285, "lng": -0.1163492915657116}], "distance": 189, "postalCode": "SE1 8XX", "cc": "GB", "neighborhood": "South Bank, London, Greater London", "city": "South Bank", "state": "Greater London", "country": "United Kingdom", "formattedAddress": ["Belvedere Rd", "South Bank", "Greater London", "SE1 8XX", "United Kingdom"]}, "categories": [{"id": "4bf58dd8d48988d1f5931735", "name": "Dim Sum Restaurant", "pluralName": "Dim Sum Restaurants", "shortName": "Dim Sum", "icon": {"prefix": "https://ss3.4sqi.net/img/categories_v2/food/dimsum_", "suffix": ".png"}, "primary": true}], "photos": {"count": 0, "groups": []}}, "referralId": "e-0-4adc5eb1f964a520e32b21e3-17"}, {"reasons": {"count": 0, "items": [{"summary": "This spot is popular", "type": "general", "reasonName": "globalInteractionReason"}]}, "venue": {"id": "4bf57e7094af2d7fb6cd3b72", "name": "Terrace Bar & Food", "location": {"address": "Upper Ground", "lat": 51.50735127841561, "lng": -0.11491983565012492, "labeledLatLngs": [{"label": "display", "lat": 51.50735127841561, "lng": -0.11491983565012492}], "distance": 300, "postalCode": "SE1 9PX", "cc": "GB", "city": "London", "state": "Greater London", "country": "United Kingdom", "formattedAddress": ["Upper Ground", "London", "Greater London", "SE1 9PX", "United Kingdom"]}, "categories": [{"id": "4bf58dd8d48988d1c4941735", "name": "Restaurant", "pluralName": "Restaurants", "shortName": "Restaurant", "icon": {"prefix": "https://ss3.4sqi.net/img/categories_v2/food/default_", "suffix": ".png"}, "primary": true}], "photos": {"count": 0, "groups": []}}, "referralId": "e-0-4bf57e7094af2d7fb6cd3b72-18"}, {"reasons": {"count": 0, "items": [{"summary": "This spot is popular", "type": "general", "reasonName": "globalInteractionReason"}]}, "venue": {"id": "5a6a247b9411f21ee8fff2a3", "name": "oseyo eats Waterloo", "location": {"address": "158 Waterloo Rd", "lat": 51.502284770677704, "lng": -0.11026708017815517, "labeledLatLngs": [{"label": "display", "lat": 51.502284770677704, "lng": -0.11026708017815517}], "distance": 366, "postalCode": "SE1 8SB", "cc": "GB", "city": "London", "state": "Greater London", "country": "United Kingdom", "formattedAddress": ["158 Waterloo Rd", "London", "Greater London", "SE1 8SB", "United Kingdom"]}, "categories": [{"id": "4bf58dd8d48988d113941735", "name": "Korean Restaurant", "pluralName": "Korean Restaurants", "shortName": "Korean", "icon": {"prefix": "https://ss3.4sqi.net/img/categories_v2/food/korean_", "suffix": ".png"}, "primary": true}], "photos": {"count": 0, "groups": []}}, "referralId": "e-0-5a6a247b9411f21ee8fff2a3-19"}, {"reasons": {"count": 0, "items": [{"summary": "This spot is popular", "type": "general", "reasonName": "globalInteractionReason"}]}, "venue": {"id": "58ef3b4b610f042e975b6c4d", "name": "Pure", "location": {"address": "Unit 17, Waterloo Station, Waterloo Road", "lat": 51.5036966, "lng": -0.1138102, "labeledLatLngs": [{"label": "display", "lat": 51.5036966, "lng": -0.1138102}], "distance": 117, "postalCode": "SE1 7LY", "cc": "GB", "city": "London", "state": "Greater London", "country": "United Kingdom", "formattedAddress": ["Unit 17, Waterloo Station, Waterloo Road", "London", "Greater London", "SE1 7LY", "United Kingdom"]}, "categories": [{"id": "4bf58dd8d48988d1bd941735", "name": "Salad Place", "pluralName": "Salad Places", "shortName": "Salad", "icon": {"prefix": "https://ss3.4sqi.net/img/categories_v2/food/salad_", "suffix": ".png"}, "primary": true}], "photos": {"count": 0, "groups": []}}, "referralId": "e-0-58ef3b4b610f042e975b6c4d-20"}, {"reasons": {"count": 0, "items": [{"summary": "This spot is popular", "type": "general", "reasonName": "globalInteractionReason"}]}, "venue": {"id": "5ac89398598e6406b13aae05", "name": "C\u00f4te Brasserie", "location": {"address": "Royal Festival Hall", "crossStreet": "Festival Terrace", "lat": 51.505523, "lng": -0.11689, "labeledLatLngs": [{"label": "display", "lat": 51.505523, "lng": -0.11689}], "distance": 232, "postalCode": "SE1 8XX", "cc": "GB", "city": "London", "state": "Greater London", "country": "United Kingdom", "formattedAddress": ["Royal Festival Hall (Festival Terrace)", "London", "Greater London", "SE1 8XX", "United Kingdom"]}, "categories": [{"id": "4bf58dd8d48988d10c941735", "name": "French Restaurant", "pluralName": "French Restaurants", "shortName": "French", "icon": {"prefix": "https://ss3.4sqi.net/img/categories_v2/food/french_", "suffix": ".png"}, "primary": true}], "photos": {"count": 0, "groups": []}}, "referralId": "e-0-5ac89398598e6406b13aae05-21"}, {"reasons": {"count": 0, "items": [{"summary": "This spot is popular", "type": "general", "reasonName": "globalInteractionReason"}]}, "venue": {"id": "5de7c22f37d8ed00081938ce", "name": "Pret A Manger", "location": {"lat": 51.506099, "lng": -0.117498, "labeledLatLngs": [{"label": "display", "lat": 51.506099, "lng": -0.117498}], "distance": 298, "postalCode": "SE1 8XZ", "cc": "GB", "city": "London", "state": "Greater London", "country": "United Kingdom", "formattedAddress": ["London", "Greater London", "SE1 8XZ", "United Kingdom"]}, "categories": [{"id": "4bf58dd8d48988d1c5941735", "name": "Sandwich Place", "pluralName": "Sandwich Places", "shortName": "Sandwiches", "icon": {"prefix": "https://ss3.4sqi.net/img/categories_v2/food/deli_", "suffix": ".png"}, "primary": true}], "photos": {"count": 0, "groups": []}}, "referralId": "e-0-5de7c22f37d8ed00081938ce-22"}, {"reasons": {"count": 0, "items": [{"summary": "This spot is popular", "type": "general", "reasonName": "globalInteractionReason"}]}, "venue": {"id": "4b212751f964a520683724e3", "name": "Las Iguanas", "location": {"address": "Belvedere Rd", "crossStreet": "Festival Terrace", "lat": 51.50567818297025, "lng": -0.11746187199605627, "labeledLatLngs": [{"label": "display", "lat": 51.50567818297025, "lng": -0.11746187199605627}], "distance": 275, "postalCode": "SE1 8XX", "cc": "GB", "city": "London", "state": "Greater London", "country": "United Kingdom", "formattedAddress": ["Belvedere Rd (Festival Terrace)", "London", "Greater London", "SE1 8XX", "United Kingdom"]}, "categories": [{"id": "4bf58dd8d48988d1be941735", "name": "Latin American Restaurant", "pluralName": "Latin American Restaurants", "shortName": "Latin American", "icon": {"prefix": "https://ss3.4sqi.net/img/categories_v2/food/latinamerican_", "suffix": ".png"}, "primary": true}], "photos": {"count": 0, "groups": []}}, "referralId": "e-0-4b212751f964a520683724e3-23"}, {"reasons": {"count": 0, "items": [{"summary": "This spot is popular", "type": "general", "reasonName": "globalInteractionReason"}]}, "venue": {"id": "4af96a8df964a520ae1122e3", "name": "West Cornwall Pasty Co", "location": {"address": "Waterloo Station", "lat": 51.50317013551313, "lng": -0.1108972377957325, "labeledLatLngs": [{"label": "display", "lat": 51.50317013551313, "lng": -0.1108972377957325}], "distance": 265, "cc": "GB", "city": "London", "state": "Greater London", "country": "United Kingdom", "formattedAddress": ["Waterloo Station", "London", "Greater London", "United Kingdom"]}, "categories": [{"id": "4bf58dd8d48988d16a941735", "name": "Bakery", "pluralName": "Bakeries", "shortName": "Bakery", "icon": {"prefix": "https://ss3.4sqi.net/img/categories_v2/food/bakery_", "suffix": ".png"}, "primary": true}], "photos": {"count": 0, "groups": []}}, "referralId": "e-0-4af96a8df964a520ae1122e3-24"}, {"reasons": {"count": 0, "items": [{"summary": "This spot is popular", "type": "general", "reasonName": "globalInteractionReason"}]}, "venue": {"id": "59232d40da2e0075aedbcbac", "name": "The BBQ Club", "location": {"address": "Belvedere Rd", "lat": 51.50718061534491, "lng": -0.11617150183033269, "labeledLatLngs": [{"label": "display", "lat": 51.50718061534491, "lng": -0.11617150183033269}], "distance": 317, "postalCode": "SE1 9PX", "cc": "GB", "neighborhood": "London", "city": "London", "state": "Greater London", "country": "United Kingdom", "formattedAddress": ["Belvedere Rd", "London", "Greater London", "SE1 9PX", "United Kingdom"]}, "categories": [{"id": "4bf58dd8d48988d1df931735", "name": "BBQ Joint", "pluralName": "BBQ Joints", "shortName": "BBQ", "icon": {"prefix": "https://ss3.4sqi.net/img/categories_v2/food/bbqalt_", "suffix": ".png"}, "primary": true}], "photos": {"count": 0, "groups": []}}, "referralId": "e-0-59232d40da2e0075aedbcbac-25"}, {"reasons": {"count": 0, "items": [{"summary": "This spot is popular", "type": "general", "reasonName": "globalInteractionReason"}]}, "venue": {"id": "51d2b9272fc67007b7c05fa6", "name": "Pret A Manger", "location": {"address": "The Lozenge GO1A", "crossStreet": "Main Concourse, Waterloo Station", "lat": 51.503128786127455, "lng": -0.11252164399946897, "labeledLatLngs": [{"label": "display", "lat": 51.503128786127455, "lng": -0.11252164399946897}], "distance": 200, "postalCode": "SE1 7NQ", "cc": "GB", "city": "London", "state": "Greater London", "country": "United Kingdom", "formattedAddress": ["The Lozenge GO1A (Main Concourse, Waterloo Station)", "London", "Greater London", "SE1 7NQ", "United Kingdom"]}, "categories": [{"id": "4bf58dd8d48988d1c5941735", "name": "Sandwich Place", "pluralName": "Sandwich Places", "shortName": "Sandwiches", "icon": {"prefix": "https://ss3.4sqi.net/img/categories_v2/food/deli_", "suffix": ".png"}, "primary": true}], "photos": {"count": 0, "groups": []}}, "referralId": "e-0-51d2b9272fc67007b7c05fa6-26"}, {"reasons": {"count": 0, "items": [{"summary": "This spot is popular", "type": "general", "reasonName": "globalInteractionReason"}]}, "venue": {"id": "5b25626b270ee7002c11755b", "name": "Draughts", "location": {"address": "16 Leake St", "lat": 51.501735331007716, "lng": -0.11537598935060489, "labeledLatLngs": [{"label": "display", "lat": 51.501735331007716, "lng": -0.11537598935060489}], "distance": 353, "postalCode": "SE1 7NN", "cc": "GB", "city": "London", "state": "Greater London", "country": "United Kingdom", "formattedAddress": ["16 Leake St", "London", "Greater London", "SE1 7NN", "United Kingdom"]}, "categories": [{"id": "4bf58dd8d48988d16d941735", "name": "Caf\u00e9", "pluralName": "Caf\u00e9s", "shortName": "Caf\u00e9", "icon": {"prefix": "https://ss3.4sqi.net/img/categories_v2/food/cafe_", "suffix": ".png"}, "primary": true}], "photos": {"count": 0, "groups": []}}, "referralId": "e-0-5b25626b270ee7002c11755b-27"}, {"reasons": {"count": 0, "items": [{"summary": "This spot is popular", "type": "general", "reasonName": "globalInteractionReason"}]}, "venue": {"id": "4b2f6868f964a52038eb24e3", "name": "Riverside Terrace Caf\u00e9", "location": {"address": "Belvedere Rd", "lat": 51.5060101824139, "lng": -0.11747639651539245, "labeledLatLngs": [{"label": "display", "lat": 51.5060101824139, "lng": -0.11747639651539245}], "distance": 292, "postalCode": "SE1 8XX", "cc": "GB", "city": "London", "state": "Greater London", "country": "United Kingdom", "formattedAddress": ["Belvedere Rd", "London", "Greater London", "SE1 8XX", "United Kingdom"]}, "categories": [{"id": "4bf58dd8d48988d16d941735", "name": "Caf\u00e9", "pluralName": "Caf\u00e9s", "shortName": "Caf\u00e9", "icon": {"prefix": "https://ss3.4sqi.net/img/categories_v2/food/cafe_", "suffix": ".png"}, "primary": true}], "photos": {"count": 0, "groups": []}}, "referralId": "e-0-4b2f6868f964a52038eb24e3-28"}, {"reasons": {"count": 0, "items": [{"summary": "This spot is popular", "type": "general", "reasonName": "globalInteractionReason"}]}, "venue": {"id": "4b546e28f964a520ffba27e3", "name": "Coffee Culture", "location": {"address": "49 York Rd", "lat": 51.503048658919134, "lng": -0.11597967181503623, "labeledLatLngs": [{"label": "display", "lat": 51.503048658919134, "lng": -0.11597967181503623}], "distance": 243, "postalCode": "SE1 7NJ", "cc": "GB", "city": "Waterloo", "state": "Greater London", "country": "United Kingdom", "formattedAddress": ["49 York Rd", "Waterloo", "Greater London", "SE1 7NJ", "United Kingdom"]}, "categories": [{"id": "4bf58dd8d48988d143941735", "name": "Breakfast Spot", "pluralName": "Breakfast Spots", "shortName": "Breakfast", "icon": {"prefix": "https://ss3.4sqi.net/img/categories_v2/food/breakfast_", "suffix": ".png"}, "primary": true}], "photos": {"count": 0, "groups": []}}, "referralId": "e-0-4b546e28f964a520ffba27e3-29"}, {"reasons": {"count": 0, "items": [{"summary": "This spot is popular", "type": "general", "reasonName": "globalInteractionReason"}]}, "venue": {"id": "4ae35413f964a5207f9321e3", "name": "Giraffe", "location": {"address": "Belvedere Rd", "crossStreet": "Riverside Level 1", "lat": 51.50641993323661, "lng": -0.11726100021303025, "labeledLatLngs": [{"label": "display", "lat": 51.50641993323661, "lng": -0.11726100021303025}], "distance": 305, "postalCode": "SE1 8XX", "cc": "GB", "neighborhood": "Southwa", "city": "London", "state": "Greater London", "country": "United Kingdom", "formattedAddress": ["Belvedere Rd (Riverside Level 1)", "London", "Greater London", "SE1 8XX", "United Kingdom"]}, "categories": [{"id": "4bf58dd8d48988d1c4941735", "name": "Restaurant", "pluralName": "Restaurants", "shortName": "Restaurant", "icon": {"prefix": "https://ss3.4sqi.net/img/categories_v2/food/default_", "suffix": ".png"}, "primary": true}], "photos": {"count": 0, "groups": []}}, "referralId": "e-0-4ae35413f964a5207f9321e3-30"}, {"reasons": {"count": 0, "items": [{"summary": "This spot is popular", "type": "general", "reasonName": "globalInteractionReason"}]}, "venue": {"id": "53f0b5d2498e01d5d20e401f", "name": "Subway", "location": {"address": "79B Waterloo Road, Arch 133", "crossStreet": "Arch No. 133", "lat": 51.503902, "lng": -0.111601, "labeledLatLngs": [{"label": "display", "lat": 51.503902, "lng": -0.111601}], "distance": 177, "postalCode": "SE1 8UD", "cc": "GB", "city": "London", "country": "United Kingdom", "formattedAddress": ["79B Waterloo Road, Arch 133 (Arch No. 133)", "London", "SE1 8UD", "United Kingdom"]}, "categories": [{"id": "4bf58dd8d48988d1c5941735", "name": "Sandwich Place", "pluralName": "Sandwich Places", "shortName": "Sandwiches", "icon": {"prefix": "https://ss3.4sqi.net/img/categories_v2/food/deli_", "suffix": ".png"}, "primary": true}], "photos": {"count": 0, "groups": []}}, "referralId": "e-0-53f0b5d2498e01d5d20e401f-31"}, {"reasons": {"count": 0, "items": [{"summary": "This spot is popular", "type": "general", "reasonName": "globalInteractionReason"}]}, "venue": {"id": "4c7cf833f56a37044a480946", "name": "Caprini", "location": {"address": "77 Waterloo Rd", "lat": 51.50406378170506, "lng": -0.11194879566816252, "labeledLatLngs": [{"label": "display", "lat": 51.50406378170506, "lng": -0.11194879566816252}], "distance": 147, "postalCode": "SE1 8UD", "cc": "GB", "city": "London", "state": "Greater London", "country": "United Kingdom", "formattedAddress": ["77 Waterloo Rd", "London", "Greater London", "SE1 8UD", "United Kingdom"]}, "categories": [{"id": "4bf58dd8d48988d110941735", "name": "Italian Restaurant", "pluralName": "Italian Restaurants", "shortName": "Italian", "icon": {"prefix": "https://ss3.4sqi.net/img/categories_v2/food/italian_", "suffix": ".png"}, "primary": true}], "photos": {"count": 0, "groups": []}}, "referralId": "e-0-4c7cf833f56a37044a480946-32"}, {"reasons": {"count": 0, "items": [{"summary": "This spot is popular", "type": "general", "reasonName": "globalInteractionReason"}]}, "venue": {"id": "4ae9e00ff964a52036b721e3", "name": "BFI Bar & Kitchen", "location": {"address": "Belvedere Rd", "lat": 51.50677638, "lng": -0.11608347, "labeledLatLngs": [{"label": "display", "lat": 51.50677638, "lng": -0.11608347}], "distance": 276, "postalCode": "SE1 8XT", "cc": "GB", "city": "London", "state": "Greater London", "country": "United Kingdom", "formattedAddress": ["Belvedere Rd", "London", "Greater London", "SE1 8XT", "United Kingdom"]}, "categories": [{"id": "52e81612bcbc57f1066b79f1", "name": "Bistro", "pluralName": "Bistros", "shortName": "Bistro", "icon": {"prefix": "https://ss3.4sqi.net/img/categories_v2/food/default_", "suffix": ".png"}, "primary": true}], "photos": {"count": 0, "groups": []}, "venuePage": {"id": "563578396"}}, "referralId": "e-0-4ae9e00ff964a52036b721e3-33"}, {"reasons": {"count": 0, "items": [{"summary": "This spot is popular", "type": "general", "reasonName": "globalInteractionReason"}]}, "venue": {"id": "4ac518bef964a5200ea320e3", "name": "The Archduke", "location": {"address": "153 Concert Hall Approach", "lat": 51.505072571897266, "lng": -0.11594773967664287, "labeledLatLngs": [{"label": "display", "lat": 51.505072571897266, "lng": -0.11594773967664287}], "distance": 155, "postalCode": "SE1 8XU", "cc": "GB", "city": "London", "state": "Greater London", "country": "United Kingdom", "formattedAddress": ["153 Concert Hall Approach", "London", "Greater London", "SE1 8XU", "United Kingdom"]}, "categories": [{"id": "4bf58dd8d48988d1cc941735", "name": "Steakhouse", "pluralName": "Steakhouses", "shortName": "Steakhouse", "icon": {"prefix": "https://ss3.4sqi.net/img/categories_v2/food/steakhouse_", "suffix": ".png"}, "primary": true}], "photos": {"count": 0, "groups": []}}, "referralId": "e-0-4ac518bef964a5200ea320e3-34"}, {"reasons": {"count": 0, "items": [{"summary": "This spot is popular", "type": "general", "reasonName": "globalInteractionReason"}]}, "venue": {"id": "5b049358c9f907002c00662b", "name": "Banh Bao Brothers", "location": {"address": "20 Leake St", "lat": 51.501879, "lng": -0.1158151, "labeledLatLngs": [{"label": "display", "lat": 51.501879, "lng": -0.1158151}], "distance": 349, "postalCode": "SE1 7NN", "cc": "GB", "city": "London", "state": "Greater London", "country": "United Kingdom", "formattedAddress": ["20 Leake St", "London", "Greater London", "SE1 7NN", "United Kingdom"]}, "categories": [{"id": "4bf58dd8d48988d14a941735", "name": "Vietnamese Restaurant", "pluralName": "Vietnamese Restaurants", "shortName": "Vietnamese", "icon": {"prefix": "https://ss3.4sqi.net/img/categories_v2/food/vietnamese_", "suffix": ".png"}, "primary": true}], "photos": {"count": 0, "groups": []}}, "referralId": "e-0-5b049358c9f907002c00662b-35"}, {"reasons": {"count": 0, "items": [{"summary": "This spot is popular", "type": "general", "reasonName": "globalInteractionReason"}]}, "venue": {"id": "53d2a572498e4febaf203562", "name": "House Restaurant", "location": {"address": "Upper Ground", "lat": 51.5074138788881, "lng": -0.11484337872252376, "labeledLatLngs": [{"label": "display", "lat": 51.5074138788881, "lng": -0.11484337872252376}], "distance": 305, "postalCode": "SE1 9PX", "cc": "GB", "city": "London", "state": "Greater London", "country": "United Kingdom", "formattedAddress": ["Upper Ground", "London", "Greater London", "SE1 9PX", "United Kingdom"]}, "categories": [{"id": "52e81612bcbc57f1066b79f9", "name": "Modern European Restaurant", "pluralName": "Modern European Restaurants", "shortName": "Modern European", "icon": {"prefix": "https://ss3.4sqi.net/img/categories_v2/food/default_", "suffix": ".png"}, "primary": true}], "photos": {"count": 0, "groups": []}}, "referralId": "e-0-53d2a572498e4febaf203562-36"}, {"reasons": {"count": 0, "items": [{"summary": "This spot is popular", "type": "general", "reasonName": "globalInteractionReason"}]}, "venue": {"id": "4b9fb129f964a5205e3537e3", "name": "Wasabi", "location": {"address": "Waterloo Station", "lat": 51.502840979386455, "lng": -0.11192427036494151, "labeledLatLngs": [{"label": "display", "lat": 51.502840979386455, "lng": -0.11192427036494151}], "distance": 248, "postalCode": "SE1 8SW", "cc": "GB", "city": "London", "state": "Greater London", "country": "United Kingdom", "formattedAddress": ["Waterloo Station", "London", "Greater London", "SE1 8SW", "United Kingdom"]}, "categories": [{"id": "4bf58dd8d48988d1d2941735", "name": "Sushi Restaurant", "pluralName": "Sushi Restaurants", "shortName": "Sushi", "icon": {"prefix": "https://ss3.4sqi.net/img/categories_v2/food/sushi_", "suffix": ".png"}, "primary": true}], "photos": {"count": 0, "groups": []}}, "referralId": "e-0-4b9fb129f964a5205e3537e3-37"}, {"reasons": {"count": 0, "items": [{"summary": "This spot is popular", "type": "general", "reasonName": "globalInteractionReason"}]}, "venue": {"id": "5e495abb7ed26b000838553f", "name": "KFC", "location": {"address": "3 Mepham St", "lat": 51.503996, "lng": -0.114025, "labeledLatLngs": [{"label": "display", "lat": 51.503996, "lng": -0.114025}], "distance": 85, "postalCode": "SE1 8FS", "cc": "GB", "city": "London", "state": "Greater London", "country": "United Kingdom", "formattedAddress": ["3 Mepham St", "London", "Greater London", "SE1 8FS", "United Kingdom"]}, "categories": [{"id": "4bf58dd8d48988d16e941735", "name": "Fast Food Restaurant", "pluralName": "Fast Food Restaurants", "shortName": "Fast Food", "icon": {"prefix": "https://ss3.4sqi.net/img/categories_v2/food/fastfood_", "suffix": ".png"}, "primary": true}], "photos": {"count": 0, "groups": []}, "venuePage": {"id": "583734386"}}, "referralId": "e-0-5e495abb7ed26b000838553f-38"}, {"reasons": {"count": 0, "items": [{"summary": "This spot is popular", "type": "general", "reasonName": "globalInteractionReason"}]}, "venue": {"id": "4b5711e0f964a520312528e3", "name": "Madeira Caf\u00e9", "location": {"address": "1 Wootton St", "lat": 51.50365397008844, "lng": -0.11025960641269787, "labeledLatLngs": [{"label": "display", "lat": 51.50365397008844, "lng": -0.11025960641269787}], "distance": 272, "postalCode": "SE1 8TG", "cc": "GB", "city": "Waterloo", "state": "Greater London", "country": "United Kingdom", "formattedAddress": ["1 Wootton St", "Waterloo", "Greater London", "SE1 8TG", "United Kingdom"]}, "categories": [{"id": "4bf58dd8d48988d1c5941735", "name": "Sandwich Place", "pluralName": "Sandwich Places", "shortName": "Sandwiches", "icon": {"prefix": "https://ss3.4sqi.net/img/categories_v2/food/deli_", "suffix": ".png"}, "primary": true}], "photos": {"count": 0, "groups": []}}, "referralId": "e-0-4b5711e0f964a520312528e3-39"}, {"reasons": {"count": 0, "items": [{"summary": "This spot is popular", "type": "general", "reasonName": "globalInteractionReason"}]}, "venue": {"id": "4bb9dab81261d13aa9e6e998", "name": "Fishcotheque", "location": {"address": "79A Waterloo Rd", "lat": 51.50396655481911, "lng": -0.11188035732393523, "labeledLatLngs": [{"label": "display", "lat": 51.50396655481911, "lng": -0.11188035732393523}], "distance": 157, "postalCode": "SE1 8UD", "cc": "GB", "city": "London", "state": "Greater London", "country": "United Kingdom", "formattedAddress": ["79A Waterloo Rd", "London", "Greater London", "SE1 8UD", "United Kingdom"]}, "categories": [{"id": "4edd64a0c7ddd24ca188df1a", "name": "Fish & Chips Shop", "pluralName": "Fish & Chips Shops", "shortName": "Fish & Chips", "icon": {"prefix": "https://ss3.4sqi.net/img/categories_v2/food/fishandchips_", "suffix": ".png"}, "primary": true}], "photos": {"count": 0, "groups": []}}, "referralId": "e-0-4bb9dab81261d13aa9e6e998-40"}, {"reasons": {"count": 0, "items": [{"summary": "This spot is popular", "type": "general", "reasonName": "globalInteractionReason"}]}, "venue": {"id": "4adccfcbf964a520193021e3", "name": "Strada", "location": {"address": "Belvedere Rd", "crossStreet": "Riverside Level 1", "lat": 51.505942197961346, "lng": -0.11778137704823165, "labeledLatLngs": [{"label": "display", "lat": 51.505942197961346, "lng": -0.11778137704823165}], "distance": 308, "postalCode": "SE1 8XX", "cc": "GB", "city": "London", "state": "Greater London", "country": "United Kingdom", "formattedAddress": ["Belvedere Rd (Riverside Level 1)", "London", "Greater London", "SE1 8XX", "United Kingdom"]}, "categories": [{"id": "4bf58dd8d48988d110941735", "name": "Italian Restaurant", "pluralName": "Italian Restaurants", "shortName": "Italian", "icon": {"prefix": "https://ss3.4sqi.net/img/categories_v2/food/italian_", "suffix": ".png"}, "primary": true}], "photos": {"count": 0, "groups": []}}, "referralId": "e-0-4adccfcbf964a520193021e3-41"}, {"reasons": {"count": 0, "items": [{"summary": "This spot is popular", "type": "general", "reasonName": "globalInteractionReason"}]}, "venue": {"id": "4b6b2cf2f964a520a1f72be3", "name": "The Thames Restaurant", "location": {"address": "79 Waterloo Rd", "lat": 51.50394774265021, "lng": -0.11190870127239948, "labeledLatLngs": [{"label": "display", "lat": 51.50394774265021, "lng": -0.11190870127239948}], "distance": 156, "postalCode": "SE1 8UD", "cc": "GB", "city": "London", "state": "Greater London", "country": "United Kingdom", "formattedAddress": ["79 Waterloo Rd", "London", "Greater London", "SE1 8UD", "United Kingdom"]}, "categories": [{"id": "4bf58dd8d48988d10f941735", "name": "Indian Restaurant", "pluralName": "Indian Restaurants", "shortName": "Indian", "icon": {"prefix": "https://ss3.4sqi.net/img/categories_v2/food/indian_", "suffix": ".png"}, "primary": true}], "photos": {"count": 0, "groups": []}}, "referralId": "e-0-4b6b2cf2f964a520a1f72be3-42"}, {"reasons": {"count": 0, "items": [{"summary": "This spot is popular", "type": "general", "reasonName": "globalInteractionReason"}]}, "venue": {"id": "4b5487a9f964a520bfbe27e3", "name": "Upper Crust", "location": {"address": "London Waterloo Station (WAT)", "lat": 51.50310515364019, "lng": -0.11274691813154415, "labeledLatLngs": [{"label": "display", "lat": 51.50310515364019, "lng": -0.11274691813154415}], "distance": 196, "postalCode": "SE1 8SW", "cc": "GB", "city": "London", "state": "Greater London", "country": "United Kingdom", "formattedAddress": ["London Waterloo Station (WAT)", "London", "Greater London", "SE1 8SW", "United Kingdom"]}, "categories": [{"id": "4bf58dd8d48988d1c5941735", "name": "Sandwich Place", "pluralName": "Sandwich Places", "shortName": "Sandwiches", "icon": {"prefix": "https://ss3.4sqi.net/img/categories_v2/food/deli_", "suffix": ".png"}, "primary": true}], "photos": {"count": 0, "groups": []}}, "referralId": "e-0-4b5487a9f964a520bfbe27e3-43"}, {"reasons": {"count": 0, "items": [{"summary": "This spot is popular", "type": "general", "reasonName": "globalInteractionReason"}]}, "venue": {"id": "51b0dfae498e9bf700f825ab", "name": "Gourmet Burger Kitchen", "location": {"address": "119A Waterloo Rd", "lat": 51.5026637, "lng": -0.1102004, "labeledLatLngs": [{"label": "display", "lat": 51.5026637, "lng": -0.1102004}], "distance": 339, "postalCode": "SE1 8UL", "cc": "GB", "city": "Waterloo", "state": "Greater London", "country": "United Kingdom", "formattedAddress": ["119A Waterloo Rd", "Waterloo", "Greater London", "SE1 8UL", "United Kingdom"]}, "categories": [{"id": "4bf58dd8d48988d16c941735", "name": "Burger Joint", "pluralName": "Burger Joints", "shortName": "Burgers", "icon": {"prefix": "https://ss3.4sqi.net/img/categories_v2/food/burger_", "suffix": ".png"}, "primary": true}], "photos": {"count": 0, "groups": []}}, "referralId": "e-0-51b0dfae498e9bf700f825ab-44"}, {"reasons": {"count": 0, "items": [{"summary": "This spot is popular", "type": "general", "reasonName": "globalInteractionReason"}]}, "venue": {"id": "4b0e8ff0f964a5207f5823e3", "name": "PizzaExpress", "location": {"address": "Unit 3 The White House, 9c Belvedere Road", "crossStreet": "9c Belvedere Rd", "lat": 51.5056361, "lng": -0.1151426, "labeledLatLngs": [{"label": "display", "lat": 51.5056361, "lng": -0.1151426}], "distance": 137, "postalCode": "SE1 8YP", "cc": "GB", "city": "London", "state": "Greater London", "country": "United Kingdom", "formattedAddress": ["Unit 3 The White House, 9c Belvedere Road (9c Belvedere Rd)", "London", "Greater London", "SE1 8YP", "United Kingdom"]}, "categories": [{"id": "4bf58dd8d48988d1ca941735", "name": "Pizza Place", "pluralName": "Pizza Places", "shortName": "Pizza", "icon": {"prefix": "https://ss3.4sqi.net/img/categories_v2/food/pizza_", "suffix": ".png"}, "primary": true}], "photos": {"count": 0, "groups": []}}, "referralId": "e-0-4b0e8ff0f964a5207f5823e3-45"}, {"reasons": {"count": 0, "items": [{"summary": "This spot is popular", "type": "general", "reasonName": "globalInteractionReason"}]}, "venue": {"id": "563636f4498ef830830f0e36", "name": "Spit & Roast", "location": {"address": "Southbank Centre Sq", "lat": 51.50558385576479, "lng": -0.11600017547607422, "labeledLatLngs": [{"label": "display", "lat": 51.50558385576479, "lng": -0.11600017547607422}], "distance": 180, "postalCode": "SE1 8XX", "cc": "GB", "neighborhood": "South Bank, London, Greater London", "city": "London", "state": "Greater London", "country": "United Kingdom", "formattedAddress": ["Southbank Centre Sq", "London", "Greater London", "SE1 8XX", "United Kingdom"]}, "categories": [{"id": "4d4ae6fc7a7b7dea34424761", "name": "Fried Chicken Joint", "pluralName": "Fried Chicken Joints", "shortName": "Fried Chicken", "icon": {"prefix": "https://ss3.4sqi.net/img/categories_v2/food/friedchicken_", "suffix": ".png"}, "primary": true}], "photos": {"count": 0, "groups": []}}, "referralId": "e-0-563636f4498ef830830f0e36-46"}, {"reasons": {"count": 0, "items": [{"summary": "This spot is popular", "type": "general", "reasonName": "globalInteractionReason"}]}, "venue": {"id": "59f5bc77c666666b3161d09d", "name": "The Frenchie", "location": {"address": "Southbank Centre Sq", "lat": 51.505406, "lng": -0.116646, "labeledLatLngs": [{"label": "display", "lat": 51.505406, "lng": -0.116646}], "distance": 212, "postalCode": "SE1 8XX", "cc": "GB", "city": "London", "state": "Greater London", "country": "United Kingdom", "formattedAddress": ["Southbank Centre Sq", "London", "Greater London", "SE1 8XX", "United Kingdom"]}, "categories": [{"id": "56aa371be4b08b9a8d57350b", "name": "Food Stand", "pluralName": "Food Stands", "shortName": "Food Stand", "icon": {"prefix": "https://ss3.4sqi.net/img/categories_v2/travel/movingtarget_", "suffix": ".png"}, "primary": true}], "photos": {"count": 0, "groups": []}}, "referralId": "e-0-59f5bc77c666666b3161d09d-47"}, {"reasons": {"count": 0, "items": [{"summary": "This spot is popular", "type": "general", "reasonName": "globalInteractionReason"}]}, "venue": {"id": "4ba1f576f964a5209dd337e3", "name": "Delice de France", "location": {"address": "Waterloo Station", "lat": 51.502908272082855, "lng": -0.11198779961017627, "labeledLatLngs": [{"label": "display", "lat": 51.502908272082855, "lng": -0.11198779961017627}], "distance": 239, "cc": "GB", "city": "London", "state": "Greater London", "country": "United Kingdom", "formattedAddress": ["Waterloo Station", "London", "Greater London", "United Kingdom"]}, "categories": [{"id": "4bf58dd8d48988d16a941735", "name": "Bakery", "pluralName": "Bakeries", "shortName": "Bakery", "icon": {"prefix": "https://ss3.4sqi.net/img/categories_v2/food/bakery_", "suffix": ".png"}, "primary": true}], "photos": {"count": 0, "groups": []}}, "referralId": "e-0-4ba1f576f964a5209dd337e3-48"}, {"reasons": {"count": 0, "items": [{"summary": "This spot is popular", "type": "general", "reasonName": "globalInteractionReason"}]}, "venue": {"id": "50254acae4b0a32dd887ec16", "name": "Carluccio's", "location": {"address": "Unit 16/17, The Balcony", "crossStreet": "Waterloo Station", "lat": 51.502843034462565, "lng": -0.11181683329005393, "labeledLatLngs": [{"label": "display", "lat": 51.502843034462565, "lng": -0.11181683329005393}], "distance": 251, "postalCode": "SE1 7LY", "cc": "GB", "city": "London", "state": "Greater London", "country": "United Kingdom", "formattedAddress": ["Unit 16/17, The Balcony (Waterloo Station)", "London", "Greater London", "SE1 7LY", "United Kingdom"]}, "categories": [{"id": "4bf58dd8d48988d110941735", "name": "Italian Restaurant", "pluralName": "Italian Restaurants", "shortName": "Italian", "icon": {"prefix": "https://ss3.4sqi.net/img/categories_v2/food/italian_", "suffix": ".png"}, "primary": true}], "photos": {"count": 0, "groups": []}}, "referralId": "e-0-50254acae4b0a32dd887ec16-49"}, {"reasons": {"count": 0, "items": [{"summary": "This spot is popular", "type": "general", "reasonName": "globalInteractionReason"}]}, "venue": {"id": "500846f2e4b0117eceecdce1", "name": "Lyttelton Cafe", "location": {"lat": 51.506999501025895, "lng": -0.1140839644034068, "labeledLatLngs": [{"label": "display", "lat": 51.506999501025895, "lng": -0.1140839644034068}], "distance": 251, "cc": "GB", "country": "United Kingdom", "formattedAddress": ["United Kingdom"]}, "categories": [{"id": "4bf58dd8d48988d16d941735", "name": "Caf\u00e9", "pluralName": "Caf\u00e9s", "shortName": "Caf\u00e9", "icon": {"prefix": "https://ss3.4sqi.net/img/categories_v2/food/cafe_", "suffix": ".png"}, "primary": true}], "photos": {"count": 0, "groups": []}}, "referralId": "e-0-500846f2e4b0117eceecdce1-50"}, {"reasons": {"count": 0, "items": [{"summary": "This spot is popular", "type": "general", "reasonName": "globalInteractionReason"}]}, "venue": {"id": "4c63b33b58810f470c5b0a1e", "name": "YO! Sushi", "location": {"address": "Unit 3 Festival Riverside, Royal Festival Hall, Southbank Centre", "crossStreet": "Southbank Centre", "lat": 51.50620180431136, "lng": -0.11713450543265935, "labeledLatLngs": [{"label": "display", "lat": 51.50620180431136, "lng": -0.11713450543265935}], "distance": 283, "postalCode": "SE1 8XX", "cc": "GB", "neighborhood": "London", "city": "London", "state": "Greater London", "country": "United Kingdom", "formattedAddress": ["Unit 3 Festival Riverside, Royal Festival Hall, Southbank Centre (Southbank Centre)", "London", "Greater London", "SE1 8XX", "United Kingdom"]}, "categories": [{"id": "4bf58dd8d48988d1d2941735", "name": "Sushi Restaurant", "pluralName": "Sushi Restaurants", "shortName": "Sushi", "icon": {"prefix": "https://ss3.4sqi.net/img/categories_v2/food/sushi_", "suffix": ".png"}, "primary": true}], "photos": {"count": 0, "groups": []}}, "referralId": "e-0-4c63b33b58810f470c5b0a1e-51"}, {"reasons": {"count": 0, "items": [{"summary": "This spot is popular", "type": "general", "reasonName": "globalInteractionReason"}]}, "venue": {"id": "5ce5add3121384002cb4e296", "name": "Applebee\u2019s Fish", "location": {"lat": 51.505699, "lng": -0.118027, "labeledLatLngs": [{"label": "display", "lat": 51.505699, "lng": -0.118027}], "distance": 313, "postalCode": "SE1 8XZ", "cc": "GB", "city": "London", "state": "Greater London", "country": "United Kingdom", "formattedAddress": ["London", "Greater London", "SE1 8XZ", "United Kingdom"]}, "categories": [{"id": "4edd64a0c7ddd24ca188df1a", "name": "Fish & Chips Shop", "pluralName": "Fish & Chips Shops", "shortName": "Fish & Chips", "icon": {"prefix": "https://ss3.4sqi.net/img/categories_v2/food/fishandchips_", "suffix": ".png"}, "primary": true}], "photos": {"count": 0, "groups": []}}, "referralId": "e-0-5ce5add3121384002cb4e296-52"}, {"reasons": {"count": 0, "items": [{"summary": "This spot is popular", "type": "general", "reasonName": "globalInteractionReason"}]}, "venue": {"id": "5a070143b9ac380e56883318", "name": "Jimmy\u2019s Lodge", "location": {"lat": 51.507186, "lng": -0.11605, "labeledLatLngs": [{"label": "display", "lat": 51.507186, "lng": -0.11605}], "distance": 313, "postalCode": "SE1 9PX", "cc": "GB", "city": "London", "state": "Greater London", "country": "United Kingdom", "formattedAddress": ["London", "Greater London", "SE1 9PX", "United Kingdom"]}, "categories": [{"id": "4bf58dd8d48988d1c4941735", "name": "Restaurant", "pluralName": "Restaurants", "shortName": "Restaurant", "icon": {"prefix": "https://ss3.4sqi.net/img/categories_v2/food/default_", "suffix": ".png"}, "primary": true}], "photos": {"count": 0, "groups": []}}, "referralId": "e-0-5a070143b9ac380e56883318-53"}, {"reasons": {"count": 0, "items": [{"summary": "This spot is popular", "type": "general", "reasonName": "globalInteractionReason"}]}, "venue": {"id": "5cd47f2201bc5a002c51ddec", "name": "Truffle Burgers", "location": {"lat": 51.505558, "lng": -0.11814058, "labeledLatLngs": [{"label": "display", "lat": 51.505558, "lng": -0.11814058}], "distance": 315, "postalCode": "SE1 8XX", "cc": "GB", "neighborhood": "London", "country": "United Kingdom", "formattedAddress": ["SE1 8XX", "United Kingdom"]}, "categories": [{"id": "4bf58dd8d48988d16c941735", "name": "Burger Joint", "pluralName": "Burger Joints", "shortName": "Burgers", "icon": {"prefix": "https://ss3.4sqi.net/img/categories_v2/food/burger_", "suffix": ".png"}, "primary": true}], "photos": {"count": 0, "groups": []}}, "referralId": "e-0-5cd47f2201bc5a002c51ddec-54"}, {"reasons": {"count": 0, "items": [{"summary": "This spot is popular", "type": "general", "reasonName": "globalInteractionReason"}]}, "venue": {"id": "5943d372ea1e442b832822af", "name": "Oh My Dog!", "location": {"lat": 51.505398, "lng": -0.118557, "labeledLatLngs": [{"label": "display", "lat": 51.505398, "lng": -0.118557}], "distance": 339, "postalCode": "SE1 8XX", "cc": "GB", "city": "London", "state": "Greater London", "country": "United Kingdom", "formattedAddress": ["London", "Greater London", "SE1 8XX", "United Kingdom"]}, "categories": [{"id": "4bf58dd8d48988d16f941735", "name": "Hot Dog Joint", "pluralName": "Hot Dog Joints", "shortName": "Hot Dogs", "icon": {"prefix": "https://ss3.4sqi.net/img/categories_v2/food/hotdog_", "suffix": ".png"}, "primary": true}], "photos": {"count": 0, "groups": []}}, "referralId": "e-0-5943d372ea1e442b832822af-55"}, {"reasons": {"count": 0, "items": [{"summary": "This spot is popular", "type": "general", "reasonName": "globalInteractionReason"}]}, "venue": {"id": "504494d4e4b0aa9bdce06d77", "name": "Bakery", "location": {"lat": 51.50493102271393, "lng": -0.10806697796376839, "labeledLatLngs": [{"label": "display", "lat": 51.50493102271393, "lng": -0.10806697796376839}], "distance": 395, "cc": "GB", "country": "United Kingdom", "formattedAddress": ["United Kingdom"]}, "categories": [{"id": "4bf58dd8d48988d16d941735", "name": "Caf\u00e9", "pluralName": "Caf\u00e9s", "shortName": "Caf\u00e9", "icon": {"prefix": "https://ss3.4sqi.net/img/categories_v2/food/cafe_", "suffix": ".png"}, "primary": true}], "photos": {"count": 0, "groups": []}}, "referralId": "e-0-504494d4e4b0aa9bdce06d77-56"}, {"reasons": {"count": 0, "items": [{"summary": "This spot is popular", "type": "general", "reasonName": "globalInteractionReason"}]}, "venue": {"id": "5cdef4efe55d8b002cbfa441", "name": "Fitology Kitchen", "location": {"address": "1/3 Gabriels Wharf", "crossStreet": "56 Upper Ground", "lat": 51.507467914246355, "lng": -0.11008501041942509, "labeledLatLngs": [{"label": "display", "lat": 51.507467914246355, "lng": -0.11008501041942509}], "distance": 395, "postalCode": "SE1 9PP", "cc": "GB", "city": "London", "state": "Greater London", "country": "United Kingdom", "formattedAddress": ["1/3 Gabriels Wharf (56 Upper Ground)", "London", "Greater London", "SE1 9PP", "United Kingdom"]}, "categories": [{"id": "4bf58dd8d48988d16d941735", "name": "Caf\u00e9", "pluralName": "Caf\u00e9s", "shortName": "Caf\u00e9", "icon": {"prefix": "https://ss3.4sqi.net/img/categories_v2/food/cafe_", "suffix": ".png"}, "primary": true}], "photos": {"count": 0, "groups": []}, "venuePage": {"id": "544644387"}}, "referralId": "e-0-5cdef4efe55d8b002cbfa441-57"}, {"reasons": {"count": 0, "items": [{"summary": "This spot is popular", "type": "general", "reasonName": "globalInteractionReason"}]}, "venue": {"id": "4c03d0d3f423a593adafd016", "name": "La Cucina Di Mamma", "location": {"address": "3J-3K Belvedere Rd", "lat": 51.50252222727663, "lng": -0.11781680612541412, "labeledLatLngs": [{"label": "display", "lat": 51.50252222727663, "lng": -0.11781680612541412}], "distance": 374, "postalCode": "SE1 7GQ", "cc": "GB", "city": "London", "state": "Greater London", "country": "United Kingdom", "formattedAddress": ["3J-3K Belvedere Rd", "London", "Greater London", "SE1 7GQ", "United Kingdom"]}, "categories": [{"id": "4bf58dd8d48988d110941735", "name": "Italian Restaurant", "pluralName": "Italian Restaurants", "shortName": "Italian", "icon": {"prefix": "https://ss3.4sqi.net/img/categories_v2/food/italian_", "suffix": ".png"}, "primary": true}], "photos": {"count": 0, "groups": []}}, "referralId": "e-0-4c03d0d3f423a593adafd016-58"}]}]}}