{"meta": {"code": 200, "requestId": "5feddb0fe73c1a674a0494be"}, "response": {"headerLocation": "Vauxhall", "headerFullLocation": "Vauxhall, London", "headerLocationGranularity": "neighborhood", "query": "travel", "totalResults": 4, "suggestedBounds": {"ne": {"lat": 51.485327003600005, "lng": -0.11843810828863136}, "sw": {"lat": 51.47812699639999, "lng": -0.12997789171136864}}, "groups": [{"type": "Recommended Places", "name": "recommended", "items": [{"reasons": {"count": 0, "items": [{"summary": "This spot is popular", "type": "general", "reasonName": "globalInteractionReason"}]}, "venue": {"id": "55a220ba498e1d7b3785e3a7", "name": "Holiday Inn Express London - Vauxhall Nine Elms", "location": {"address": "87 South Lambeth Rd", "lat": 51.48108536208466, "lng": -0.12430176493319323, "labeledLatLngs": [{"label": "display", "lat": 51.48108536208466, "lng": -0.12430176493319323}], "distance": 71, "postalCode": "SW8 1RN", "cc": "GB", "city": "London", "state": "Greater London", "country": "United Kingdom", "formattedAddress": ["87 South Lambeth Rd", "London", "Greater London", "SW8 1RN", "United Kingdom"]}, "categories": [{"id": "4bf58dd8d48988d1fa931735", "name": "Hotel", "pluralName": "Hotels", "shortName": "Hotel", "icon": {"prefix": "https://ss3.4sqi.net/img/categories_v2/travel/hotel_", "suffix": ".png"}, "primary": true}], "photos": {"count": 0, "groups": []}}, "referralId": "e-0-55a220ba498e1d7b3785e3a7-0"}, {"reasons": {"count": 0, "items": [{"summary": "This spot is popular", "type": "general", "reasonName": "globalInteractionReason"}]}, "venue": {"id": "59049d4135811b1afa01ad2e", "name": "Best Western Plus Vauxhall Hotel", "location": {"address": "152 Old South Lambeth Road", "lat": 51.48027574395754, "lng": -0.12364225831333897, "labeledLatLngs": [{"label": "display", "lat": 51.48027574395754, "lng": -0.12364225831333897}], "distance": 166, "postalCode": "SW8 1XX", "cc": "GB", "city": "City of London", "state": "Greater London", "country": "United Kingdom", "formattedAddress": ["152 Old South Lambeth Road", "City of London", "Greater London", "SW8 1XX", "United Kingdom"]}, "categories": [{"id": "4bf58dd8d48988d1fa931735", "name": "Hotel", "pluralName": "Hotels", "shortName": "Hotel", "icon": {"prefix": "https://ss3.4sqi.net/img/categories_v2/travel/hotel_", "suffix": ".png"}, "primary": true}], "photos": {"count": 0, "groups": []}}, "referralId": "e-0-59049d4135811b1afa01ad2e-1"}, {"reasons": {"count": 0, "items": [{"summary": "This spot is popular", "type": "general", "reasonName": "globalInteractionReason"}]}, "venue": {"id": "4ecf6c177ee5be8449f9db71", "name": "Bus Stop J", "location": {"lat": 51.48465422276966, "lng": -0.12489116845119577, "labeledLatLngs": [{"label": "display", "lat": 51.48465422276966, "lng": -0.12489116845119577}], "distance": 329, "cc": "GB", "country": "United Kingdom", "formattedAddress": ["United Kingdom"]}, "categories": [{"id": "52f2ab2ebcbc57f1066b8b4f", "name": "Bus Stop", "pluralName": "Bus Stops", "shortName": "Bus Stop", "icon": {"prefix": "https://ss3.4sqi.net/img/categories_v2/travel/busstation_", "suffix": ".png"}, "primary": true}], "photos": {"count": 0, "groups": []}}, "referralId": "e-0-4ecf6c177ee5be8449f9db71-2"}, {"reasons": {"count": 0, "items": [{"summary": "This spot is popular", "type": "general", "reasonName": "globalInteractionReason"}]}, "venue": {"id": "4e656a0eb61cd78089d64e24", "name": "Bus Stop G (77, 87, 196 & N87)", "location": {"lat": 51.48501797119744, "lng": -0.12504756396049688, "labeledLatLngs": [{"label": "display", "lat": 51.48501797119744, "lng": -0.12504756396049688}], "distance": 370, "cc": "GB", "country": "United Kingdom", "formattedAddress": ["United Kingdom"]}, "categories": [{"id": "52f2ab2ebcbc57f1066b8b4f", "name": "Bus Stop", "pluralName": "Bus Stops", "shortName": "Bus Stop", "icon": {"prefix": "https://ss3.4sqi.net/img/categories_v2/travel/busstation_", "suffix": ".png"}, "primary": true}], "photos": {"count": 0, "groups": []}}, "referralId": "e-0-4e656a0eb61cd78089d64e24-3"}]}]}}