{"meta": {"code": 200, "requestId": "5feddc2079763a1bc49a6587"}, "response": {"suggestedFilters": {"header": "Tap to show:", "filters": [{"name": "Open now", "key": "openNow"}]}, "headerLocation": "Hackney", "headerFullLocation": "Hackney, London", "headerLocationGranularity": "neighborhood", "query": "college education", "totalResults": 21, "suggestedBounds": {"ne": {"lat": 51.53481000360001, "lng": -0.06519383879580287}, "sw": {"lat": 51.527609996399995, "lng": -0.07674616120419714}}, "groups": [{"type": "Recommended Places", "name": "recommended", "items": [{"reasons": {"count": 0, "items": [{"summary": "This spot is popular", "type": "general", "reasonName": "globalInteractionReason"}]}, "venue": {"id": "4ac518f3f964a5209fae20e3", "name": "Columbia Road Flower Market", "location": {"address": "Columbia Rd", "lat": 51.529358148183654, "lng": -0.0695657730102539, "labeledLatLngs": [{"label": "display", "lat": 51.529358148183654, "lng": -0.0695657730102539}], "distance": 227, "postalCode": "E2 7RG", "cc": "GB", "city": "London", "state": "Greater London", "country": "United Kingdom", "formattedAddress": ["Columbia Rd", "Tower Hamlets", "Greater London", "E2 7RG", "United Kingdom"]}, "categories": [{"id": "50be8ee891d4fa8dcc7199a7", "name": "Market", "pluralName": "Markets", "shortName": "Market", "icon": {"prefix": "https://ss3.4sqi.net/img/categories_v2/shops/market_", "suffix": ".png"}, "primary": true}], "photos": {"count": 0, "groups": []}}, "referralId": "e-0-4ac518f3f964a5209fae20e3-0"}, {"reasons": {"count": 0, "items": [{"summary": "This spot is popular", "type": "general", "reasonName": "globalInteractionReason"}]}, "venue": {"id": "4bc0a1072a89ef3bdec9f088", "name": "Nelly Duff", "location": {"address": "156 Columbia Rd", "lat": 51.52971434419299, "lng": -0.06883672986448341, "labeledLatLngs": [{"label": "display", "lat": 51.52971434419299, "lng": -0.06883672986448341}], "distance": 222, "postalCode": "E2 7RG", "cc": "GB", "city": "London", "state": "Greater London", "country": "United Kingdom", "formattedAddress": ["156 Columbia Rd", "London", "Greater London", "E2 7RG", "United Kingdom"]}, "categories": [{"id": "52f2ab2ebcbc57f1066b8b28", "name": "Print Shop", "pluralName": "Print Shops", "shortName": "Print Shop", "icon": {"prefix": "https://ss3.4sqi.net/img/categories_v2/shops/default_", "suffix": ".png"}, "primary": true}], "photos": {"count": 0, "groups": []}}, "referralId": "e-0-4bc0a1072a89ef3bdec9f088-1"}, {"reasons": {"count": 0, "items": [{"summary": "This spot is popular", "type": "general", "reasonName": "globalInteractionReason"}]}, "venue": {"id": "50c339efe4b0794e99886873", "name": "Choosing Keeping", "location": {"address": "128 Columbia Rd", "lat": 51.52924199287803, "lng": -0.06966676854853995, "labeledLatLngs": [{"label": "display", "lat": 51.52924199287803, "lng": -0.06966676854853995}], "distance": 236, "postalCode": "E2 7RG", "cc": "GB", "city": "London", "state": "Greater London", "country": "United Kingdom", "formattedAddress": ["128 Columbia Rd", "London", "Greater London", "E2 7RG", "United Kingdom"]}, "categories": [{"id": "4bf58dd8d48988d121951735", "name": "Paper / Office Supplies Store", "pluralName": "Paper / Office Supplies Stores", "shortName": "Office Supplies", "icon": {"prefix": "https://ss3.4sqi.net/img/categories_v2/shops/papergoods_", "suffix": ".png"}, "primary": true}], "photos": {"count": 0, "groups": []}}, "referralId": "e-0-50c339efe4b0794e99886873-2"}, {"reasons": {"count": 0, "items": [{"summary": "This spot is popular", "type": "general", "reasonName": "globalInteractionReason"}]}, "venue": {"id": "5aabd608f62f2b3ee9b81670", "name": "CRAFTNDRAFT", "location": {"address": "289 Hackney Road", "crossStreet": "Haggerston Park", "lat": 51.53113020785723, "lng": -0.0675782561302185, "labeledLatLngs": [{"label": "display", "lat": 51.53113020785723, "lng": -0.0675782561302185}], "distance": 235, "postalCode": "E2 8NA", "cc": "GB", "city": "London", "state": "Greater London", "country": "United Kingdom", "formattedAddress": ["289 Hackney Road (Haggerston Park)", "London", "Greater London", "E2 8NA", "United Kingdom"]}, "categories": [{"id": "5370f356bcbc57f1066c94c2", "name": "Beer Store", "pluralName": "Beer Stores", "shortName": "Beer Store", "icon": {"prefix": "https://ss3.4sqi.net/img/categories_v2/nightlife/beergarden_", "suffix": ".png"}, "primary": true}], "photos": {"count": 0, "groups": []}, "venuePage": {"id": "505084098"}}, "referralId": "e-0-5aabd608f62f2b3ee9b81670-3"}, {"reasons": {"count": 0, "items": [{"summary": "This spot is popular", "type": "general", "reasonName": "globalInteractionReason"}]}, "venue": {"id": "53663ded498eed6f1a1f4ab0", "name": "Grace & Thorn Flowers", "location": {"address": "338 Hackney Rd", "lat": 51.53125556643464, "lng": -0.06615999874493741, "labeledLatLngs": [{"label": "display", "lat": 51.53125556643464, "lng": -0.06615999874493741}], "distance": 333, "postalCode": "E2 7AX", "cc": "GB", "city": "London", "state": "Greater London", "country": "United Kingdom", "formattedAddress": ["338 Hackney Rd", "London", "Greater London", "E2 7AX", "United Kingdom"]}, "categories": [{"id": "4bf58dd8d48988d11b951735", "name": "Flower Shop", "pluralName": "Flower Shops", "shortName": "Flower Shop", "icon": {"prefix": "https://ss3.4sqi.net/img/categories_v2/shops/flowershop_", "suffix": ".png"}, "primary": true}], "photos": {"count": 0, "groups": []}}, "referralId": "e-0-53663ded498eed6f1a1f4ab0-4"}, {"reasons": {"count": 0, "items": [{"summary": "This spot is popular", "type": "general", "reasonName": "globalInteractionReason"}]}, "venue": {"id": "52f7635411d2d0dc019dda2c", "name": "Captured by", "location": {"lat": 51.530044, "lng": -0.068583, "labeledLatLngs": [{"label": "display", "lat": 51.530044, "lng": -0.068583}], "distance": 210, "cc": "GB", "country": "United Kingdom", "formattedAddress": ["United Kingdom"]}, "categories": [{"id": "4bf58dd8d48988d127951735", "name": "Arts & Crafts Store", "pluralName": "Arts & Crafts Stores", "shortName": "Arts & Crafts", "icon": {"prefix": "https://ss3.4sqi.net/img/categories_v2/shops/artstore_", "suffix": ".png"}, "primary": true}], "photos": {"count": 0, "groups": []}}, "referralId": "e-0-52f7635411d2d0dc019dda2c-5"}, {"reasons": {"count": 0, "items": [{"summary": "This spot is popular", "type": "general", "reasonName": "globalInteractionReason"}]}, "venue": {"id": "5351621a498ef7c69716aa24", "name": "Sainsbury's Local", "location": {"address": "Sainsbury's Crayford", "crossStreet": "Allgood St", "lat": 51.5308027, "lng": -0.0700862, "labeledLatLngs": [{"label": "display", "lat": 51.5308027, "lng": -0.0700862}], "distance": 76, "postalCode": "E2 7SJ", "cc": "GB", "city": "London", "state": "Greater London", "country": "United Kingdom", "formattedAddress": ["Sainsbury's Crayford (Allgood St)", "London", "Greater London", "E2 7SJ", "United Kingdom"]}, "categories": [{"id": "4bf58dd8d48988d118951735", "name": "Grocery Store", "pluralName": "Grocery Stores", "shortName": "Grocery Store", "icon": {"prefix": "https://ss3.4sqi.net/img/categories_v2/shops/food_grocery_", "suffix": ".png"}, "primary": true}], "photos": {"count": 0, "groups": []}}, "referralId": "e-0-5351621a498ef7c69716aa24-6"}, {"reasons": {"count": 0, "items": [{"summary": "This spot is popular", "type": "general", "reasonName": "globalInteractionReason"}]}, "venue": {"id": "517d0a8c498ef6c9eab43b0b", "name": "Co-op Food", "location": {"address": "246-252 Hackney Rd", "lat": 51.53102745724891, "lng": -0.069870827640064, "labeledLatLngs": [{"label": "display", "lat": 51.53102745724891, "lng": -0.069870827640064}], "distance": 78, "postalCode": "E2 7SJ", "cc": "GB", "city": "Tower Hamlets", "state": "Greater London", "country": "United Kingdom", "formattedAddress": ["246-252 Hackney Rd", "Tower Hamlets", "Greater London", "E2 7SJ", "United Kingdom"]}, "categories": [{"id": "4bf58dd8d48988d118951735", "name": "Grocery Store", "pluralName": "Grocery Stores", "shortName": "Grocery Store", "icon": {"prefix": "https://ss3.4sqi.net/img/categories_v2/shops/food_grocery_", "suffix": ".png"}, "primary": true}], "photos": {"count": 0, "groups": []}}, "referralId": "e-0-517d0a8c498ef6c9eab43b0b-7"}, {"reasons": {"count": 0, "items": [{"summary": "This spot is popular", "type": "general", "reasonName": "globalInteractionReason"}]}, "venue": {"id": "5ab223952db4a90706b25b71", "name": "One Louder Recording Studios", "location": {"address": "188A Hackney Rd", "lat": 51.53068589999999, "lng": -0.0722077000000354, "labeledLatLngs": [{"label": "display", "lat": 51.53068589999999, "lng": -0.0722077000000354}], "distance": 103, "postalCode": "E2 7QL", "cc": "GB", "city": "London", "state": "Greater London", "country": "United Kingdom", "formattedAddress": ["188A Hackney Rd", "London", "Greater London", "E2 7QL", "United Kingdom"]}, "categories": [{"id": "52f2ab2ebcbc57f1066b8b37", "name": "Recording Studio", "pluralName": "Recording Studios", "shortName": "Recording Studio", "icon": {"prefix": "https://ss3.4sqi.net/img/categories_v2/building/school_music_", "suffix": ".png"}, "primary": true}], "photos": {"count": 0, "groups": []}, "venuePage": {"id": "485293434"}}, "referralId": "e-0-5ab223952db4a90706b25b71-8"}, {"reasons": {"count": 0, "items": [{"summary": "This spot is popular", "type": "general", "reasonName": "globalInteractionReason"}]}, "venue": {"id": "56548157498e6e86f78c599f", "name": "Chef", "location": {"address": "17 Scawfell Street", "lat": 51.53170660000001, "lng": -0.07077219999996487, "labeledLatLngs": [{"label": "display", "lat": 51.53170660000001, "lng": -0.07077219999996487}], "distance": 56, "postalCode": "E2 8NG", "cc": "GB", "city": "London", "state": "Greater London", "country": "United Kingdom", "formattedAddress": ["17 Scawfell Street", "London", "Greater London", "E2 8NG", "United Kingdom"]}, "categories": [{"id": "4bf58dd8d48988d119951735", "name": "Wine Shop", "pluralName": "Wine Shops", "shortName": "Wine Shop", "icon": {"prefix": "https://ss3.4sqi.net/img/categories_v2/shops/food_wineshop_", "suffix": ".png"}, "primary": true}], "photos": {"count": 0, "groups": []}, "venuePage": {"id": "147190501"}}, "referralId": "e-0-56548157498e6e86f78c599f-9"}, {"reasons": {"count": 0, "items": [{"summary": "This spot is popular", "type": "general", "reasonName": "globalInteractionReason"}]}, "venue": {"id": "4ccfd2e6de0f6dcb4a706663", "name": "Groom Dog City", "location": {"address": "7-17 Ravenscroft St", "lat": 51.53062629878491, "lng": -0.07112217612990641, "labeledLatLngs": [{"label": "display", "lat": 51.53062629878491, "lng": -0.07112217612990641}], "distance": 65, "postalCode": "E 2 7", "cc": "GB", "city": "Poplar", "state": "Greater London", "country": "United Kingdom", "formattedAddress": ["7-17 Ravenscroft St", "Poplar", "Greater London", "E 2 7", "United Kingdom"]}, "categories": [{"id": "4bf58dd8d48988d100951735", "name": "Pet Store", "pluralName": "Pet Stores", "shortName": "Pet Store", "icon": {"prefix": "https://ss3.4sqi.net/img/categories_v2/shops/pet_store_", "suffix": ".png"}, "primary": true}], "photos": {"count": 0, "groups": []}}, "referralId": "e-0-4ccfd2e6de0f6dcb4a706663-10"}, {"reasons": {"count": 0, "items": [{"summary": "This spot is popular", "type": "general", "reasonName": "globalInteractionReason"}]}, "venue": {"id": "4c4ca23bf5afa5935aa049d6", "name": "Costcutter", "location": {"lat": 51.53109976776235, "lng": -0.06988961494411855, "labeledLatLngs": [{"label": "display", "lat": 51.53109976776235, "lng": -0.06988961494411855}], "distance": 75, "cc": "GB", "country": "United Kingdom", "formattedAddress": ["United Kingdom"]}, "categories": [{"id": "4d954b0ea243a5684a65b473", "name": "Convenience Store", "pluralName": "Convenience Stores", "shortName": "Convenience Store", "icon": {"prefix": "https://ss3.4sqi.net/img/categories_v2/shops/conveniencestore_", "suffix": ".png"}, "primary": true}], "photos": {"count": 0, "groups": []}}, "referralId": "e-0-4c4ca23bf5afa5935aa049d6-11"}, {"reasons": {"count": 0, "items": [{"summary": "This spot is popular", "type": "general", "reasonName": "globalInteractionReason"}]}, "venue": {"id": "58a04ccbd0bb3e25a8c7faf8", "name": "peponita", "location": {"lat": 51.529854, "lng": -0.06867, "labeledLatLngs": [{"label": "display", "lat": 51.529854, "lng": -0.06867}], "distance": 219, "cc": "GB", "country": "United Kingdom", "formattedAddress": ["United Kingdom"]}, "categories": [{"id": "52f2ab2ebcbc57f1066b8b39", "name": "Shoe Repair", "pluralName": "Shoe Repair Shops", "shortName": "Shoe Repair", "icon": {"prefix": "https://ss3.4sqi.net/img/categories_v2/shops/apparel_shoestore_", "suffix": ".png"}, "primary": true}], "photos": {"count": 0, "groups": []}}, "referralId": "e-0-58a04ccbd0bb3e25a8c7faf8-12"}, {"reasons": {"count": 0, "items": [{"summary": "This spot is popular", "type": "general", "reasonName": "globalInteractionReason"}]}, "venue": {"id": "4c260014b012b713b0cb0893", "name": "Ryantown", "location": {"address": "126 Columbia Road", "lat": 51.529216, "lng": -0.069901, "labeledLatLngs": [{"label": "display", "lat": 51.529216, "lng": -0.069901}], "distance": 233, "postalCode": "E2 7RG", "cc": "GB", "city": "London", "state": "Greater London", "country": "United Kingdom", "formattedAddress": ["126 Columbia Road", "London", "Greater London", "E2 7RG", "United Kingdom"]}, "categories": [{"id": "4bf58dd8d48988d127951735", "name": "Arts & Crafts Store", "pluralName": "Arts & Crafts Stores", "shortName": "Arts & Crafts", "icon": {"prefix": "https://ss3.4sqi.net/img/categories_v2/shops/artstore_", "suffix": ".png"}, "primary": true}], "photos": {"count": 0, "groups": []}}, "referralId": "e-0-4c260014b012b713b0cb0893-13"}, {"reasons": {"count": 0, "items": [{"summary": "This spot is popular", "type": "general", "reasonName": "globalInteractionReason"}]}, "venue": {"id": "5778e916498ec87e80eab08b", "name": "N\u00f4m Living", "location": {"address": "102 Columbia Road", "lat": 51.52861, "lng": -0.07069733, "labeledLatLngs": [{"label": "display", "lat": 51.52861, "lng": -0.07069733}], "distance": 290, "postalCode": "E2 7QB", "cc": "GB", "city": "London", "state": "Greater London", "country": "United Kingdom", "formattedAddress": ["102 Columbia Road", "London", "Greater London", "E2 7QB", "United Kingdom"]}, "categories": [{"id": "4bf58dd8d48988d1f8941735", "name": "Furniture / Home Store", "pluralName": "Furniture / Home Stores", "shortName": "Furniture / Home", "icon": {"prefix": "https://ss3.4sqi.net/img/categories_v2/shops/furniture_", "suffix": ".png"}, "primary": true}], "photos": {"count": 0, "groups": []}}, "referralId": "e-0-5778e916498ec87e80eab08b-14"}, {"reasons": {"count": 0, "items": [{"summary": "This spot is popular", "type": "general", "reasonName": "globalInteractionReason"}]}, "venue": {"id": "4c3a070993db0f4716632492", "name": "Tesco Express", "location": {"address": "79-85 Hackney Rd, Hackney", "lat": 51.529261204854215, "lng": -0.07534204059993499, "labeledLatLngs": [{"label": "display", "lat": 51.529261204854215, "lng": -0.07534204059993499}], "distance": 372, "postalCode": "E2 7QU", "cc": "GB", "city": "London", "state": "Greater London", "country": "United Kingdom", "formattedAddress": ["79-85 Hackney Rd, Hackney", "London", "Greater London", "E2 7QU", "United Kingdom"]}, "categories": [{"id": "4bf58dd8d48988d118951735", "name": "Grocery Store", "pluralName": "Grocery Stores", "shortName": "Grocery Store", "icon": {"prefix": "https://ss3.4sqi.net/img/categories_v2/shops/food_grocery_", "suffix": ".png"}, "primary": true}], "photos": {"count": 0, "groups": []}}, "referralId": "e-0-4c3a070993db0f4716632492-15"}, {"reasons": {"count": 0, "items": [{"summary": "This spot is popular", "type": "general", "reasonName": "globalInteractionReason"}]}, "venue": {"id": "57f84c62498e09f46be89dc3", "name": "Malcolm & Co LLP", "location": {"address": "4 Warner Place", "lat": 51.53101220000001, "lng": -0.06597879999999999, "labeledLatLngs": [{"label": "display", "lat": 51.53101220000001, "lng": -0.06597879999999999}], "distance": 346, "postalCode": "E2 7DA", "cc": "GB", "city": "London", "state": "Greater London", "country": "United Kingdom", "formattedAddress": ["4 Warner Place", "London", "Greater London", "E2 7DA", "United Kingdom"]}, "categories": [{"id": "52f2ab2ebcbc57f1066b8b3f", "name": "Lawyer", "pluralName": "Lawyers", "shortName": "Lawyer", "icon": {"prefix": "https://ss3.4sqi.net/img/categories_v2/education/lawschool_", "suffix": ".png"}, "primary": true}], "photos": {"count": 0, "groups": []}}, "referralId": "e-0-57f84c62498e09f46be89dc3-16"}, {"reasons": {"count": 0, "items": [{"summary": "This spot is popular", "type": "general", "reasonName": "globalInteractionReason"}]}, "venue": {"id": "52064c11498eaeea944044af", "name": "A Portuguese Love Affair", "location": {"address": "142 Columbia Rd", "lat": 51.52949905395508, "lng": -0.06939010322093964, "labeledLatLngs": [{"label": "display", "lat": 51.52949905395508, "lng": -0.06939010322093964}], "distance": 219, "postalCode": "E2 7RG", "cc": "GB", "city": "London", "state": "Greater London", "country": "United Kingdom", "formattedAddress": ["142 Columbia Rd", "London", "Greater London", "E2 7RG", "United Kingdom"]}, "categories": [{"id": "4bf58dd8d48988d1f8941735", "name": "Furniture / Home Store", "pluralName": "Furniture / Home Stores", "shortName": "Furniture / Home", "icon": {"prefix": "https://ss3.4sqi.net/img/categories_v2/shops/furniture_", "suffix": ".png"}, "primary": true}], "photos": {"count": 0, "groups": []}}, "referralId": "e-0-52064c11498eaeea944044af-17"}, {"reasons": {"count": 0, "items": [{"summary": "This spot is popular", "type": "general", "reasonName": "globalInteractionReason"}]}, "venue": {"id": "5a81a04aa4ba7c144bd59b56", "name": "Mosaic del Sur", "location": {"address": "106 Columbia Road", "lat": 51.52882042622885, "lng": -0.07012803107500076, "labeledLatLngs": [{"label": "display", "lat": 51.52882042622885, "lng": -0.07012803107500076}], "distance": 272, "postalCode": "E2 7RG", "cc": "GB", "city": "London", "state": "Greater London", "country": "United Kingdom", "formattedAddress": ["106 Columbia Road", "London", "Greater London", "E2 7RG", "United Kingdom"]}, "categories": [{"id": "5454144b498ec1f095bff2f2", "name": "Construction & Landscaping", "pluralName": "Construction & Landscaping", "shortName": "Construction", "icon": {"prefix": "https://ss3.4sqi.net/img/categories_v2/shops/realestate_", "suffix": ".png"}, "primary": true}], "photos": {"count": 0, "groups": []}, "venuePage": {"id": "479365704"}}, "referralId": "e-0-5a81a04aa4ba7c144bd59b56-18"}, {"reasons": {"count": 0, "items": [{"summary": "This spot is popular", "type": "general", "reasonName": "globalInteractionReason"}]}, "venue": {"id": "5662f415498e5dafb806ccd2", "name": "Cosmos Records London", "location": {"address": "324D Hackney Rd", "lat": 51.53110684782056, "lng": -0.06661534309387206, "labeledLatLngs": [{"label": "display", "lat": 51.53110684782056, "lng": -0.06661534309387206}], "distance": 301, "postalCode": "E2 7AX", "cc": "GB", "city": "London", "state": "Greater London", "country": "United Kingdom", "formattedAddress": ["324D Hackney Rd", "London", "Greater London", "E2 7AX", "United Kingdom"]}, "categories": [{"id": "4bf58dd8d48988d1fe941735", "name": "Music Store", "pluralName": "Music Stores", "shortName": "Music Store", "icon": {"prefix": "https://ss3.4sqi.net/img/categories_v2/shops/music_instruments_", "suffix": ".png"}, "primary": true}], "photos": {"count": 0, "groups": []}}, "referralId": "e-0-5662f415498e5dafb806ccd2-19"}, {"reasons": {"count": 0, "items": [{"summary": "This spot is popular", "type": "general", "reasonName": "globalInteractionReason"}]}, "venue": {"id": "4ac518f4f964a520feae20e3", "name": "Vintage Heaven", "location": {"address": "82 Columbia Road", "lat": 51.5284519, "lng": -0.0711411, "labeledLatLngs": [{"label": "display", "lat": 51.5284519, "lng": -0.0711411}], "distance": 307, "postalCode": "E2 7RG", "cc": "GB", "city": "London", "state": "Greater London", "country": "United Kingdom", "formattedAddress": ["82 Columbia Road", "London", "Greater London", "E2 7RG", "United Kingdom"]}, "categories": [{"id": "4bf58dd8d48988d101951735", "name": "Thrift / Vintage Store", "pluralName": "Thrift / Vintage Stores", "shortName": "Thrift / Vintage", "icon": {"prefix": "https://ss3.4sqi.net/img/categories_v2/shops/default_", "suffix": ".png"}, "primary": true}], "photos": {"count": 0, "groups": []}}, "referralId": "e-0-4ac518f4f964a520feae20e3-20"}]}]}}