{"meta": {"code": 200, "requestId": "5feddafde73c1a674a045757"}, "response": {"suggestedFilters": {"header": "Tap to show:", "filters": [{"name": "Open now", "key": "openNow"}]}, "headerLocation": "Clissold", "headerFullLocation": "Clissold, London", "headerLocationGranularity": "neighborhood", "query": "food", "totalResults": 17, "suggestedBounds": {"ne": {"lat": 51.555730003600004, "lng": -0.07534118283642362}, "sw": {"lat": 51.54852999639999, "lng": -0.08689881716357638}}, "groups": [{"type": "Recommended Places", "name": "recommended", "items": [{"reasons": {"count": 0, "items": [{"summary": "This spot is popular", "type": "general", "reasonName": "globalInteractionReason"}]}, "venue": {"id": "5ba39df6531593002c5198ca", "name": "Jolene", "location": {"address": "21 Newington Green", "lat": 51.55140024630812, "lng": -0.08480229009676096, "labeledLatLngs": [{"label": "display", "lat": 51.55140024630812, "lng": -0.08480229009676096}], "distance": 267, "postalCode": "N16 9PU", "cc": "GB", "city": "London", "state": "Greater London", "country": "United Kingdom", "formattedAddress": ["21 Newington Green", "London", "Greater London", "N16 9PU", "United Kingdom"]}, "categories": [{"id": "4bf58dd8d48988d16d941735", "name": "Caf\u00e9", "pluralName": "Caf\u00e9s", "shortName": "Caf\u00e9", "icon": {"prefix": "https://ss3.4sqi.net/img/categories_v2/food/cafe_", "suffix": ".png"}, "primary": true}], "photos": {"count": 0, "groups": []}}, "referralId": "e-0-5ba39df6531593002c5198ca-0"}, {"reasons": {"count": 0, "items": [{"summary": "This spot is popular", "type": "general", "reasonName": "globalInteractionReason"}]}, "venue": {"id": "5201f9bcccdaaeec2c36491b", "name": "Lizzy's on the Green", "location": {"address": "Newington Green", "lat": 51.55132934951993, "lng": -0.08544761749558659, "labeledLatLngs": [{"label": "display", "lat": 51.55132934951993, "lng": -0.08544761749558659}], "distance": 312, "postalCode": "N16 9PX", "cc": "GB", "city": "London", "state": "Greater London", "country": "United Kingdom", "formattedAddress": ["Newington Green", "London", "Greater London", "N16 9PX", "United Kingdom"]}, "categories": [{"id": "4bf58dd8d48988d16d941735", "name": "Caf\u00e9", "pluralName": "Caf\u00e9s", "shortName": "Caf\u00e9", "icon": {"prefix": "https://ss3.4sqi.net/img/categories_v2/food/cafe_", "suffix": ".png"}, "primary": true}], "photos": {"count": 0, "groups": []}}, "referralId": "e-0-5201f9bcccdaaeec2c36491b-1"}, {"reasons": {"count": 0, "items": [{"summary": "This spot is popular", "type": "general", "reasonName": "globalInteractionReason"}]}, "venue": {"id": "57dae5ac498e120a8ef82567", "name": "Perilla", "location": {"address": "1-3 Green Lanes", "lat": 51.552222, "lng": -0.085925, "labeledLatLngs": [{"label": "display", "lat": 51.552222, "lng": -0.085925}], "distance": 332, "postalCode": "N16 9BS", "cc": "GB", "neighborhood": "Clissold", "city": "London", "state": "Greater London", "country": "United Kingdom", "formattedAddress": ["1-3 Green Lanes", "London", "Greater London", "N16 9BS", "United Kingdom"]}, "categories": [{"id": "52e81612bcbc57f1066b79f9", "name": "Modern European Restaurant", "pluralName": "Modern European Restaurants", "shortName": "Modern European", "icon": {"prefix": "https://ss3.4sqi.net/img/categories_v2/food/default_", "suffix": ".png"}, "primary": true}], "photos": {"count": 0, "groups": []}}, "referralId": "e-0-57dae5ac498e120a8ef82567-2"}, {"reasons": {"count": 0, "items": [{"summary": "This spot is popular", "type": "general", "reasonName": "globalInteractionReason"}]}, "venue": {"id": "4e2869ab1f6e88a15461f4fd", "name": "Micky's Chippy", "location": {"address": "2 Pellerin Rd", "lat": 51.55148214354999, "lng": -0.07898607758175688, "labeledLatLngs": [{"label": "display", "lat": 51.55148214354999, "lng": -0.07898607758175688}], "distance": 164, "postalCode": "N16 8AT", "cc": "GB", "city": "Hackney", "state": "Greater London", "country": "United Kingdom", "formattedAddress": ["2 Pellerin Rd", "Hackney", "Greater London", "N16 8AT", "United Kingdom"]}, "categories": [{"id": "4edd64a0c7ddd24ca188df1a", "name": "Fish & Chips Shop", "pluralName": "Fish & Chips Shops", "shortName": "Fish & Chips", "icon": {"prefix": "https://ss3.4sqi.net/img/categories_v2/food/fishandchips_", "suffix": ".png"}, "primary": true}], "photos": {"count": 0, "groups": []}}, "referralId": "e-0-4e2869ab1f6e88a15461f4fd-3"}, {"reasons": {"count": 0, "items": [{"summary": "This spot is popular", "type": "general", "reasonName": "globalInteractionReason"}]}, "venue": {"id": "4e39a9a645dd9ef03f194272", "name": "Trangallan", "location": {"address": "62 Newington Green", "lat": 51.551155, "lng": -0.086294, "labeledLatLngs": [{"label": "display", "lat": 51.551155, "lng": -0.086294}], "distance": 374, "postalCode": "N16 9PX", "cc": "GB", "city": "Islington", "state": "Greater London", "country": "United Kingdom", "formattedAddress": ["62 Newington Green", "Islington", "Greater London", "N16 9PX", "United Kingdom"]}, "categories": [{"id": "4bf58dd8d48988d150941735", "name": "Spanish Restaurant", "pluralName": "Spanish Restaurants", "shortName": "Spanish", "icon": {"prefix": "https://ss3.4sqi.net/img/categories_v2/food/spanish_", "suffix": ".png"}, "primary": true}], "photos": {"count": 0, "groups": []}}, "referralId": "e-0-4e39a9a645dd9ef03f194272-4"}, {"reasons": {"count": 0, "items": [{"summary": "This spot is popular", "type": "general", "reasonName": "globalInteractionReason"}]}, "venue": {"id": "5047db2fe4b00788435a35c5", "name": "Yeni 01 Adana", "location": {"address": "25-27 Green Lanes", "lat": 51.55263347944796, "lng": -0.08684070211331703, "labeledLatLngs": [{"label": "display", "lat": 51.55263347944796, "lng": -0.08684070211331703}], "distance": 399, "postalCode": "N16 9BS", "cc": "GB", "city": "Stoke Newington", "state": "Greater London", "country": "United Kingdom", "formattedAddress": ["25-27 Green Lanes", "Stoke Newington", "Greater London", "N16 9BS", "United Kingdom"]}, "categories": [{"id": "4f04af1f2fb6e1c99f3db0bb", "name": "Turkish Restaurant", "pluralName": "Turkish Restaurants", "shortName": "Turkish", "icon": {"prefix": "https://ss3.4sqi.net/img/categories_v2/food/turkish_", "suffix": ".png"}, "primary": true}], "photos": {"count": 0, "groups": []}}, "referralId": "e-0-5047db2fe4b00788435a35c5-5"}, {"reasons": {"count": 0, "items": [{"summary": "This spot is popular", "type": "general", "reasonName": "globalInteractionReason"}]}, "venue": {"id": "4aed78f2f964a520a7cd21e3", "name": "Belle Epoque Patisserie", "location": {"address": "37 Newington Green", "lat": 51.552106, "lng": -0.084797, "labeledLatLngs": [{"label": "display", "lat": 51.552106, "lng": -0.084797}], "distance": 254, "postalCode": "N16 9PR", "cc": "GB", "city": "Islington", "state": "Greater London", "country": "United Kingdom", "formattedAddress": ["37 Newington Green", "Islington", "Greater London", "N16 9PR", "United Kingdom"]}, "categories": [{"id": "4bf58dd8d48988d16a941735", "name": "Bakery", "pluralName": "Bakeries", "shortName": "Bakery", "icon": {"prefix": "https://ss3.4sqi.net/img/categories_v2/food/bakery_", "suffix": ".png"}, "primary": true}], "photos": {"count": 0, "groups": []}}, "referralId": "e-0-4aed78f2f964a520a7cd21e3-6"}, {"reasons": {"count": 0, "items": [{"summary": "This spot is popular", "type": "general", "reasonName": "globalInteractionReason"}]}, "venue": {"id": "599ab5361c675b3723ae63b7", "name": "Luminary Bakery", "location": {"address": "Allen Road", "lat": 51.555528, "lng": -0.08243, "labeledLatLngs": [{"label": "display", "lat": 51.555528, "lng": -0.08243}], "distance": 388, "postalCode": "N16 8RY", "cc": "GB", "city": "London", "state": "Greater London", "country": "United Kingdom", "formattedAddress": ["Allen Road", "London", "Greater London", "N16 8RY", "United Kingdom"]}, "categories": [{"id": "4bf58dd8d48988d16a941735", "name": "Bakery", "pluralName": "Bakeries", "shortName": "Bakery", "icon": {"prefix": "https://ss3.4sqi.net/img/categories_v2/food/bakery_", "suffix": ".png"}, "primary": true}], "photos": {"count": 0, "groups": []}}, "referralId": "e-0-599ab5361c675b3723ae63b7-7"}, {"reasons": {"count": 0, "items": [{"summary": "This spot is popular", "type": "general", "reasonName": "globalInteractionReason"}]}, "venue": {"id": "562534d3498ea4597eb22de9", "name": "Yield N16", "location": {"address": "44-45 Newington Green", "crossStreet": "Alliance House", "lat": 51.55190260719192, "lng": -0.08573966970517584, "labeledLatLngs": [{"label": "display", "lat": 51.55190260719192, "lng": -0.08573966970517584}], "distance": 320, "postalCode": "N16 9PX", "cc": "GB", "city": "London", "state": "Greater London", "country": "United Kingdom", "formattedAddress": ["44-45 Newington Green (Alliance House)", "London", "Greater London", "N16 9PX", "United Kingdom"]}, "categories": [{"id": "4bf58dd8d48988d146941735", "name": "Deli / Bodega", "pluralName": "Delis / Bodegas", "shortName": "Deli / Bodega", "icon": {"prefix": "https://ss3.4sqi.net/img/categories_v2/food/deli_", "suffix": ".png"}, "primary": true}], "photos": {"count": 0, "groups": []}}, "referralId": "e-0-562534d3498ea4597eb22de9-8"}, {"reasons": {"count": 0, "items": [{"summary": "This spot is popular", "type": "general", "reasonName": "globalInteractionReason"}]}, "venue": {"id": "4d70a9d3b246a093f8bb215f", "name": "Bodega 50", "location": {"address": "50 Allen Rd", "crossStreet": "Shakspeare Walk", "lat": 51.55527, "lng": -0.08183889, "labeledLatLngs": [{"label": "display", "lat": 51.55527, "lng": -0.08183889}], "distance": 353, "postalCode": "N16 8RZ", "cc": "GB", "neighborhood": "Clissold", "city": "London", "state": "Greater London", "country": "United Kingdom", "formattedAddress": ["50 Allen Rd (Shakspeare Walk)", "London", "Greater London", "N16 8RZ", "United Kingdom"]}, "categories": [{"id": "4bf58dd8d48988d16d941735", "name": "Caf\u00e9", "pluralName": "Caf\u00e9s", "shortName": "Caf\u00e9", "icon": {"prefix": "https://ss3.4sqi.net/img/categories_v2/food/cafe_", "suffix": ".png"}, "primary": true}], "photos": {"count": 0, "groups": []}}, "referralId": "e-0-4d70a9d3b246a093f8bb215f-9"}, {"reasons": {"count": 0, "items": [{"summary": "This spot is popular", "type": "general", "reasonName": "globalInteractionReason"}]}, "venue": {"id": "4ad20583f964a520e2de20e3", "name": "Trattoria Sapori", "location": {"address": "44-45 Newington Green", "lat": 51.55197748106207, "lng": -0.0856584937721393, "labeledLatLngs": [{"label": "display", "lat": 51.55197748106207, "lng": -0.0856584937721393}], "distance": 314, "postalCode": "N16 9HQ", "cc": "GB", "city": "Dalston", "state": "Greater London", "country": "United Kingdom", "formattedAddress": ["44-45 Newington Green", "Dalston", "Greater London", "N16 9HQ", "United Kingdom"]}, "categories": [{"id": "4bf58dd8d48988d1ca941735", "name": "Pizza Place", "pluralName": "Pizza Places", "shortName": "Pizza", "icon": {"prefix": "https://ss3.4sqi.net/img/categories_v2/food/pizza_", "suffix": ".png"}, "primary": true}], "photos": {"count": 0, "groups": []}}, "referralId": "e-0-4ad20583f964a520e2de20e3-10"}, {"reasons": {"count": 0, "items": [{"summary": "This spot is popular", "type": "general", "reasonName": "globalInteractionReason"}]}, "venue": {"id": "4b488675f964a520b54e26e3", "name": "Acoustic Caf\u00e9", "location": {"address": "60 Newington Green", "lat": 51.551091660793126, "lng": -0.08605266237875661, "labeledLatLngs": [{"label": "display", "lat": 51.551091660793126, "lng": -0.08605266237875661}], "distance": 360, "postalCode": "N16 9PX", "cc": "GB", "city": "Islington", "state": "Greater London", "country": "United Kingdom", "formattedAddress": ["60 Newington Green", "Islington", "Greater London", "N16 9PX", "United Kingdom"]}, "categories": [{"id": "4bf58dd8d48988d143941735", "name": "Breakfast Spot", "pluralName": "Breakfast Spots", "shortName": "Breakfast", "icon": {"prefix": "https://ss3.4sqi.net/img/categories_v2/food/breakfast_", "suffix": ".png"}, "primary": true}], "photos": {"count": 0, "groups": []}}, "referralId": "e-0-4b488675f964a520b54e26e3-11"}, {"reasons": {"count": 0, "items": [{"summary": "This spot is popular", "type": "general", "reasonName": "globalInteractionReason"}]}, "venue": {"id": "4c015167b0702d7f60056378", "name": "Paradise Fish Bar", "location": {"address": "141 Newington Green Rd", "lat": 51.551058374015135, "lng": -0.08607628141542517, "labeledLatLngs": [{"label": "display", "lat": 51.551058374015135, "lng": -0.08607628141542517}], "distance": 363, "postalCode": "N1 4RA", "cc": "GB", "city": "Islington", "state": "Greater London", "country": "United Kingdom", "formattedAddress": ["141 Newington Green Rd", "Islington", "Greater London", "N1 4RA", "United Kingdom"]}, "categories": [{"id": "4edd64a0c7ddd24ca188df1a", "name": "Fish & Chips Shop", "pluralName": "Fish & Chips Shops", "shortName": "Fish & Chips", "icon": {"prefix": "https://ss3.4sqi.net/img/categories_v2/food/fishandchips_", "suffix": ".png"}, "primary": true}], "photos": {"count": 0, "groups": []}}, "referralId": "e-0-4c015167b0702d7f60056378-12"}, {"reasons": {"count": 0, "items": [{"summary": "This spot is popular", "type": "general", "reasonName": "globalInteractionReason"}]}, "venue": {"id": "4b007913f964a520a13e22e3", "name": "Fifty Six", "location": {"address": "56 Newington Green", "lat": 51.55136, "lng": -0.085703, "labeledLatLngs": [{"label": "display", "lat": 51.55136, "lng": -0.085703}], "distance": 328, "postalCode": "N16 9PX", "cc": "GB", "city": "London", "state": "Greater London", "country": "United Kingdom", "formattedAddress": ["56 Newington Green", "London", "Greater London", "N16 9PX", "United Kingdom"]}, "categories": [{"id": "4bf58dd8d48988d1c4941735", "name": "Restaurant", "pluralName": "Restaurants", "shortName": "Restaurant", "icon": {"prefix": "https://ss3.4sqi.net/img/categories_v2/food/default_", "suffix": ".png"}, "primary": true}], "photos": {"count": 0, "groups": []}}, "referralId": "e-0-4b007913f964a520a13e22e3-13"}, {"reasons": {"count": 0, "items": [{"summary": "This spot is popular", "type": "general", "reasonName": "globalInteractionReason"}]}, "venue": {"id": "4f513a06e4b0ee60b7ab6a4e", "name": "Chicken Express", "location": {"address": "Newington Green", "lat": 51.55147622288475, "lng": -0.0855372203624548, "labeledLatLngs": [{"label": "display", "lat": 51.55147622288475, "lng": -0.0855372203624548}], "distance": 314, "cc": "GB", "city": "Islington", "state": "Greater London", "country": "United Kingdom", "formattedAddress": ["Newington Green", "Islington", "Greater London", "United Kingdom"]}, "categories": [{"id": "4d4ae6fc7a7b7dea34424761", "name": "Fried Chicken Joint", "pluralName": "Fried Chicken Joints", "shortName": "Fried Chicken", "icon": {"prefix": "https://ss3.4sqi.net/img/categories_v2/food/friedchicken_", "suffix": ".png"}, "primary": true}], "photos": {"count": 0, "groups": []}}, "referralId": "e-0-4f513a06e4b0ee60b7ab6a4e-14"}, {"reasons": {"count": 0, "items": [{"summary": "This spot is popular", "type": "general", "reasonName": "globalInteractionReason"}]}, "venue": {"id": "4bb664de941ad13a795b1fe3", "name": "Suruchi", "location": {"address": "82 mildmay park", "lat": 51.550332, "lng": -0.084659, "labeledLatLngs": [{"label": "display", "lat": 51.550332, "lng": -0.084659}], "distance": 316, "postalCode": "n1 4pr", "cc": "GB", "city": "London", "state": "Greater London", "country": "United Kingdom", "formattedAddress": ["82 mildmay park", "London", "Greater London", "n1 4pr", "United Kingdom"]}, "categories": [{"id": "4bf58dd8d48988d10f941735", "name": "Indian Restaurant", "pluralName": "Indian Restaurants", "shortName": "Indian", "icon": {"prefix": "https://ss3.4sqi.net/img/categories_v2/food/indian_", "suffix": ".png"}, "primary": true}], "photos": {"count": 0, "groups": []}}, "referralId": "e-0-4bb664de941ad13a795b1fe3-15"}, {"reasons": {"count": 0, "items": [{"summary": "This spot is popular", "type": "general", "reasonName": "globalInteractionReason"}]}, "venue": {"id": "4c86a247d92ea09347187072", "name": "La Barca", "location": {"address": "59 Allen Rd", "lat": 51.555384, "lng": -0.082063, "labeledLatLngs": [{"label": "display", "lat": 51.555384, "lng": -0.082063}], "distance": 368, "postalCode": "N16", "cc": "GB", "city": "Hackney", "state": "Greater London", "country": "United Kingdom", "formattedAddress": ["59 Allen Rd", "Hackney", "Greater London", " N16", "United Kingdom"]}, "categories": [{"id": "4bf58dd8d48988d1ca941735", "name": "Pizza Place", "pluralName": "Pizza Places", "shortName": "Pizza", "icon": {"prefix": "https://ss3.4sqi.net/img/categories_v2/food/pizza_", "suffix": ".png"}, "primary": true}], "photos": {"count": 0, "groups": []}}, "referralId": "e-0-4c86a247d92ea09347187072-16"}]}]}}