{"meta": {"code": 200, "requestId": "5feddae02742ec17723444cd"}, "response": {"warning": {"text": "There aren't a lot of results near you. Try something more general, reset your filters, or expand the search area."}, "headerLocation": "Shepherd's Bush", "headerFullLocation": "Shepherd's Bush, London", "headerLocationGranularity": "neighborhood", "query": "arts entertainment", "totalResults": 3, "suggestedBounds": {"ne": {"lat": 51.513586003600004, "lng": -0.2203655300705212}, "sw": {"lat": 51.50638599639999, "lng": -0.2319124699294788}}, "groups": [{"type": "Recommended Places", "name": "recommended", "items": [{"reasons": {"count": 0, "items": [{"summary": "This spot is popular", "type": "general", "reasonName": "globalInteractionReason"}]}, "venue": {"id": "5b34dbaede3bbf002c59896c", "name": "Puttshack", "location": {"address": "Westfield London", "crossStreet": "Ariel Way", "lat": 51.50941832314256, "lng": -0.22316713512293246, "labeledLatLngs": [{"label": "display", "lat": 51.50941832314256, "lng": -0.22316713512293246}], "distance": 215, "postalCode": "W12 7HB", "cc": "GB", "city": "Shepherds Bush", "state": "Greater London", "country": "United Kingdom", "formattedAddress": ["Westfield London (Ariel Way)", "Shepherds Bush", "Greater London", "W12 7HB", "United Kingdom"]}, "categories": [{"id": "52e81612bcbc57f1066b79eb", "name": "Mini Golf", "pluralName": "Mini Golf Courses", "shortName": "Mini Golf", "icon": {"prefix": "https://ss3.4sqi.net/img/categories_v2/parks_outdoors/golfcourse_", "suffix": ".png"}, "primary": true}], "photos": {"count": 0, "groups": []}}, "referralId": "e-0-5b34dbaede3bbf002c59896c-0"}, {"reasons": {"count": 0, "items": [{"summary": "This spot is popular", "type": "general", "reasonName": "globalInteractionReason"}]}, "venue": {"id": "5d2df08f61bdc400233b4a40", "name": "Troubadour White City Theatre", "location": {"address": "Wood Lane", "crossStreet": "South Africa Road", "lat": 51.512809, "lng": -0.226364, "labeledLatLngs": [{"label": "display", "lat": 51.512809, "lng": -0.226364}], "distance": 314, "postalCode": "W12", "cc": "GB", "city": "London", "state": "Greater London", "country": "United Kingdom", "formattedAddress": ["Wood Lane (South Africa Road)", "London", "Greater London", "W12", "United Kingdom"]}, "categories": [{"id": "4bf58dd8d48988d137941735", "name": "Theater", "pluralName": "Theaters", "shortName": "Theater", "icon": {"prefix": "https://ss3.4sqi.net/img/categories_v2/arts_entertainment/performingarts_theater_", "suffix": ".png"}, "primary": true}], "photos": {"count": 0, "groups": []}}, "referralId": "e-0-5d2df08f61bdc400233b4a40-1"}, {"reasons": {"count": 0, "items": [{"summary": "This spot is popular", "type": "general", "reasonName": "globalInteractionReason"}]}, "venue": {"id": "4fd3259e7b0c4fe0be775b4e", "name": "Hayaam Bellydance", "location": {"address": "Westfield Gymbox", "crossStreet": "Ariel Way", "lat": 51.50776752224283, "lng": -0.2225804328918457, "labeledLatLngs": [{"label": "display", "lat": 51.50776752224283, "lng": -0.2225804328918457}], "distance": 348, "postalCode": "W12 7GF", "cc": "GB", "city": "City of Westminster", "state": "Greater London", "country": "United Kingdom", "formattedAddress": ["Westfield Gymbox (Ariel Way)", "City of Westminster", "Greater London", "W12 7GF", "United Kingdom"]}, "categories": [{"id": "4bf58dd8d48988d134941735", "name": "Dance Studio", "pluralName": "Dance Studios", "shortName": "Dance Studio", "icon": {"prefix": "https://ss3.4sqi.net/img/categories_v2/arts_entertainment/performingarts_dancestudio_", "suffix": ".png"}, "primary": true}], "photos": {"count": 0, "groups": []}}, "referralId": "e-0-4fd3259e7b0c4fe0be775b4e-2"}]}]}}