{"meta": {"code": 200, "requestId": "5feddcda9d303e30fe91ce7d"}, "response": {"suggestedFilters": {"header": "Tap to show:", "filters": [{"name": "Open now", "key": "openNow"}]}, "headerLocation": "Lambeth", "headerFullLocation": "Lambeth, London", "headerLocationGranularity": "neighborhood", "query": "travel", "totalResults": 17, "suggestedBounds": {"ne": {"lat": 51.49275000360001, "lng": -0.11699916893719667}, "sw": {"lat": 51.485549996399996, "lng": -0.12854083106280334}}, "groups": [{"type": "Recommended Places", "name": "recommended", "items": [{"reasons": {"count": 0, "items": [{"summary": "This spot is popular", "type": "general", "reasonName": "globalInteractionReason"}]}, "venue": {"id": "537bab8e11d2e93a7774a9eb", "name": "Staybridge Suites London - Vauxhall", "location": {"address": "100 Vauxhall Walk", "lat": 51.48915998308972, "lng": -0.12070252106593671, "labeledLatLngs": [{"label": "display", "lat": 51.48915998308972, "lng": -0.12070252106593671}], "distance": 143, "postalCode": "SE11 5EL", "cc": "GB", "city": "London", "country": "United Kingdom", "formattedAddress": ["100 Vauxhall Walk", "London", "SE11 5EL", "United Kingdom"]}, "categories": [{"id": "4bf58dd8d48988d1fa931735", "name": "Hotel", "pluralName": "Hotels", "shortName": "Hotel", "icon": {"prefix": "https://ss3.4sqi.net/img/categories_v2/travel/hotel_", "suffix": ".png"}, "primary": true}], "photos": {"count": 0, "groups": []}}, "referralId": "e-0-537bab8e11d2e93a7774a9eb-0"}, {"reasons": {"count": 0, "items": [{"summary": "This spot is popular", "type": "general", "reasonName": "globalInteractionReason"}]}, "venue": {"id": "52bcbd6711d2d18d121a7aa8", "name": "Plaza On The River Club And Residence", "location": {"address": "18 Albert Embankment", "lat": 51.491529242107795, "lng": -0.12137142849725611, "labeledLatLngs": [{"label": "display", "lat": 51.491529242107795, "lng": -0.12137142849725611}], "distance": 282, "postalCode": "SE1 7TJ", "cc": "GB", "city": "London", "state": "Greater London", "country": "United Kingdom", "formattedAddress": ["18 Albert Embankment", "London", "Greater London", "SE1 7TJ", "United Kingdom"]}, "categories": [{"id": "4bf58dd8d48988d1fa931735", "name": "Hotel", "pluralName": "Hotels", "shortName": "Hotel", "icon": {"prefix": "https://ss3.4sqi.net/img/categories_v2/travel/hotel_", "suffix": ".png"}, "primary": true}], "photos": {"count": 0, "groups": []}}, "referralId": "e-0-52bcbd6711d2d18d121a7aa8-1"}, {"reasons": {"count": 0, "items": [{"summary": "This spot is popular", "type": "general", "reasonName": "globalInteractionReason"}]}, "venue": {"id": "4bafa216f964a52006123ce3", "name": "Park Plaza London Riverbank", "location": {"address": "18 Albert Embankment, Vauxhall", "lat": 51.491478, "lng": -0.122177, "labeledLatLngs": [{"label": "display", "lat": 51.491478, "lng": -0.122177}], "distance": 262, "postalCode": "SE1 7TJ", "cc": "GB", "city": "London", "state": "Greater London", "country": "United Kingdom", "formattedAddress": ["18 Albert Embankment, Vauxhall", "London", "Greater London", "SE1 7TJ", "United Kingdom"]}, "categories": [{"id": "4bf58dd8d48988d1fa931735", "name": "Hotel", "pluralName": "Hotels", "shortName": "Hotel", "icon": {"prefix": "https://ss3.4sqi.net/img/categories_v2/travel/hotel_", "suffix": ".png"}, "primary": true}], "photos": {"count": 0, "groups": []}}, "referralId": "e-0-4bafa216f964a52006123ce3-2"}, {"reasons": {"count": 0, "items": [{"summary": "This spot is popular", "type": "general", "reasonName": "globalInteractionReason"}]}, "venue": {"id": "5bab1713d807ee003967a4ca", "name": "Crowne Plaza London - Albert Embankment", "location": {"address": "10-11 Albert Embankment", "lat": 51.4917962, "lng": -0.1214779, "labeledLatLngs": [{"label": "display", "lat": 51.4917962, "lng": -0.1214779}], "distance": 307, "postalCode": "SE1 7SP", "cc": "GB", "city": "London", "state": "Greater London", "country": "United Kingdom", "formattedAddress": ["10-11 Albert Embankment", "London", "Greater London", "SE1 7SP", "United Kingdom"]}, "categories": [{"id": "4bf58dd8d48988d1fa931735", "name": "Hotel", "pluralName": "Hotels", "shortName": "Hotel", "icon": {"prefix": "https://ss3.4sqi.net/img/categories_v2/travel/hotel_", "suffix": ".png"}, "primary": true}], "photos": {"count": 0, "groups": []}}, "referralId": "e-0-5bab1713d807ee003967a4ca-3"}, {"reasons": {"count": 0, "items": [{"summary": "This spot is popular", "type": "general", "reasonName": "globalInteractionReason"}]}, "venue": {"id": "4cd9341b6e8b5941928264d2", "name": "Bus Stop A", "location": {"address": "Bondway", "lat": 51.48706899602099, "lng": -0.12350828515061366, "labeledLatLngs": [{"label": "display", "lat": 51.48706899602099, "lng": -0.12350828515061366}], "distance": 237, "postalCode": "SW8", "cc": "GB", "city": "London", "state": "Greater London", "country": "United Kingdom", "formattedAddress": ["Bondway", "London", "Greater London", " SW8", "United Kingdom"]}, "categories": [{"id": "52f2ab2ebcbc57f1066b8b4f", "name": "Bus Stop", "pluralName": "Bus Stops", "shortName": "Bus Stop", "icon": {"prefix": "https://ss3.4sqi.net/img/categories_v2/travel/busstation_", "suffix": ".png"}, "primary": true}], "photos": {"count": 0, "groups": []}}, "referralId": "e-0-4cd9341b6e8b5941928264d2-4"}, {"reasons": {"count": 0, "items": [{"summary": "This spot is popular", "type": "general", "reasonName": "globalInteractionReason"}]}, "venue": {"id": "4cbb5fbcdd41a35d89d2eda0", "name": "Platform 2", "location": {"address": "Vauxhall Railway Station (VXH)", "lat": 51.48622567911364, "lng": -0.12297351213660503, "labeledLatLngs": [{"label": "display", "lat": 51.48622567911364, "lng": -0.12297351213660503}], "distance": 325, "postalCode": "SW8 1SS", "cc": "GB", "city": "London", "state": "Greater London", "country": "United Kingdom", "formattedAddress": ["Vauxhall Railway Station (VXH)", "London", "Greater London", "SW8 1SS", "United Kingdom"]}, "categories": [{"id": "4f4531504b9074f6e4fb0102", "name": "Platform", "pluralName": "Platforms", "shortName": "Platform", "icon": {"prefix": "https://ss3.4sqi.net/img/categories_v2/travel/trainstation_", "suffix": ".png"}, "primary": true}], "photos": {"count": 0, "groups": []}}, "referralId": "e-0-4cbb5fbcdd41a35d89d2eda0-5"}, {"reasons": {"count": 0, "items": [{"summary": "This spot is popular", "type": "general", "reasonName": "globalInteractionReason"}]}, "venue": {"id": "4ec445f38b812a206483c63b", "name": "Platform 1", "location": {"address": "Vauxhall Railway Station (VXH)", "lat": 51.48617668164991, "lng": -0.12308120727539062, "labeledLatLngs": [{"label": "display", "lat": 51.48617668164991, "lng": -0.12308120727539062}], "distance": 331, "postalCode": "SW8 1SS", "cc": "GB", "city": "London", "state": "Greater London", "country": "United Kingdom", "formattedAddress": ["Vauxhall Railway Station (VXH)", "London", "Greater London", "SW8 1SS", "United Kingdom"]}, "categories": [{"id": "4f4531504b9074f6e4fb0102", "name": "Platform", "pluralName": "Platforms", "shortName": "Platform", "icon": {"prefix": "https://ss3.4sqi.net/img/categories_v2/travel/trainstation_", "suffix": ".png"}, "primary": true}], "photos": {"count": 0, "groups": []}}, "referralId": "e-0-4ec445f38b812a206483c63b-6"}, {"reasons": {"count": 0, "items": [{"summary": "This spot is popular", "type": "general", "reasonName": "globalInteractionReason"}]}, "venue": {"id": "4bfff22d92a6c928235a43e2", "name": "Platform 7", "location": {"address": "Vauxhall Railway Station (VXH)", "lat": 51.486048852263586, "lng": -0.12240343926486437, "labeledLatLngs": [{"label": "display", "lat": 51.486048852263586, "lng": -0.12240343926486437}], "distance": 346, "postalCode": "SW8 1SS", "cc": "GB", "neighborhood": "Vauxhall, London, Greater London", "city": "London", "state": "Greater London", "country": "United Kingdom", "formattedAddress": ["Vauxhall Railway Station (VXH)", "London", "Greater London", "SW8 1SS", "United Kingdom"]}, "categories": [{"id": "4f4531504b9074f6e4fb0102", "name": "Platform", "pluralName": "Platforms", "shortName": "Platform", "icon": {"prefix": "https://ss3.4sqi.net/img/categories_v2/travel/trainstation_", "suffix": ".png"}, "primary": true}], "photos": {"count": 0, "groups": []}}, "referralId": "e-0-4bfff22d92a6c928235a43e2-7"}, {"reasons": {"count": 0, "items": [{"summary": "This spot is popular", "type": "general", "reasonName": "globalInteractionReason"}]}, "venue": {"id": "4bc488822a89ef3bb863f688", "name": "Platform 3", "location": {"address": "Vauxhall Railway Station (VXH)", "lat": 51.48604208387534, "lng": -0.1228900392143207, "labeledLatLngs": [{"label": "display", "lat": 51.48604208387534, "lng": -0.1228900392143207}], "distance": 346, "postalCode": "SW8 1SS", "cc": "GB", "city": "London", "state": "Greater London", "country": "United Kingdom", "formattedAddress": ["Vauxhall Railway Station (VXH)", "London", "Greater London", "SW8 1SS", "United Kingdom"]}, "categories": [{"id": "4f4531504b9074f6e4fb0102", "name": "Platform", "pluralName": "Platforms", "shortName": "Platform", "icon": {"prefix": "https://ss3.4sqi.net/img/categories_v2/travel/trainstation_", "suffix": ".png"}, "primary": true}], "photos": {"count": 0, "groups": []}}, "referralId": "e-0-4bc488822a89ef3bb863f688-8"}, {"reasons": {"count": 0, "items": [{"summary": "This spot is popular", "type": "general", "reasonName": "globalInteractionReason"}]}, "venue": {"id": "4bc41b56b492d13a4ea8a960", "name": "Platform 4", "location": {"address": "Vauxhall Railway Station (VXH)", "lat": 51.48603155338452, "lng": -0.1227932590166744, "labeledLatLngs": [{"label": "display", "lat": 51.48603155338452, "lng": -0.1227932590166744}], "distance": 347, "postalCode": "SW8 1SS", "cc": "GB", "city": "London", "state": "Greater London", "country": "United Kingdom", "formattedAddress": ["Vauxhall Railway Station (VXH)", "London", "Greater London", "SW8 1SS", "United Kingdom"]}, "categories": [{"id": "4f4531504b9074f6e4fb0102", "name": "Platform", "pluralName": "Platforms", "shortName": "Platform", "icon": {"prefix": "https://ss3.4sqi.net/img/categories_v2/travel/trainstation_", "suffix": ".png"}, "primary": true}], "photos": {"count": 0, "groups": []}}, "referralId": "e-0-4bc41b56b492d13a4ea8a960-9"}, {"reasons": {"count": 0, "items": [{"summary": "This spot is popular", "type": "general", "reasonName": "globalInteractionReason"}]}, "venue": {"id": "4bdd169ff219c9b69ef61110", "name": "Platform 6", "location": {"address": "Vauxhall Railway Station (VXH)", "lat": 51.485999, "lng": -0.122507, "labeledLatLngs": [{"label": "display", "lat": 51.485999, "lng": -0.122507}], "distance": 351, "postalCode": "SW8 1SS", "cc": "GB", "city": "London", "state": "Greater London", "country": "United Kingdom", "formattedAddress": ["Vauxhall Railway Station (VXH)", "London", "Greater London", "SW8 1SS", "United Kingdom"]}, "categories": [{"id": "4f4531504b9074f6e4fb0102", "name": "Platform", "pluralName": "Platforms", "shortName": "Platform", "icon": {"prefix": "https://ss3.4sqi.net/img/categories_v2/travel/trainstation_", "suffix": ".png"}, "primary": true}], "photos": {"count": 0, "groups": []}}, "referralId": "e-0-4bdd169ff219c9b69ef61110-10"}, {"reasons": {"count": 0, "items": [{"summary": "This spot is popular", "type": "general", "reasonName": "globalInteractionReason"}]}, "venue": {"id": "51901c97498eb8a7bb2ec6ed", "name": "St anne's Church Bus Stop", "location": {"lat": 51.486364, "lng": -0.120291, "labeledLatLngs": [{"label": "display", "lat": 51.486364, "lng": -0.120291}], "distance": 354, "cc": "GB", "country": "United Kingdom", "formattedAddress": ["United Kingdom"]}, "categories": [{"id": "52f2ab2ebcbc57f1066b8b4f", "name": "Bus Stop", "pluralName": "Bus Stops", "shortName": "Bus Stop", "icon": {"prefix": "https://ss3.4sqi.net/img/categories_v2/travel/busstation_", "suffix": ".png"}, "primary": true}], "photos": {"count": 0, "groups": []}}, "referralId": "e-0-51901c97498eb8a7bb2ec6ed-11"}, {"reasons": {"count": 0, "items": [{"summary": "This spot is popular", "type": "general", "reasonName": "globalInteractionReason"}]}, "venue": {"id": "4b73caa6f964a520fdbb2de3", "name": "Platform 8", "location": {"address": "Vauxhall Railway Station (VXH)", "lat": 51.48594676341967, "lng": -0.12231481723393636, "labeledLatLngs": [{"label": "display", "lat": 51.48594676341967, "lng": -0.12231481723393636}], "distance": 357, "postalCode": "SW8 1SS", "cc": "GB", "city": "London", "state": "Greater London", "country": "United Kingdom", "formattedAddress": ["Vauxhall Railway Station (VXH)", "London", "Greater London", "SW8 1SS", "United Kingdom"]}, "categories": [{"id": "4f4531504b9074f6e4fb0102", "name": "Platform", "pluralName": "Platforms", "shortName": "Platform", "icon": {"prefix": "https://ss3.4sqi.net/img/categories_v2/travel/trainstation_", "suffix": ".png"}, "primary": true}], "photos": {"count": 0, "groups": []}}, "referralId": "e-0-4b73caa6f964a520fdbb2de3-12"}, {"reasons": {"count": 0, "items": [{"summary": "This spot is popular", "type": "general", "reasonName": "globalInteractionReason"}]}, "venue": {"id": "4b6145b5f964a520a70e2ae3", "name": "Vauxhall London Underground Station", "location": {"address": "Vauxhall Cross", "lat": 51.48590378588932, "lng": -0.12373755983661565, "labeledLatLngs": [{"label": "display", "lat": 51.48590378588932, "lng": -0.12373755983661565}], "distance": 367, "postalCode": "SW8 1SR", "cc": "GB", "city": "London", "state": "Greater London", "country": "United Kingdom", "formattedAddress": ["Vauxhall Cross", "London", "Greater London", "SW8 1SR", "United Kingdom"]}, "categories": [{"id": "4bf58dd8d48988d1fd931735", "name": "Metro Station", "pluralName": "Metro Stations", "shortName": "Metro", "icon": {"prefix": "https://ss3.4sqi.net/img/categories_v2/travel/subway_", "suffix": ".png"}, "primary": true}], "photos": {"count": 0, "groups": []}}, "referralId": "e-0-4b6145b5f964a520a70e2ae3-13"}, {"reasons": {"count": 0, "items": [{"summary": "This spot is popular", "type": "general", "reasonName": "globalInteractionReason"}]}, "venue": {"id": "4cacaae976d3a0936cce336b", "name": "Bus Stop E", "location": {"address": "Bondway", "lat": 51.485897452641254, "lng": -0.12397841483182587, "labeledLatLngs": [{"label": "display", "lat": 51.485897452641254, "lng": -0.12397841483182587}], "distance": 371, "postalCode": "SW 8 2", "cc": "GB", "city": "London", "state": "Greater London", "country": "United Kingdom", "formattedAddress": ["Bondway", "London", "Greater London", "SW 8 2", "United Kingdom"]}, "categories": [{"id": "52f2ab2ebcbc57f1066b8b4f", "name": "Bus Stop", "pluralName": "Bus Stops", "shortName": "Bus Stop", "icon": {"prefix": "https://ss3.4sqi.net/img/categories_v2/travel/busstation_", "suffix": ".png"}, "primary": true}], "photos": {"count": 0, "groups": []}}, "referralId": "e-0-4cacaae976d3a0936cce336b-14"}, {"reasons": {"count": 0, "items": [{"summary": "This spot is popular", "type": "general", "reasonName": "globalInteractionReason"}]}, "venue": {"id": "50f3cf4ae4b0e9365f8120c8", "name": "Vauxhall Bridge Road Bus Stop T", "location": {"lat": 51.489475, "lng": -0.12816432, "labeledLatLngs": [{"label": "display", "lat": 51.489475, "lng": -0.12816432}], "distance": 375, "postalCode": "SW1P 4RL", "cc": "GB", "neighborhood": "City of Westminster", "city": "London", "state": "Greater London", "country": "United Kingdom", "formattedAddress": ["London", "Greater London", "SW1P 4RL", "United Kingdom"]}, "categories": [{"id": "52f2ab2ebcbc57f1066b8b4f", "name": "Bus Stop", "pluralName": "Bus Stops", "shortName": "Bus Stop", "icon": {"prefix": "https://ss3.4sqi.net/img/categories_v2/travel/busstation_", "suffix": ".png"}, "primary": true}], "photos": {"count": 0, "groups": []}}, "referralId": "e-0-50f3cf4ae4b0e9365f8120c8-15"}, {"reasons": {"count": 0, "items": [{"summary": "This spot is popular", "type": "general", "reasonName": "globalInteractionReason"}]}, "venue": {"id": "4acdeba7f964a5208bcd20e3", "name": "Vauxhall Railway Station (VXH)", "location": {"address": "S Lambeth Rd.", "lat": 51.48587236366753, "lng": -0.12313456593362981, "distance": 365, "postalCode": "SW8 1SS", "cc": "GB", "city": "London", "state": "Greater London", "country": "United Kingdom", "formattedAddress": ["S Lambeth Rd.", "London", "Greater London", "SW8 1SS", "United Kingdom"]}, "categories": [{"id": "4bf58dd8d48988d129951735", "name": "Train Station", "pluralName": "Train Stations", "shortName": "Train Station", "icon": {"prefix": "https://ss3.4sqi.net/img/categories_v2/travel/trainstation_", "suffix": ".png"}, "primary": true}], "photos": {"count": 0, "groups": []}}, "referralId": "e-0-4acdeba7f964a5208bcd20e3-16"}]}]}}