{"meta": {"code": 200, "requestId": "5feddc234bde931d9e257ae0"}, "response": {"suggestedFilters": {"header": "Tap to show:", "filters": [{"name": "Open now", "key": "openNow"}]}, "headerLocation": "College Park and Old Oak", "headerFullLocation": "College Park and Old Oak, London", "headerLocationGranularity": "neighborhood", "query": "food", "totalResults": 27, "suggestedBounds": {"ne": {"lat": 51.51440000360001, "lng": -0.21769742691343422}, "sw": {"lat": 51.5071999964, "lng": -0.2292445730865658}}, "groups": [{"type": "Recommended Places", "name": "recommended", "items": [{"reasons": {"count": 0, "items": [{"summary": "This spot is popular", "type": "general", "reasonName": "globalInteractionReason"}]}, "venue": {"id": "5b295077da7080002c9ad57f", "name": "Kricket", "location": {"address": "2 Television Centre", "crossStreet": "101 Wood Ln", "lat": 51.51051323413701, "lng": -0.22534847259521482, "labeledLatLngs": [{"label": "display", "lat": 51.51051323413701, "lng": -0.22534847259521482}], "distance": 133, "postalCode": "W12 7FR", "cc": "GB", "city": "Shepherds Bush", "state": "Greater London", "country": "United Kingdom", "formattedAddress": ["2 Television Centre (101 Wood Ln)", "Shepherds Bush", "Greater London", "W12 7FR", "United Kingdom"]}, "categories": [{"id": "4bf58dd8d48988d10f941735", "name": "Indian Restaurant", "pluralName": "Indian Restaurants", "shortName": "Indian", "icon": {"prefix": "https://ss3.4sqi.net/img/categories_v2/food/indian_", "suffix": ".png"}, "primary": true}], "photos": {"count": 0, "groups": []}}, "referralId": "e-0-5b295077da7080002c9ad57f-0"}, {"reasons": {"count": 0, "items": [{"summary": "This spot is popular", "type": "general", "reasonName": "globalInteractionReason"}]}, "venue": {"id": "5abba8e951950e4f65125a79", "name": "Ole & Steen", "location": {"address": "Westfield White City, Ariel Way, Unit Su1203", "lat": 51.509559, "lng": -0.221753, "labeledLatLngs": [{"label": "display", "lat": 51.509559, "lng": -0.221753}], "distance": 182, "postalCode": "W12 7HT", "cc": "GB", "city": "London", "state": "Greater London", "country": "United Kingdom", "formattedAddress": ["Westfield White City, Ariel Way, Unit Su1203", "London", "Greater London", "W12 7HT", "United Kingdom"]}, "categories": [{"id": "4bf58dd8d48988d16a941735", "name": "Bakery", "pluralName": "Bakeries", "shortName": "Bakery", "icon": {"prefix": "https://ss3.4sqi.net/img/categories_v2/food/bakery_", "suffix": ".png"}, "primary": true}], "photos": {"count": 0, "groups": []}}, "referralId": "e-0-5abba8e951950e4f65125a79-1"}, {"reasons": {"count": 0, "items": [{"summary": "This spot is popular", "type": "general", "reasonName": "globalInteractionReason"}]}, "venue": {"id": "5c81bdca018cbb0039a8e9c1", "name": "Endo at the Rotunda", "location": {"address": "101 Wood Lane", "lat": 51.510559, "lng": -0.225979, "labeledLatLngs": [{"label": "display", "lat": 51.510559, "lng": -0.225979}], "distance": 175, "postalCode": "W12 7FA", "cc": "GB", "city": "London", "state": "Greater London", "country": "United Kingdom", "formattedAddress": ["101 Wood Lane", "London", "Greater London", "W12 7FA", "United Kingdom"]}, "categories": [{"id": "4bf58dd8d48988d111941735", "name": "Japanese Restaurant", "pluralName": "Japanese Restaurants", "shortName": "Japanese", "icon": {"prefix": "https://ss3.4sqi.net/img/categories_v2/food/japanese_", "suffix": ".png"}, "primary": true}], "photos": {"count": 0, "groups": []}}, "referralId": "e-0-5c81bdca018cbb0039a8e9c1-2"}, {"reasons": {"count": 0, "items": [{"summary": "This spot is popular", "type": "general", "reasonName": "globalInteractionReason"}]}, "venue": {"id": "5ad882cfe7a2375b94dfad73", "name": "Homeslice", "location": {"address": "2 Television Centre", "crossStreet": "101 Wood Ln", "lat": 51.51073, "lng": -0.226171, "labeledLatLngs": [{"label": "display", "lat": 51.51073, "lng": -0.226171}], "distance": 187, "postalCode": "W12 7FR", "cc": "GB", "city": "Shepherds Bush", "state": "Greater London", "country": "United Kingdom", "formattedAddress": ["2 Television Centre (101 Wood Ln)", "Shepherds Bush", "Greater London", "W12 7FR", "United Kingdom"]}, "categories": [{"id": "4bf58dd8d48988d1ca941735", "name": "Pizza Place", "pluralName": "Pizza Places", "shortName": "Pizza", "icon": {"prefix": "https://ss3.4sqi.net/img/categories_v2/food/pizza_", "suffix": ".png"}, "primary": true}], "photos": {"count": 0, "groups": []}}, "referralId": "e-0-5ad882cfe7a2375b94dfad73-3"}, {"reasons": {"count": 0, "items": [{"summary": "This spot is popular", "type": "general", "reasonName": "globalInteractionReason"}]}, "venue": {"id": "5adf1e03a89b5a6e33755fdf", "name": "The Allis", "location": {"address": "Television Centre", "crossStreet": "101 Wood Ln", "lat": 51.510526, "lng": -0.226252, "labeledLatLngs": [{"label": "display", "lat": 51.510526, "lng": -0.226252}], "distance": 195, "postalCode": "W12 7FS", "cc": "GB", "city": "Shepherds Bush", "state": "Greater London", "country": "United Kingdom", "formattedAddress": ["Television Centre (101 Wood Ln)", "Shepherds Bush", "Greater London", "W12 7FS", "United Kingdom"]}, "categories": [{"id": "4bf58dd8d48988d157941735", "name": "New American Restaurant", "pluralName": "New American Restaurants", "shortName": "New American", "icon": {"prefix": "https://ss3.4sqi.net/img/categories_v2/food/newamerican_", "suffix": ".png"}, "primary": true}], "photos": {"count": 0, "groups": []}}, "referralId": "e-0-5adf1e03a89b5a6e33755fdf-4"}, {"reasons": {"count": 0, "items": [{"summary": "This spot is popular", "type": "general", "reasonName": "globalInteractionReason"}]}, "venue": {"id": "4dd16a7ad22deadedd995ad4", "name": "Mr. Pretzels", "location": {"address": "Westfield London", "crossStreet": "Ariel Way", "lat": 51.507579130851795, "lng": -0.22128884004742924, "labeledLatLngs": [{"label": "display", "lat": 51.507579130851795, "lng": -0.22128884004742924}], "distance": 389, "postalCode": "W12 7SL", "cc": "GB", "city": "Shepherds Bush", "state": "Greater London", "country": "United Kingdom", "formattedAddress": ["Westfield London (Ariel Way)", "Shepherds Bush", "Greater London", "W12 7SL", "United Kingdom"]}, "categories": [{"id": "4bf58dd8d48988d148941735", "name": "Donut Shop", "pluralName": "Donut Shops", "shortName": "Donuts", "icon": {"prefix": "https://ss3.4sqi.net/img/categories_v2/food/donuts_", "suffix": ".png"}, "primary": true}], "photos": {"count": 0, "groups": []}}, "referralId": "e-0-4dd16a7ad22deadedd995ad4-5"}, {"reasons": {"count": 0, "items": [{"summary": "This spot is popular", "type": "general", "reasonName": "globalInteractionReason"}]}, "venue": {"id": "4bacc707f964a520720b3be3", "name": "Byron", "location": {"address": "Ariel Way", "crossStreet": "The Loft", "lat": 51.5078368, "lng": -0.2217481, "labeledLatLngs": [{"label": "display", "lat": 51.5078368, "lng": -0.2217481}], "distance": 350, "postalCode": "W12 7GF", "cc": "GB", "city": "London", "state": "Greater London", "country": "United Kingdom", "formattedAddress": ["Ariel Way (The Loft)", "London", "Greater London", "W12 7GF", "United Kingdom"]}, "categories": [{"id": "4bf58dd8d48988d16c941735", "name": "Burger Joint", "pluralName": "Burger Joints", "shortName": "Burgers", "icon": {"prefix": "https://ss3.4sqi.net/img/categories_v2/food/burger_", "suffix": ".png"}, "primary": true}], "photos": {"count": 0, "groups": []}}, "referralId": "e-0-4bacc707f964a520720b3be3-6"}, {"reasons": {"count": 0, "items": [{"summary": "This spot is popular", "type": "general", "reasonName": "globalInteractionReason"}]}, "venue": {"id": "4f9bb746e4b0b34c434aacd9", "name": "M&S Caf\u00e9", "location": {"address": "M&S Westfield Shopping Centre", "lat": 51.50791647067578, "lng": -0.22040700153327966, "labeledLatLngs": [{"label": "display", "lat": 51.50791647067578, "lng": -0.22040700153327966}], "distance": 384, "cc": "GB", "city": "London", "state": "Greater London", "country": "United Kingdom", "formattedAddress": ["M&S Westfield Shopping Centre", "London", "Greater London", "United Kingdom"]}, "categories": [{"id": "4bf58dd8d48988d16d941735", "name": "Caf\u00e9", "pluralName": "Caf\u00e9s", "shortName": "Caf\u00e9", "icon": {"prefix": "https://ss3.4sqi.net/img/categories_v2/food/cafe_", "suffix": ".png"}, "primary": true}], "photos": {"count": 0, "groups": []}}, "referralId": "e-0-4f9bb746e4b0b34c434aacd9-7"}, {"reasons": {"count": 0, "items": [{"summary": "This spot is popular", "type": "general", "reasonName": "globalInteractionReason"}]}, "venue": {"id": "5ac609b46661165c8a87e997", "name": "Bluebird Cafe White City", "location": {"address": "2 Television Centre", "crossStreet": "101 Wood Ln", "lat": 51.51091929664888, "lng": -0.2246725559234619, "labeledLatLngs": [{"label": "display", "lat": 51.51091929664888, "lng": -0.2246725559234619}], "distance": 84, "postalCode": "W12 7RF", "cc": "GB", "city": "Shepherds Bush", "state": "Greater London", "country": "United Kingdom", "formattedAddress": ["2 Television Centre (101 Wood Ln)", "Shepherds Bush", "Greater London", "W12 7RF", "United Kingdom"]}, "categories": [{"id": "52e81612bcbc57f1066b79f9", "name": "Modern European Restaurant", "pluralName": "Modern European Restaurants", "shortName": "Modern European", "icon": {"prefix": "https://ss3.4sqi.net/img/categories_v2/food/default_", "suffix": ".png"}, "primary": true}], "photos": {"count": 0, "groups": []}, "venuePage": {"id": "481119789"}}, "referralId": "e-0-5ac609b46661165c8a87e997-8"}, {"reasons": {"count": 0, "items": [{"summary": "This spot is popular", "type": "general", "reasonName": "globalInteractionReason"}]}, "venue": {"id": "51fff52e498e10c771b25253", "name": "Dunkers & Co", "location": {"address": "Westfield London", "crossStreet": "Ariel Way", "lat": 51.50745649784781, "lng": -0.2232456603443968, "labeledLatLngs": [{"label": "display", "lat": 51.50745649784781, "lng": -0.2232456603443968}], "distance": 372, "postalCode": "W12 7GF", "cc": "GB", "city": "Shepherds Bush", "state": "Greater London", "country": "United Kingdom", "formattedAddress": ["Westfield London (Ariel Way)", "Shepherds Bush", "Greater London", "W12 7GF", "United Kingdom"]}, "categories": [{"id": "52e81612bcbc57f1066b79f2", "name": "Creperie", "pluralName": "Creperies", "shortName": "Creperie", "icon": {"prefix": "https://ss3.4sqi.net/img/categories_v2/food/creperie_", "suffix": ".png"}, "primary": true}], "photos": {"count": 0, "groups": []}}, "referralId": "e-0-51fff52e498e10c771b25253-9"}, {"reasons": {"count": 0, "items": [{"summary": "This spot is popular", "type": "general", "reasonName": "globalInteractionReason"}]}, "venue": {"id": "5442c5ba498ed34e00fe2d09", "name": "L'Orchidee", "location": {"address": "Westfield London", "crossStreet": "Ariel Way", "lat": 51.50827502606943, "lng": -0.2215290069580078, "labeledLatLngs": [{"label": "display", "lat": 51.50827502606943, "lng": -0.2215290069580078}], "distance": 311, "postalCode": "W12 7GF", "cc": "GB", "city": "Shepherds Bush", "state": "Greater London", "country": "United Kingdom", "formattedAddress": ["Westfield London (Ariel Way)", "Shepherds Bush", "Greater London", "W12 7GF", "United Kingdom"]}, "categories": [{"id": "4bf58dd8d48988d16d941735", "name": "Caf\u00e9", "pluralName": "Caf\u00e9s", "shortName": "Caf\u00e9", "icon": {"prefix": "https://ss3.4sqi.net/img/categories_v2/food/cafe_", "suffix": ".png"}, "primary": true}], "photos": {"count": 0, "groups": []}}, "referralId": "e-0-5442c5ba498ed34e00fe2d09-10"}, {"reasons": {"count": 0, "items": [{"summary": "This spot is popular", "type": "general", "reasonName": "globalInteractionReason"}]}, "venue": {"id": "4b0ecbf7f964a520295b23e3", "name": "Cr\u00eapeaffaire", "location": {"address": "Westfield London", "crossStreet": "Ariel Way", "lat": 51.50761637641254, "lng": -0.22146410798872765, "labeledLatLngs": [{"label": "display", "lat": 51.50761637641254, "lng": -0.22146410798872765}], "distance": 380, "postalCode": "W12 7SL", "cc": "GB", "city": "Shepherds Bush", "state": "Greater London", "country": "United Kingdom", "formattedAddress": ["Westfield London (Ariel Way)", "Shepherds Bush", "Greater London", "W12 7SL", "United Kingdom"]}, "categories": [{"id": "52e81612bcbc57f1066b79f2", "name": "Creperie", "pluralName": "Creperies", "shortName": "Creperie", "icon": {"prefix": "https://ss3.4sqi.net/img/categories_v2/food/creperie_", "suffix": ".png"}, "primary": true}], "photos": {"count": 0, "groups": []}}, "referralId": "e-0-4b0ecbf7f964a520295b23e3-11"}, {"reasons": {"count": 0, "items": [{"summary": "This spot is popular", "type": "general", "reasonName": "globalInteractionReason"}]}, "venue": {"id": "5aeaf8c7628c83002c327c20", "name": "Patty & Bun", "location": {"address": "Unit 8, 2 Television Centre", "crossStreet": "101 Wood Ln", "lat": 51.51079, "lng": -0.226041, "labeledLatLngs": [{"label": "display", "lat": 51.51079, "lng": -0.226041}], "distance": 178, "postalCode": "W12 7FR", "cc": "GB", "city": "London", "state": "Greater London", "country": "United Kingdom", "formattedAddress": ["Unit 8, 2 Television Centre (101 Wood Ln)", "London", "Greater London", "W12 7FR", "United Kingdom"]}, "categories": [{"id": "4bf58dd8d48988d16c941735", "name": "Burger Joint", "pluralName": "Burger Joints", "shortName": "Burgers", "icon": {"prefix": "https://ss3.4sqi.net/img/categories_v2/food/burger_", "suffix": ".png"}, "primary": true}], "photos": {"count": 0, "groups": []}}, "referralId": "e-0-5aeaf8c7628c83002c327c20-12"}, {"reasons": {"count": 0, "items": [{"summary": "This spot is popular", "type": "general", "reasonName": "globalInteractionReason"}]}, "venue": {"id": "4bab97dcf964a52029b73ae3", "name": "Millie's Cookies", "location": {"address": "Westfield London", "crossStreet": "Ariel Way", "lat": 51.507955059969035, "lng": -0.22375155666892377, "labeledLatLngs": [{"label": "display", "lat": 51.507955059969035, "lng": -0.22375155666892377}], "distance": 317, "postalCode": "W12 7GB", "cc": "GB", "city": "Hammersmith", "state": "Greater London", "country": "United Kingdom", "formattedAddress": ["Westfield London (Ariel Way)", "Hammersmith", "Greater London", "W12 7GB", "United Kingdom"]}, "categories": [{"id": "4bf58dd8d48988d16a941735", "name": "Bakery", "pluralName": "Bakeries", "shortName": "Bakery", "icon": {"prefix": "https://ss3.4sqi.net/img/categories_v2/food/bakery_", "suffix": ".png"}, "primary": true}], "photos": {"count": 0, "groups": []}}, "referralId": "e-0-4bab97dcf964a52029b73ae3-13"}, {"reasons": {"count": 0, "items": [{"summary": "This spot is popular", "type": "general", "reasonName": "globalInteractionReason"}]}, "venue": {"id": "4bc5d3156a3e9c746d59f648", "name": "Nottingdale Cafe", "location": {"address": "Evesham Street", "lat": 51.511037307483434, "lng": -0.21839051435985257, "labeledLatLngs": [{"label": "display", "lat": 51.511037307483434, "lng": -0.21839051435985257}], "distance": 352, "cc": "GB", "city": "Hammersmith", "state": "Greater London", "country": "United Kingdom", "formattedAddress": ["Evesham Street", "Hammersmith", "Greater London", "United Kingdom"]}, "categories": [{"id": "4bf58dd8d48988d16d941735", "name": "Caf\u00e9", "pluralName": "Caf\u00e9s", "shortName": "Caf\u00e9", "icon": {"prefix": "https://ss3.4sqi.net/img/categories_v2/food/cafe_", "suffix": ".png"}, "primary": true}], "photos": {"count": 0, "groups": []}}, "referralId": "e-0-4bc5d3156a3e9c746d59f648-14"}, {"reasons": {"count": 0, "items": [{"summary": "This spot is popular", "type": "general", "reasonName": "globalInteractionReason"}]}, "venue": {"id": "4b69a3e5f964a520d5aa2be3", "name": "PizzaExpress", "location": {"address": "Unit 3126, Westfield London Shopping Centre, Ariel Way", "crossStreet": "Ariel Way", "lat": 51.5075662, "lng": -0.2216318, "labeledLatLngs": [{"label": "display", "lat": 51.5075662, "lng": -0.2216318}], "distance": 381, "postalCode": "W12 7GF", "cc": "GB", "city": "Greater London", "state": "Greater London", "country": "United Kingdom", "formattedAddress": ["Unit 3126, Westfield London Shopping Centre, Ariel Way (Ariel Way)", "Greater London", "W12 7GF", "United Kingdom"]}, "categories": [{"id": "4bf58dd8d48988d1ca941735", "name": "Pizza Place", "pluralName": "Pizza Places", "shortName": "Pizza", "icon": {"prefix": "https://ss3.4sqi.net/img/categories_v2/food/pizza_", "suffix": ".png"}, "primary": true}], "photos": {"count": 0, "groups": []}}, "referralId": "e-0-4b69a3e5f964a520d5aa2be3-15"}, {"reasons": {"count": 0, "items": [{"summary": "This spot is popular", "type": "general", "reasonName": "globalInteractionReason"}]}, "venue": {"id": "4b781710f964a52053b52ee3", "name": "Comptoir Libanais", "location": {"address": "Westfield London", "crossStreet": "Ariel Way", "lat": 51.50758864410642, "lng": -0.22145446233762064, "labeledLatLngs": [{"label": "display", "lat": 51.50758864410642, "lng": -0.22145446233762064}], "distance": 383, "postalCode": "W12 7GE", "cc": "GB", "city": "Shepherds Bush", "state": "Greater London", "country": "United Kingdom", "formattedAddress": ["Westfield London (Ariel Way)", "Shepherds Bush", "Greater London", "W12 7GE", "United Kingdom"]}, "categories": [{"id": "58daa1558bbb0b01f18ec1cd", "name": "Lebanese Restaurant", "pluralName": "Lebanese Restaurants", "shortName": "Lebanese", "icon": {"prefix": "https://ss3.4sqi.net/img/categories_v2/food/middleeastern_", "suffix": ".png"}, "primary": true}], "photos": {"count": 0, "groups": []}}, "referralId": "e-0-4b781710f964a52053b52ee3-16"}, {"reasons": {"count": 0, "items": [{"summary": "This spot is popular", "type": "general", "reasonName": "globalInteractionReason"}]}, "venue": {"id": "4fe779af6b7488235052e888", "name": "UGLI Kitchen", "location": {"address": "56 Wood Lane", "lat": 51.51144753031311, "lng": -0.22379711527321985, "labeledLatLngs": [{"label": "display", "lat": 51.51144753031311, "lng": -0.22379711527321985}], "distance": 75, "postalCode": "W12 7SB", "cc": "GB", "city": "London", "state": "Greater London", "country": "United Kingdom", "formattedAddress": ["56 Wood Lane", "London", "Greater London", "W12 7SB", "United Kingdom"]}, "categories": [{"id": "4bf58dd8d48988d16d941735", "name": "Caf\u00e9", "pluralName": "Caf\u00e9s", "shortName": "Caf\u00e9", "icon": {"prefix": "https://ss3.4sqi.net/img/categories_v2/food/cafe_", "suffix": ".png"}, "primary": true}], "photos": {"count": 0, "groups": []}}, "referralId": "e-0-4fe779af6b7488235052e888-17"}, {"reasons": {"count": 0, "items": [{"summary": "This spot is popular", "type": "general", "reasonName": "globalInteractionReason"}]}, "venue": {"id": "5ab297b60868a22708930bd1", "name": "The Place to Eat", "location": {"address": "Ariel Way", "lat": 51.509849, "lng": -0.223044, "labeledLatLngs": [{"label": "display", "lat": 51.509849, "lng": -0.223044}], "distance": 109, "postalCode": "W12", "cc": "GB", "city": "London", "state": "Greater London", "country": "United Kingdom", "formattedAddress": ["Ariel Way", "London", "Greater London", "W12", "United Kingdom"]}, "categories": [{"id": "4bf58dd8d48988d16d941735", "name": "Caf\u00e9", "pluralName": "Caf\u00e9s", "shortName": "Caf\u00e9", "icon": {"prefix": "https://ss3.4sqi.net/img/categories_v2/food/cafe_", "suffix": ".png"}, "primary": true}], "photos": {"count": 0, "groups": []}}, "referralId": "e-0-5ab297b60868a22708930bd1-18"}, {"reasons": {"count": 0, "items": [{"summary": "This spot is popular", "type": "general", "reasonName": "globalInteractionReason"}]}, "venue": {"id": "5b69d8cf66f3cd002cc9cb3c", "name": "Maple Restaurant And Bar", "location": {"address": "Ariel Way", "crossStreet": "Wood Lane", "lat": 51.509734, "lng": -0.223232, "labeledLatLngs": [{"label": "display", "lat": 51.509734, "lng": -0.223232}], "distance": 119, "postalCode": "W12", "cc": "GB", "city": "London", "state": "Greater London", "country": "United Kingdom", "formattedAddress": ["Ariel Way (Wood Lane)", "London", "Greater London", "W12", "United Kingdom"]}, "categories": [{"id": "4bf58dd8d48988d1c4941735", "name": "Restaurant", "pluralName": "Restaurants", "shortName": "Restaurant", "icon": {"prefix": "https://ss3.4sqi.net/img/categories_v2/food/default_", "suffix": ".png"}, "primary": true}], "photos": {"count": 0, "groups": []}}, "referralId": "e-0-5b69d8cf66f3cd002cc9cb3c-19"}, {"reasons": {"count": 0, "items": [{"summary": "This spot is popular", "type": "general", "reasonName": "globalInteractionReason"}]}, "venue": {"id": "5d89da3d664d980008171ba2", "name": "Prairie Fire At Wood Lane Archways", "location": {"address": "Arches 88/89, Wood Lane Arches", "lat": 51.510242, "lng": -0.22318661, "labeledLatLngs": [{"label": "display", "lat": 51.510242, "lng": -0.22318661}], "distance": 65, "postalCode": "W12 7LH", "cc": "GB", "neighborhood": "Shepherd\u2019s Bush", "city": "London", "state": "Greater London", "country": "United Kingdom", "formattedAddress": ["Arches 88/89, Wood Lane Arches", "London", "Greater London", "W12 7LH", "United Kingdom"]}, "categories": [{"id": "4bf58dd8d48988d1df931735", "name": "BBQ Joint", "pluralName": "BBQ Joints", "shortName": "BBQ", "icon": {"prefix": "https://ss3.4sqi.net/img/categories_v2/food/bbqalt_", "suffix": ".png"}, "primary": true}], "photos": {"count": 0, "groups": []}}, "referralId": "e-0-5d89da3d664d980008171ba2-20"}, {"reasons": {"count": 0, "items": [{"summary": "This spot is popular", "type": "general", "reasonName": "globalInteractionReason"}]}, "venue": {"id": "596736cbdec1d60224ae7e06", "name": "Linnets Kitchen", "location": {"address": "Wood Lane", "lat": 51.512764, "lng": -0.22504504, "labeledLatLngs": [{"label": "display", "lat": 51.512764, "lng": -0.22504504}], "distance": 244, "postalCode": "W12 7ED", "cc": "GB", "city": "London", "state": "Greater London", "country": "United Kingdom", "formattedAddress": ["Wood Lane", "London", "Greater London", "W12 7ED", "United Kingdom"]}, "categories": [{"id": "56aa371be4b08b9a8d57350b", "name": "Food Stand", "pluralName": "Food Stands", "shortName": "Food Stand", "icon": {"prefix": "https://ss3.4sqi.net/img/categories_v2/travel/movingtarget_", "suffix": ".png"}, "primary": true}], "photos": {"count": 0, "groups": []}}, "referralId": "e-0-596736cbdec1d60224ae7e06-21"}, {"reasons": {"count": 0, "items": [{"summary": "This spot is popular", "type": "general", "reasonName": "globalInteractionReason"}]}, "venue": {"id": "4b23b0a5f964a520175824e3", "name": "YO! Sushi", "location": {"address": "Unit 2106, Westfield London Shopping Centre, Ariel Way", "crossStreet": "Ariel Way", "lat": 51.507685, "lng": -0.221504, "labeledLatLngs": [{"label": "display", "lat": 51.507685, "lng": -0.221504}], "distance": 372, "postalCode": "W12 7GF", "cc": "GB", "city": "London", "state": "Greater London", "country": "United Kingdom", "formattedAddress": ["Unit 2106, Westfield London Shopping Centre, Ariel Way (Ariel Way)", "London", "Greater London", "W12 7GF", "United Kingdom"]}, "categories": [{"id": "4bf58dd8d48988d1d2941735", "name": "Sushi Restaurant", "pluralName": "Sushi Restaurants", "shortName": "Sushi", "icon": {"prefix": "https://ss3.4sqi.net/img/categories_v2/food/sushi_", "suffix": ".png"}, "primary": true}], "photos": {"count": 0, "groups": []}}, "referralId": "e-0-4b23b0a5f964a520175824e3-22"}, {"reasons": {"count": 0, "items": [{"summary": "This spot is popular", "type": "general", "reasonName": "globalInteractionReason"}]}, "venue": {"id": "4b25170df964a520256c24e3", "name": "Burger King", "location": {"address": "Westfield London Shopping Centre, Unit P0202", "crossStreet": "Ariel Way", "lat": 51.50784600805122, "lng": -0.22408966137695163, "labeledLatLngs": [{"label": "display", "lat": 51.50784600805122, "lng": -0.22408966137695163}], "distance": 331, "postalCode": "W12 7SL", "cc": "GB", "city": "London", "state": "Greater London", "country": "United Kingdom", "formattedAddress": ["Westfield London Shopping Centre, Unit P0202 (Ariel Way)", "London", "Greater London", "W12 7SL", "United Kingdom"]}, "categories": [{"id": "4bf58dd8d48988d16e941735", "name": "Fast Food Restaurant", "pluralName": "Fast Food Restaurants", "shortName": "Fast Food", "icon": {"prefix": "https://ss3.4sqi.net/img/categories_v2/food/fastfood_", "suffix": ".png"}, "primary": true}], "photos": {"count": 0, "groups": []}}, "referralId": "e-0-4b25170df964a520256c24e3-23"}, {"reasons": {"count": 0, "items": [{"summary": "This spot is popular", "type": "general", "reasonName": "globalInteractionReason"}]}, "venue": {"id": "50ba7ca3e4b07e5a1606247e", "name": "Indi-Go", "location": {"address": "Westfield London", "crossStreet": "Ariel Way", "lat": 51.507646661493645, "lng": -0.22153627835376258, "labeledLatLngs": [{"label": "display", "lat": 51.507646661493645, "lng": -0.22153627835376258}], "distance": 375, "postalCode": "W12 7SL", "cc": "GB", "city": "Shepherds Bush", "state": "Greater London", "country": "United Kingdom", "formattedAddress": ["Westfield London (Ariel Way)", "Shepherds Bush", "Greater London", "W12 7SL", "United Kingdom"]}, "categories": [{"id": "4bf58dd8d48988d10f941735", "name": "Indian Restaurant", "pluralName": "Indian Restaurants", "shortName": "Indian", "icon": {"prefix": "https://ss3.4sqi.net/img/categories_v2/food/indian_", "suffix": ".png"}, "primary": true}], "photos": {"count": 0, "groups": []}}, "referralId": "e-0-50ba7ca3e4b07e5a1606247e-24"}, {"reasons": {"count": 0, "items": [{"summary": "This spot is popular", "type": "general", "reasonName": "globalInteractionReason"}]}, "venue": {"id": "5bd5ec1993bd63002cee87c9", "name": "Dum Dum Donutterie", "location": {"address": "Westfield London", "crossStreet": "Ariel way", "lat": 51.50796, "lng": -0.22129096, "labeledLatLngs": [{"label": "display", "lat": 51.50796, "lng": -0.22129096}], "distance": 350, "postalCode": "W12 7GF", "cc": "GB", "city": "Shepherds Bush", "state": "Greater London", "country": "United Kingdom", "formattedAddress": ["Westfield London (Ariel way)", "Shepherds Bush", "Greater London", "W12 7GF", "United Kingdom"]}, "categories": [{"id": "4bf58dd8d48988d148941735", "name": "Donut Shop", "pluralName": "Donut Shops", "shortName": "Donuts", "icon": {"prefix": "https://ss3.4sqi.net/img/categories_v2/food/donuts_", "suffix": ".png"}, "primary": true}], "photos": {"count": 0, "groups": []}}, "referralId": "e-0-5bd5ec1993bd63002cee87c9-25"}, {"reasons": {"count": 0, "items": [{"summary": "This spot is popular", "type": "general", "reasonName": "globalInteractionReason"}]}, "venue": {"id": "51aa26ea498e120ea14eb143", "name": "Chi Wok", "location": {"address": "Westfield London", "crossStreet": "Level -2", "lat": 51.508315, "lng": -0.223902, "labeledLatLngs": [{"label": "display", "lat": 51.508315, "lng": -0.223902}], "distance": 278, "postalCode": "W12 7SL", "cc": "GB", "city": "Shepherds Bush", "state": "Greater London", "country": "United Kingdom", "formattedAddress": ["Westfield London (Level -2)", "Shepherds Bush", "Greater London", "W12 7SL", "United Kingdom"]}, "categories": [{"id": "4bf58dd8d48988d142941735", "name": "Asian Restaurant", "pluralName": "Asian Restaurants", "shortName": "Asian", "icon": {"prefix": "https://ss3.4sqi.net/img/categories_v2/food/asian_", "suffix": ".png"}, "primary": true}], "photos": {"count": 0, "groups": []}}, "referralId": "e-0-51aa26ea498e120ea14eb143-26"}]}]}}