{"meta": {"code": 200, "requestId": "5feddad7e73c1a674a03d086"}, "response": {"suggestedFilters": {"header": "Tap to show:", "filters": [{"name": "Open now", "key": "openNow"}]}, "headerLocation": "Hackney", "headerFullLocation": "Hackney, London", "headerLocationGranularity": "neighborhood", "query": "arts entertainment", "totalResults": 8, "suggestedBounds": {"ne": {"lat": 51.5336550036, "lng": -0.07208598533864347}, "sw": {"lat": 51.52645499639999, "lng": -0.08363801466135654}}, "groups": [{"type": "Recommended Places", "name": "recommended", "items": [{"reasons": {"count": 0, "items": [{"summary": "This spot is popular", "type": "general", "reasonName": "globalInteractionReason"}]}, "venue": {"id": "4ad046f3f964a520cbd720e3", "name": "theprintspace", "location": {"address": "74 Kingsland Road", "lat": 51.52940473953908, "lng": -0.07754408999996312, "labeledLatLngs": [{"label": "display", "lat": 51.52940473953908, "lng": -0.07754408999996312}], "distance": 75, "postalCode": "E2 8DL", "cc": "GB", "city": "London", "state": "Greater London", "country": "United Kingdom", "formattedAddress": ["74 Kingsland Road", "London", "Greater London", "E2 8DL", "United Kingdom"]}, "categories": [{"id": "4bf58dd8d48988d1e2931735", "name": "Art Gallery", "pluralName": "Art Galleries", "shortName": "Art Gallery", "icon": {"prefix": "https://ss3.4sqi.net/img/categories_v2/arts_entertainment/artgallery_", "suffix": ".png"}, "primary": true}], "photos": {"count": 0, "groups": []}, "venuePage": {"id": "38734595"}}, "referralId": "e-0-4ad046f3f964a520cbd720e3-0"}, {"reasons": {"count": 0, "items": [{"summary": "This spot is popular", "type": "general", "reasonName": "globalInteractionReason"}]}, "venue": {"id": "4ac518ebf964a52032ac20e3", "name": "Hoxton Hall", "location": {"address": "130 Hoxton St", "lat": 51.5318281091589, "lng": -0.07987574837604071, "labeledLatLngs": [{"label": "display", "lat": 51.5318281091589, "lng": -0.07987574837604071}], "distance": 241, "postalCode": "N1 6SH", "cc": "GB", "neighborhood": "Hackney", "city": "London", "state": "Greater London", "country": "United Kingdom", "formattedAddress": ["130 Hoxton St", "London", "Greater London", "N1 6SH", "United Kingdom"]}, "categories": [{"id": "4bf58dd8d48988d137941735", "name": "Theater", "pluralName": "Theaters", "shortName": "Theater", "icon": {"prefix": "https://ss3.4sqi.net/img/categories_v2/arts_entertainment/performingarts_theater_", "suffix": ".png"}, "primary": true}], "photos": {"count": 0, "groups": []}}, "referralId": "e-0-4ac518ebf964a52032ac20e3-1"}, {"reasons": {"count": 0, "items": [{"summary": "This spot is popular", "type": "general", "reasonName": "globalInteractionReason"}]}, "venue": {"id": "4ad6e877f964a5205f0821e3", "name": "Shoreditch Town Hall", "location": {"address": "380 Old St", "lat": 51.52697526994846, "lng": -0.07917344570159912, "labeledLatLngs": [{"label": "display", "lat": 51.52697526994846, "lng": -0.07917344570159912}], "distance": 354, "postalCode": "EC1V 9LT", "cc": "GB", "city": "Shoreditch", "state": "Greater London", "country": "United Kingdom", "formattedAddress": ["380 Old St", "Shoreditch", "Greater London", "EC1V 9LT", "United Kingdom"]}, "categories": [{"id": "4bf58dd8d48988d1f2931735", "name": "Performing Arts Venue", "pluralName": "Performing Arts Venues", "shortName": "Performing Arts", "icon": {"prefix": "https://ss3.4sqi.net/img/categories_v2/arts_entertainment/performingarts_", "suffix": ".png"}, "primary": true}], "photos": {"count": 0, "groups": []}}, "referralId": "e-0-4ad6e877f964a5205f0821e3-2"}, {"reasons": {"count": 0, "items": [{"summary": "This spot is popular", "type": "general", "reasonName": "globalInteractionReason"}]}, "venue": {"id": "4cc2ce39bde8f04d90a7a04b", "name": "Flowers", "location": {"address": "82 Kingsland Road", "lat": 51.52970533709714, "lng": -0.07731842627016952, "labeledLatLngs": [{"label": "display", "lat": 51.52970533709714, "lng": -0.07731842627016952}], "distance": 54, "postalCode": "E2 8DP", "cc": "GB", "city": "Hackney", "state": "Greater London", "country": "United Kingdom", "formattedAddress": ["82 Kingsland Road", "Hackney", "Greater London", "E2 8DP", "United Kingdom"]}, "categories": [{"id": "4bf58dd8d48988d1e2931735", "name": "Art Gallery", "pluralName": "Art Galleries", "shortName": "Art Gallery", "icon": {"prefix": "https://ss3.4sqi.net/img/categories_v2/arts_entertainment/artgallery_", "suffix": ".png"}, "primary": true}], "photos": {"count": 0, "groups": []}}, "referralId": "e-0-4cc2ce39bde8f04d90a7a04b-3"}, {"reasons": {"count": 0, "items": [{"summary": "This spot is popular", "type": "general", "reasonName": "globalInteractionReason"}]}, "venue": {"id": "4ac518c6f964a52016a520e3", "name": "The Macbeth", "location": {"address": "70 Hoxton St", "lat": 51.53014148695542, "lng": -0.08015701681055523, "labeledLatLngs": [{"label": "display", "lat": 51.53014148695542, "lng": -0.08015701681055523}], "distance": 159, "postalCode": "N1 6LP", "cc": "GB", "neighborhood": "Hackney", "city": "London", "state": "Greater London", "country": "United Kingdom", "formattedAddress": ["70 Hoxton St", "London", "Greater London", "N1 6LP", "United Kingdom"]}, "categories": [{"id": "4bf58dd8d48988d1e9931735", "name": "Rock Club", "pluralName": "Rock Clubs", "shortName": "Rock Club", "icon": {"prefix": "https://ss3.4sqi.net/img/categories_v2/arts_entertainment/musicvenue_rockclub_", "suffix": ".png"}, "primary": true}], "photos": {"count": 0, "groups": []}}, "referralId": "e-0-4ac518c6f964a52016a520e3-4"}, {"reasons": {"count": 0, "items": [{"summary": "This spot is popular", "type": "general", "reasonName": "globalInteractionReason"}]}, "venue": {"id": "538e7e43498ecf4f981a9e33", "name": "Hoxton Arches", "location": {"lat": 51.53063801669472, "lng": -0.076012543472897, "labeledLatLngs": [{"label": "display", "lat": 51.53063801669472, "lng": -0.076012543472897}], "distance": 143, "cc": "GB", "city": "London", "state": "Greater London", "country": "United Kingdom", "formattedAddress": ["London", "Greater London", "United Kingdom"]}, "categories": [{"id": "4bf58dd8d48988d1e2931735", "name": "Art Gallery", "pluralName": "Art Galleries", "shortName": "Art Gallery", "icon": {"prefix": "https://ss3.4sqi.net/img/categories_v2/arts_entertainment/artgallery_", "suffix": ".png"}, "primary": true}], "photos": {"count": 0, "groups": []}}, "referralId": "e-0-538e7e43498ecf4f981a9e33-5"}, {"reasons": {"count": 0, "items": [{"summary": "This spot is popular", "type": "general", "reasonName": "globalInteractionReason"}]}, "venue": {"id": "4ead83686da1a0e3a4833851", "name": "Arch 402 Gallery", "location": {"address": "37 Cremer St.", "lat": 51.53067758972827, "lng": -0.07596972548821296, "labeledLatLngs": [{"label": "display", "lat": 51.53067758972827, "lng": -0.07596972548821296}], "distance": 148, "postalCode": "E2 8HD", "cc": "GB", "city": "Hackney", "state": "Greater London", "country": "United Kingdom", "formattedAddress": ["37 Cremer St.", "Hackney", "Greater London", "E2 8HD", "United Kingdom"]}, "categories": [{"id": "4bf58dd8d48988d1e2931735", "name": "Art Gallery", "pluralName": "Art Galleries", "shortName": "Art Gallery", "icon": {"prefix": "https://ss3.4sqi.net/img/categories_v2/arts_entertainment/artgallery_", "suffix": ".png"}, "primary": true}], "photos": {"count": 0, "groups": []}}, "referralId": "e-0-4ead83686da1a0e3a4833851-6"}, {"reasons": {"count": 0, "items": [{"summary": "This spot is popular", "type": "general", "reasonName": "globalInteractionReason"}]}, "venue": {"id": "4bec4fad976ac92844d3600b", "name": "Hoxton Square Projects", "location": {"address": "20 Hoxton Sq", "lat": 51.52815871489833, "lng": -0.08114379670587368, "labeledLatLngs": [{"label": "display", "lat": 51.52815871489833, "lng": -0.08114379670587368}], "distance": 310, "postalCode": "N1 6PA", "cc": "GB", "city": "London", "state": "Greater London", "country": "United Kingdom", "formattedAddress": ["20 Hoxton Sq", "London", "Greater London", "N1 6PA", "United Kingdom"]}, "categories": [{"id": "4bf58dd8d48988d1e2931735", "name": "Art Gallery", "pluralName": "Art Galleries", "shortName": "Art Gallery", "icon": {"prefix": "https://ss3.4sqi.net/img/categories_v2/arts_entertainment/artgallery_", "suffix": ".png"}, "primary": true}], "photos": {"count": 0, "groups": []}}, "referralId": "e-0-4bec4fad976ac92844d3600b-7"}]}]}}