{"meta": {"code": 200, "requestId": "5feddc004536486d2a4d2ecb"}, "response": {"suggestedFilters": {"header": "Tap to show:", "filters": [{"name": "Open now", "key": "openNow"}]}, "headerLocation": "Clerkenwell", "headerFullLocation": "Clerkenwell, London", "headerLocationGranularity": "neighborhood", "query": "food", "totalResults": 55, "suggestedBounds": {"ne": {"lat": 51.529380003600004, "lng": -0.10770452765236324}, "sw": {"lat": 51.52217999639999, "lng": -0.11925547234763675}}, "groups": [{"type": "Recommended Places", "name": "recommended", "items": [{"reasons": {"count": 0, "items": [{"summary": "This spot is popular", "type": "general", "reasonName": "globalInteractionReason"}]}, "venue": {"id": "5ac4c2913d47911cdd1b7e52", "name": "GReat", "location": {"address": "98 Farringdon Rd", "lat": 51.52477710405427, "lng": -0.11033643363325675, "labeledLatLngs": [{"label": "display", "lat": 51.52477710405427, "lng": -0.11033643363325675}], "distance": 244, "postalCode": "EC1R 3EA", "cc": "GB", "city": "London", "state": "Greater London", "country": "United Kingdom", "formattedAddress": ["98 Farringdon Rd", "London", "Greater London", "EC1R 3EA", "United Kingdom"]}, "categories": [{"id": "52e81612bcbc57f1066b79f3", "name": "Souvlaki Shop", "pluralName": "Souvlaki Shops", "shortName": "Souvlaki", "icon": {"prefix": "https://ss3.4sqi.net/img/categories_v2/food/souvlaki_", "suffix": ".png"}, "primary": true}], "photos": {"count": 0, "groups": []}}, "referralId": "e-0-5ac4c2913d47911cdd1b7e52-0"}, {"reasons": {"count": 0, "items": [{"summary": "This spot is popular", "type": "general", "reasonName": "globalInteractionReason"}]}, "venue": {"id": "4b7e8b1bf964a520eef12fe3", "name": "Caravan", "location": {"address": "11 Exmouth Market", "lat": 51.52537572822253, "lng": -0.11021857350093797, "labeledLatLngs": [{"label": "display", "lat": 51.52537572822253, "lng": -0.11021857350093797}], "distance": 230, "postalCode": "EC1R 4QD", "cc": "GB", "city": "London", "state": "Greater London", "country": "United Kingdom", "formattedAddress": ["11 Exmouth Market", "London", "Greater London", "EC1R 4QD", "United Kingdom"]}, "categories": [{"id": "4bf58dd8d48988d143941735", "name": "Breakfast Spot", "pluralName": "Breakfast Spots", "shortName": "Breakfast", "icon": {"prefix": "https://ss3.4sqi.net/img/categories_v2/food/breakfast_", "suffix": ".png"}, "primary": true}], "photos": {"count": 0, "groups": []}}, "referralId": "e-0-4b7e8b1bf964a520eef12fe3-1"}, {"reasons": {"count": 0, "items": [{"summary": "This spot is popular", "type": "general", "reasonName": "globalInteractionReason"}]}, "venue": {"id": "5c3e978dc530930039e733d9", "name": "Great Bakery & Deli", "location": {"address": "167-169 Farringdon road", "crossStreet": "Topham street", "lat": 51.52441, "lng": -0.11007585, "labeledLatLngs": [{"label": "display", "lat": 51.52441, "lng": -0.11007585}], "distance": 280, "postalCode": "EC1R 3AL", "cc": "GB", "neighborhood": "Clerkenwell", "city": "London", "state": "Greater London", "country": "United Kingdom", "formattedAddress": ["167-169 Farringdon road (Topham street)", "London", "Greater London", "EC1R 3AL", "United Kingdom"]}, "categories": [{"id": "4bf58dd8d48988d16a941735", "name": "Bakery", "pluralName": "Bakeries", "shortName": "Bakery", "icon": {"prefix": "https://ss3.4sqi.net/img/categories_v2/food/bakery_", "suffix": ".png"}, "primary": true}], "photos": {"count": 0, "groups": []}}, "referralId": "e-0-5c3e978dc530930039e733d9-2"}, {"reasons": {"count": 0, "items": [{"summary": "This spot is popular", "type": "general", "reasonName": "globalInteractionReason"}]}, "venue": {"id": "4ac518d6f964a52044a820e3", "name": "Quality Chop House", "location": {"address": "94 Farringdon Rd", "lat": 51.524743857875976, "lng": -0.11026961013430682, "labeledLatLngs": [{"label": "display", "lat": 51.524743857875976, "lng": -0.11026961013430682}], "distance": 250, "postalCode": "EC1R 3EA", "cc": "GB", "city": "London", "state": "Greater London", "country": "United Kingdom", "formattedAddress": ["94 Farringdon Rd", "London", "Greater London", "EC1R 3EA", "United Kingdom"]}, "categories": [{"id": "4bf58dd8d48988d1cc941735", "name": "Steakhouse", "pluralName": "Steakhouses", "shortName": "Steakhouse", "icon": {"prefix": "https://ss3.4sqi.net/img/categories_v2/food/steakhouse_", "suffix": ".png"}, "primary": true}], "photos": {"count": 0, "groups": []}}, "referralId": "e-0-4ac518d6f964a52044a820e3-3"}, {"reasons": {"count": 0, "items": [{"summary": "This spot is popular", "type": "general", "reasonName": "globalInteractionReason"}]}, "venue": {"id": "4c7fc0941415b713dd39035d", "name": "Morito", "location": {"address": "32 Exmouth Market", "crossStreet": "Roseberry Ave", "lat": 51.525791, "lng": -0.109069, "labeledLatLngs": [{"label": "display", "lat": 51.525791, "lng": -0.109069}], "distance": 305, "postalCode": "EC1R 4QE", "cc": "GB", "city": "London", "state": "Greater London", "country": "United Kingdom", "formattedAddress": ["32 Exmouth Market (Roseberry Ave)", "London", "Greater London", "EC1R 4QE", "United Kingdom"]}, "categories": [{"id": "4bf58dd8d48988d1db931735", "name": "Tapas Restaurant", "pluralName": "Tapas Restaurants", "shortName": "Tapas", "icon": {"prefix": "https://ss3.4sqi.net/img/categories_v2/food/tapas_", "suffix": ".png"}, "primary": true}], "photos": {"count": 0, "groups": []}, "venuePage": {"id": "94891625"}}, "referralId": "e-0-4c7fc0941415b713dd39035d-4"}, {"reasons": {"count": 0, "items": [{"summary": "This spot is popular", "type": "general", "reasonName": "globalInteractionReason"}]}, "venue": {"id": "504b8cc2e4b08bf9e9d9ac9c", "name": "Otto's French Restaurant", "location": {"address": "182 Grays Inn Rd", "lat": 51.52286668054787, "lng": -0.11429820215742446, "labeledLatLngs": [{"label": "display", "lat": 51.52286668054787, "lng": -0.11429820215742446}], "distance": 329, "postalCode": "WC1X 8EW", "cc": "GB", "city": "London", "state": "Greater London", "country": "United Kingdom", "formattedAddress": ["182 Grays Inn Rd", "London", "Greater London", "WC1X 8EW", "United Kingdom"]}, "categories": [{"id": "4bf58dd8d48988d10c941735", "name": "French Restaurant", "pluralName": "French Restaurants", "shortName": "French", "icon": {"prefix": "https://ss3.4sqi.net/img/categories_v2/food/french_", "suffix": ".png"}, "primary": true}], "photos": {"count": 0, "groups": []}}, "referralId": "e-0-504b8cc2e4b08bf9e9d9ac9c-5"}, {"reasons": {"count": 0, "items": [{"summary": "This spot is popular", "type": "general", "reasonName": "globalInteractionReason"}]}, "venue": {"id": "5777b7f6498ec5cc16dce198", "name": "Berber & Q Shawarma Bar", "location": {"address": "46 Exmouth Market", "lat": 51.525978, "lng": -0.108703, "labeledLatLngs": [{"label": "display", "lat": 51.525978, "lng": -0.108703}], "distance": 331, "postalCode": "EC1R 4QE", "cc": "GB", "city": "London", "state": "Greater London", "country": "United Kingdom", "formattedAddress": ["46 Exmouth Market", "London", "Greater London", "EC1R 4QE", "United Kingdom"]}, "categories": [{"id": "4bf58dd8d48988d115941735", "name": "Middle Eastern Restaurant", "pluralName": "Middle Eastern Restaurants", "shortName": "Middle Eastern", "icon": {"prefix": "https://ss3.4sqi.net/img/categories_v2/food/middleeastern_", "suffix": ".png"}, "primary": true}], "photos": {"count": 0, "groups": []}}, "referralId": "e-0-5777b7f6498ec5cc16dce198-6"}, {"reasons": {"count": 0, "items": [{"summary": "This spot is popular", "type": "general", "reasonName": "globalInteractionReason"}]}, "venue": {"id": "4b1abecff964a520d7f023e3", "name": "Santore", "location": {"address": "59-61 Exmouth Market", "lat": 51.526238, "lng": -0.108575, "labeledLatLngs": [{"label": "display", "lat": 51.526238, "lng": -0.108575}], "distance": 343, "postalCode": "EC1R 4QL", "cc": "GB", "city": "Clerkenwell", "state": "Greater London", "country": "United Kingdom", "formattedAddress": ["59-61 Exmouth Market", "Clerkenwell", "Greater London", "EC1R 4QL", "United Kingdom"]}, "categories": [{"id": "4bf58dd8d48988d1ca941735", "name": "Pizza Place", "pluralName": "Pizza Places", "shortName": "Pizza", "icon": {"prefix": "https://ss3.4sqi.net/img/categories_v2/food/pizza_", "suffix": ".png"}, "primary": true}], "photos": {"count": 0, "groups": []}}, "referralId": "e-0-4b1abecff964a520d7f023e3-7"}, {"reasons": {"count": 0, "items": [{"summary": "This spot is popular", "type": "general", "reasonName": "globalInteractionReason"}]}, "venue": {"id": "4cea7755f1c6236a31d36af0", "name": "GAIL's Bakery", "location": {"address": "33-35 Exmouth Market", "lat": 51.525886040604824, "lng": -0.10926886059568508, "labeledLatLngs": [{"label": "display", "lat": 51.525886040604824, "lng": -0.10926886059568508}], "distance": 291, "postalCode": "EC1R 4QL", "cc": "GB", "city": "Clerkenwell", "state": "Greater London", "country": "United Kingdom", "formattedAddress": ["33-35 Exmouth Market", "Clerkenwell", "Greater London", "EC1R 4QL", "United Kingdom"]}, "categories": [{"id": "4bf58dd8d48988d16a941735", "name": "Bakery", "pluralName": "Bakeries", "shortName": "Bakery", "icon": {"prefix": "https://ss3.4sqi.net/img/categories_v2/food/bakery_", "suffix": ".png"}, "primary": true}], "photos": {"count": 0, "groups": []}}, "referralId": "e-0-4cea7755f1c6236a31d36af0-8"}, {"reasons": {"count": 0, "items": [{"summary": "This spot is popular", "type": "general", "reasonName": "globalInteractionReason"}]}, "venue": {"id": "4ac518d5f964a520f0a720e3", "name": "Moro", "location": {"address": "34-36 Exmouth Market", "lat": 51.525835, "lng": -0.10898, "labeledLatLngs": [{"label": "display", "lat": 51.525835, "lng": -0.10898}], "distance": 311, "postalCode": "EC1R 4QE", "cc": "GB", "city": "Clerkenwell", "state": "Greater London", "country": "United Kingdom", "formattedAddress": ["34-36 Exmouth Market", "Clerkenwell", "Greater London", "EC1R 4QE", "United Kingdom"]}, "categories": [{"id": "4bf58dd8d48988d150941735", "name": "Spanish Restaurant", "pluralName": "Spanish Restaurants", "shortName": "Spanish", "icon": {"prefix": "https://ss3.4sqi.net/img/categories_v2/food/spanish_", "suffix": ".png"}, "primary": true}], "photos": {"count": 0, "groups": []}, "venuePage": {"id": "95015731"}}, "referralId": "e-0-4ac518d5f964a520f0a720e3-9"}, {"reasons": {"count": 0, "items": [{"summary": "This spot is popular", "type": "general", "reasonName": "globalInteractionReason"}]}, "venue": {"id": "4b924661f964a52073ef33e3", "name": "Cafe Maya", "location": {"address": "114 Farringdon Rd", "crossStreet": "Rosebery Ave", "lat": 51.525266, "lng": -0.110704, "labeledLatLngs": [{"label": "display", "lat": 51.525266, "lng": -0.110704}], "distance": 200, "postalCode": "EC1R 3AP", "cc": "GB", "city": "Clerkenwell", "state": "Greater London", "country": "United Kingdom", "formattedAddress": ["114 Farringdon Rd (Rosebery Ave)", "Clerkenwell", "Greater London", "EC1R 3AP", "United Kingdom"]}, "categories": [{"id": "4bf58dd8d48988d16d941735", "name": "Caf\u00e9", "pluralName": "Caf\u00e9s", "shortName": "Caf\u00e9", "icon": {"prefix": "https://ss3.4sqi.net/img/categories_v2/food/cafe_", "suffix": ".png"}, "primary": true}], "photos": {"count": 0, "groups": []}}, "referralId": "e-0-4b924661f964a52073ef33e3-10"}, {"reasons": {"count": 0, "items": [{"summary": "This spot is popular", "type": "general", "reasonName": "globalInteractionReason"}]}, "venue": {"id": "51d8604f498eb1cf1b91bbee", "name": "Paesan", "location": {"address": "2 Exmouth Market", "lat": 51.525055, "lng": -0.110341, "labeledLatLngs": [{"label": "display", "lat": 51.525055, "lng": -0.110341}], "distance": 231, "postalCode": "EC1R 4PX", "cc": "GB", "city": "London", "state": "Greater London", "country": "United Kingdom", "formattedAddress": ["2 Exmouth Market", "London", "Greater London", "EC1R 4PX", "United Kingdom"]}, "categories": [{"id": "4bf58dd8d48988d110941735", "name": "Italian Restaurant", "pluralName": "Italian Restaurants", "shortName": "Italian", "icon": {"prefix": "https://ss3.4sqi.net/img/categories_v2/food/italian_", "suffix": ".png"}, "primary": true}], "photos": {"count": 0, "groups": []}}, "referralId": "e-0-51d8604f498eb1cf1b91bbee-11"}, {"reasons": {"count": 0, "items": [{"summary": "This spot is popular", "type": "general", "reasonName": "globalInteractionReason"}]}, "venue": {"id": "55ca3ea7498e8da390d75eae", "name": "Macellaio", "location": {"address": "38-40 Exmouth Market", "lat": 51.525887, "lng": -0.10887, "labeledLatLngs": [{"label": "display", "lat": 51.525887, "lng": -0.10887}], "distance": 319, "postalCode": "EC1R 4QE", "cc": "GB", "city": "London", "state": "Greater London", "country": "United Kingdom", "formattedAddress": ["38-40 Exmouth Market", "London", "Greater London", "EC1R 4QE", "United Kingdom"]}, "categories": [{"id": "4bf58dd8d48988d110941735", "name": "Italian Restaurant", "pluralName": "Italian Restaurants", "shortName": "Italian", "icon": {"prefix": "https://ss3.4sqi.net/img/categories_v2/food/italian_", "suffix": ".png"}, "primary": true}], "photos": {"count": 0, "groups": []}}, "referralId": "e-0-55ca3ea7498e8da390d75eae-12"}, {"reasons": {"count": 0, "items": [{"summary": "This spot is popular", "type": "general", "reasonName": "globalInteractionReason"}]}, "venue": {"id": "564a1397498eafe198d60465", "name": "Pizza Pilgrims", "location": {"address": "15 Exmouth Market", "lat": 51.525435583601876, "lng": -0.11004507234829851, "labeledLatLngs": [{"label": "display", "lat": 51.525435583601876, "lng": -0.11004507234829851}], "distance": 240, "cc": "GB", "city": "London", "country": "United Kingdom", "formattedAddress": ["15 Exmouth Market", "London", "United Kingdom"]}, "categories": [{"id": "4bf58dd8d48988d1ca941735", "name": "Pizza Place", "pluralName": "Pizza Places", "shortName": "Pizza", "icon": {"prefix": "https://ss3.4sqi.net/img/categories_v2/food/pizza_", "suffix": ".png"}, "primary": true}], "photos": {"count": 0, "groups": []}}, "referralId": "e-0-564a1397498eafe198d60465-13"}, {"reasons": {"count": 0, "items": [{"summary": "This spot is popular", "type": "general", "reasonName": "globalInteractionReason"}]}, "venue": {"id": "5a21b36151950e7abb200fda", "name": "The Drunken Butler", "location": {"lat": 51.523719, "lng": -0.111336, "labeledLatLngs": [{"label": "display", "lat": 51.523719, "lng": -0.111336}], "distance": 273, "postalCode": "EC1R 4SP", "cc": "GB", "city": "London", "state": "Greater London", "country": "United Kingdom", "formattedAddress": ["London", "Greater London", "EC1R 4SP", "United Kingdom"]}, "categories": [{"id": "4bf58dd8d48988d10c941735", "name": "French Restaurant", "pluralName": "French Restaurants", "shortName": "French", "icon": {"prefix": "https://ss3.4sqi.net/img/categories_v2/food/french_", "suffix": ".png"}, "primary": true}], "photos": {"count": 0, "groups": []}}, "referralId": "e-0-5a21b36151950e7abb200fda-14"}, {"reasons": {"count": 0, "items": [{"summary": "This spot is popular", "type": "general", "reasonName": "globalInteractionReason"}]}, "venue": {"id": "554365eb498ebbef163e0ea0", "name": "La Ferme", "location": {"address": "104, 102 Farringdon Rd", "lat": 51.524828873351964, "lng": -0.11048147256951492, "labeledLatLngs": [{"label": "display", "lat": 51.524828873351964, "lng": -0.11048147256951492}], "distance": 233, "postalCode": "EC1R 3EA", "cc": "GB", "neighborhood": "Farringdon", "city": "London", "state": "Greater London", "country": "United Kingdom", "formattedAddress": ["104, 102 Farringdon Rd", "London", "Greater London", "EC1R 3EA", "United Kingdom"]}, "categories": [{"id": "4bf58dd8d48988d10c941735", "name": "French Restaurant", "pluralName": "French Restaurants", "shortName": "French", "icon": {"prefix": "https://ss3.4sqi.net/img/categories_v2/food/french_", "suffix": ".png"}, "primary": true}], "photos": {"count": 0, "groups": []}}, "referralId": "e-0-554365eb498ebbef163e0ea0-15"}, {"reasons": {"count": 0, "items": [{"summary": "This spot is popular", "type": "general", "reasonName": "globalInteractionReason"}]}, "venue": {"id": "510938bee4b09ed7db3ef972", "name": "Gray's Inn Food", "location": {"address": "202 Grays Inn Rd", "lat": 51.52298679315564, "lng": -0.11449331603682857, "labeledLatLngs": [{"label": "display", "lat": 51.52298679315564, "lng": -0.11449331603682857}], "distance": 318, "cc": "GB", "city": "Islington", "state": "Greater London", "country": "United Kingdom", "formattedAddress": ["202 Grays Inn Rd", "Islington", "Greater London", "United Kingdom"]}, "categories": [{"id": "4bf58dd8d48988d16d941735", "name": "Caf\u00e9", "pluralName": "Caf\u00e9s", "shortName": "Caf\u00e9", "icon": {"prefix": "https://ss3.4sqi.net/img/categories_v2/food/cafe_", "suffix": ".png"}, "primary": true}], "photos": {"count": 0, "groups": []}}, "referralId": "e-0-510938bee4b09ed7db3ef972-16"}, {"reasons": {"count": 0, "items": [{"summary": "This spot is popular", "type": "general", "reasonName": "globalInteractionReason"}]}, "venue": {"id": "555a56d3498ee9e1eb77a1b0", "name": "Kitchen8", "location": {"address": "17 Elm Street", "crossStreet": "Gray's Inn Road", "lat": 51.52268996624528, "lng": -0.1140042853799705, "labeledLatLngs": [{"label": "display", "lat": 51.52268996624528, "lng": -0.1140042853799705}], "distance": 345, "postalCode": "WC1X 0BQ", "cc": "GB", "city": "London", "state": "Greater London", "country": "United Kingdom", "formattedAddress": ["17 Elm Street (Gray's Inn Road)", "London", "Greater London", "WC1X 0BQ", "United Kingdom"]}, "categories": [{"id": "4bf58dd8d48988d1bd941735", "name": "Salad Place", "pluralName": "Salad Places", "shortName": "Salad", "icon": {"prefix": "https://ss3.4sqi.net/img/categories_v2/food/salad_", "suffix": ".png"}, "primary": true}], "photos": {"count": 0, "groups": []}}, "referralId": "e-0-555a56d3498ee9e1eb77a1b0-17"}, {"reasons": {"count": 0, "items": [{"summary": "This spot is popular", "type": "general", "reasonName": "globalInteractionReason"}]}, "venue": {"id": "4acdd935f964a5203ccd20e3", "name": "Spinach & Agushi", "location": {"address": "Exmouth Market", "lat": 51.52528807411442, "lng": -0.11034841128897821, "labeledLatLngs": [{"label": "display", "lat": 51.52528807411442, "lng": -0.11034841128897821}], "distance": 223, "postalCode": "E C1R", "cc": "GB", "city": "London", "state": "Greater London", "country": "United Kingdom", "formattedAddress": ["Exmouth Market", "London", "Greater London", "E C1R", "United Kingdom"]}, "categories": [{"id": "4bf58dd8d48988d1c8941735", "name": "African Restaurant", "pluralName": "African Restaurants", "shortName": "African", "icon": {"prefix": "https://ss3.4sqi.net/img/categories_v2/food/african_", "suffix": ".png"}, "primary": true}], "photos": {"count": 0, "groups": []}}, "referralId": "e-0-4acdd935f964a5203ccd20e3-18"}, {"reasons": {"count": 0, "items": [{"summary": "This spot is popular", "type": "general", "reasonName": "globalInteractionReason"}]}, "venue": {"id": "5810ffba38fa82d3eeca7baa", "name": "Panzo", "location": {"address": "50 Exmouth Market", "lat": 51.526037659915836, "lng": -0.10851876854703853, "labeledLatLngs": [{"label": "display", "lat": 51.526037659915836, "lng": -0.10851876854703853}], "distance": 344, "postalCode": "E C1R", "cc": "GB", "neighborhood": "Clerkenwell", "city": "London", "state": "Greater London", "country": "United Kingdom", "formattedAddress": ["50 Exmouth Market", "London", "Greater London", "E C1R", "United Kingdom"]}, "categories": [{"id": "4bf58dd8d48988d1ca941735", "name": "Pizza Place", "pluralName": "Pizza Places", "shortName": "Pizza", "icon": {"prefix": "https://ss3.4sqi.net/img/categories_v2/food/pizza_", "suffix": ".png"}, "primary": true}], "photos": {"count": 0, "groups": []}}, "referralId": "e-0-5810ffba38fa82d3eeca7baa-19"}, {"reasons": {"count": 0, "items": [{"summary": "This spot is popular", "type": "general", "reasonName": "globalInteractionReason"}]}, "venue": {"id": "54ed9851498e1711064f04a6", "name": "Printworks Kitchen", "location": {"address": "20 Rosebery Avenue", "lat": 51.523693081447504, "lng": -0.11127175396728099, "labeledLatLngs": [{"label": "display", "lat": 51.523693081447504, "lng": -0.11127175396728099}], "distance": 278, "postalCode": "EC1R 4SX", "cc": "GB", "country": "United Kingdom", "formattedAddress": ["20 Rosebery Avenue", "EC1R 4SX", "United Kingdom"]}, "categories": [{"id": "4c2cd86ed066bed06c3c5209", "name": "Gluten-free Restaurant", "pluralName": "Gluten-free Restaurants", "shortName": "Gluten-free", "icon": {"prefix": "https://ss3.4sqi.net/img/categories_v2/food/glutenfree_", "suffix": ".png"}, "primary": true}], "photos": {"count": 0, "groups": []}}, "referralId": "e-0-54ed9851498e1711064f04a6-20"}, {"reasons": {"count": 0, "items": [{"summary": "This spot is popular", "type": "general", "reasonName": "globalInteractionReason"}]}, "venue": {"id": "4b575f73f964a520483428e3", "name": "L'Osteria 57", "location": {"address": "57 Grays Inn Rd", "crossStreet": "Northington St", "lat": 51.522302252524746, "lng": -0.11391247453725889, "labeledLatLngs": [{"label": "display", "lat": 51.522302252524746, "lng": -0.11391247453725889}], "distance": 388, "postalCode": "WC1X 8PP", "cc": "GB", "city": "London", "state": "Greater London", "country": "United Kingdom", "formattedAddress": ["57 Grays Inn Rd (Northington St)", "London", "Greater London", "WC1X 8PP", "United Kingdom"]}, "categories": [{"id": "4bf58dd8d48988d110941735", "name": "Italian Restaurant", "pluralName": "Italian Restaurants", "shortName": "Italian", "icon": {"prefix": "https://ss3.4sqi.net/img/categories_v2/food/italian_", "suffix": ".png"}, "primary": true}], "photos": {"count": 0, "groups": []}}, "referralId": "e-0-4b575f73f964a520483428e3-21"}, {"reasons": {"count": 0, "items": [{"summary": "This spot is popular", "type": "general", "reasonName": "globalInteractionReason"}]}, "venue": {"id": "4bc06f822a89ef3bf47cf088", "name": "La Provence", "location": {"address": "63 Gray's Inn Rd", "lat": 51.52248244029742, "lng": -0.11399148232833337, "labeledLatLngs": [{"label": "display", "lat": 51.52248244029742, "lng": -0.11399148232833337}], "distance": 368, "postalCode": "WC1", "cc": "GB", "city": "London", "state": "Greater London", "country": "United Kingdom", "formattedAddress": ["63 Gray's Inn Rd", "London", "Greater London", " WC1", "United Kingdom"]}, "categories": [{"id": "4bf58dd8d48988d16d941735", "name": "Caf\u00e9", "pluralName": "Caf\u00e9s", "shortName": "Caf\u00e9", "icon": {"prefix": "https://ss3.4sqi.net/img/categories_v2/food/cafe_", "suffix": ".png"}, "primary": true}], "photos": {"count": 0, "groups": []}}, "referralId": "e-0-4bc06f822a89ef3bf47cf088-22"}, {"reasons": {"count": 0, "items": [{"summary": "This spot is popular", "type": "general", "reasonName": "globalInteractionReason"}]}, "venue": {"id": "4b291009f964a520079824e3", "name": "Food Bazaar", "location": {"address": "59 Gray's Inn Rd", "crossStreet": "Northington St", "lat": 51.52231146847659, "lng": -0.11400266970925949, "labeledLatLngs": [{"label": "display", "lat": 51.52231146847659, "lng": -0.11400266970925949}], "distance": 387, "postalCode": "WC1X 8TL", "cc": "GB", "city": "London", "state": "Greater London", "country": "United Kingdom", "formattedAddress": ["59 Gray's Inn Rd (Northington St)", "London", "Greater London", "WC1X 8TL", "United Kingdom"]}, "categories": [{"id": "4bf58dd8d48988d1c3941735", "name": "Moroccan Restaurant", "pluralName": "Moroccan Restaurants", "shortName": "Moroccan", "icon": {"prefix": "https://ss3.4sqi.net/img/categories_v2/food/moroccan_", "suffix": ".png"}, "primary": true}], "photos": {"count": 0, "groups": []}}, "referralId": "e-0-4b291009f964a520079824e3-23"}, {"reasons": {"count": 0, "items": [{"summary": "This spot is popular", "type": "general", "reasonName": "globalInteractionReason"}]}, "venue": {"id": "4be31132d27a20a18f24915b", "name": "Kolossi Grill", "location": {"address": "50-60 Rosebery Ave", "crossStreet": "Exmouth Market", "lat": 51.525863, "lng": -0.10981, "labeledLatLngs": [{"label": "display", "lat": 51.525863, "lng": -0.10981}], "distance": 254, "postalCode": "EC1R 4RR", "cc": "GB", "city": "Camden Town", "state": "Greater London", "country": "United Kingdom", "formattedAddress": ["50-60 Rosebery Ave (Exmouth Market)", "Camden Town", "Greater London", "EC1R 4RR", "United Kingdom"]}, "categories": [{"id": "4bf58dd8d48988d10e941735", "name": "Greek Restaurant", "pluralName": "Greek Restaurants", "shortName": "Greek", "icon": {"prefix": "https://ss3.4sqi.net/img/categories_v2/food/greek_", "suffix": ".png"}, "primary": true}], "photos": {"count": 0, "groups": []}}, "referralId": "e-0-4be31132d27a20a18f24915b-24"}, {"reasons": {"count": 0, "items": [{"summary": "This spot is popular", "type": "general", "reasonName": "globalInteractionReason"}]}, "venue": {"id": "4be452e42468c928119bfe42", "name": "The Cinnamon Tree", "location": {"address": "14 Exmouth Market", "lat": 51.525363, "lng": -0.109871, "labeledLatLngs": [{"label": "display", "lat": 51.525363, "lng": -0.109871}], "distance": 254, "postalCode": "EC1R 4QE", "cc": "GB", "city": "London", "state": "Greater London", "country": "United Kingdom", "formattedAddress": ["14 Exmouth Market", "London", "Greater London", "EC1R 4QE", "United Kingdom"]}, "categories": [{"id": "4bf58dd8d48988d10f941735", "name": "Indian Restaurant", "pluralName": "Indian Restaurants", "shortName": "Indian", "icon": {"prefix": "https://ss3.4sqi.net/img/categories_v2/food/indian_", "suffix": ".png"}, "primary": true}], "photos": {"count": 0, "groups": []}}, "referralId": "e-0-4be452e42468c928119bfe42-25"}, {"reasons": {"count": 0, "items": [{"summary": "This spot is popular", "type": "general", "reasonName": "globalInteractionReason"}]}, "venue": {"id": "4ad5c076f964a5205d0321e3", "name": "Freebird Burritos", "location": {"address": "Exmouth Market", "lat": 51.525502, "lng": -0.109872, "labeledLatLngs": [{"label": "display", "lat": 51.525502, "lng": -0.109872}], "distance": 251, "cc": "GB", "city": "London", "state": "Greater London", "country": "United Kingdom", "formattedAddress": ["Exmouth Market", "London", "Greater London", "United Kingdom"]}, "categories": [{"id": "4bf58dd8d48988d153941735", "name": "Burrito Place", "pluralName": "Burrito Places", "shortName": "Burritos", "icon": {"prefix": "https://ss3.4sqi.net/img/categories_v2/food/burrito_", "suffix": ".png"}, "primary": true}], "photos": {"count": 0, "groups": []}}, "referralId": "e-0-4ad5c076f964a5205d0321e3-26"}, {"reasons": {"count": 0, "items": [{"summary": "This spot is popular", "type": "general", "reasonName": "globalInteractionReason"}]}, "venue": {"id": "518f66ff7dd248b85a9512b2", "name": "B\u00e1nhm\u00ec11", "location": {"address": "17 Elm Street", "lat": 51.52266365777686, "lng": -0.1139285431497261, "labeledLatLngs": [{"label": "display", "lat": 51.52266365777686, "lng": -0.1139285431497261}], "distance": 348, "postalCode": "wc1x 0bq", "cc": "GB", "country": "United Kingdom", "formattedAddress": ["17 Elm Street", "wc1x 0bq", "United Kingdom"]}, "categories": [{"id": "4bf58dd8d48988d14a941735", "name": "Vietnamese Restaurant", "pluralName": "Vietnamese Restaurants", "shortName": "Vietnamese", "icon": {"prefix": "https://ss3.4sqi.net/img/categories_v2/food/vietnamese_", "suffix": ".png"}, "primary": true}], "photos": {"count": 0, "groups": []}}, "referralId": "e-0-518f66ff7dd248b85a9512b2-27"}, {"reasons": {"count": 0, "items": [{"summary": "This spot is popular", "type": "general", "reasonName": "globalInteractionReason"}]}, "venue": {"id": "5079a718e4b0602b62a7f0f6", "name": "Kalbi", "location": {"address": "35 Rosebery Ave", "lat": 51.524181, "lng": -0.110873, "labeledLatLngs": [{"label": "display", "lat": 51.524181, "lng": -0.110873}], "distance": 253, "postalCode": "EC1R 5HP", "cc": "GB", "city": "London", "state": "Greater London", "country": "United Kingdom", "formattedAddress": ["35 Rosebery Ave", "London", "Greater London", "EC1R 5HP", "United Kingdom"]}, "categories": [{"id": "4bf58dd8d48988d113941735", "name": "Korean Restaurant", "pluralName": "Korean Restaurants", "shortName": "Korean", "icon": {"prefix": "https://ss3.4sqi.net/img/categories_v2/food/korean_", "suffix": ".png"}, "primary": true}], "photos": {"count": 0, "groups": []}}, "referralId": "e-0-5079a718e4b0602b62a7f0f6-28"}, {"reasons": {"count": 0, "items": [{"summary": "This spot is popular", "type": "general", "reasonName": "globalInteractionReason"}]}, "venue": {"id": "51bed20b5019326359ddb49f", "name": "Luce e Limoni", "location": {"lat": 51.523332377069586, "lng": -0.11466178217942517, "labeledLatLngs": [{"label": "display", "lat": 51.523332377069586, "lng": -0.11466178217942517}], "distance": 284, "cc": "GB", "city": "London", "state": "Greater London", "country": "United Kingdom", "formattedAddress": ["London", "Greater London", "United Kingdom"]}, "categories": [{"id": "4bf58dd8d48988d110941735", "name": "Italian Restaurant", "pluralName": "Italian Restaurants", "shortName": "Italian", "icon": {"prefix": "https://ss3.4sqi.net/img/categories_v2/food/italian_", "suffix": ".png"}, "primary": true}], "photos": {"count": 0, "groups": []}}, "referralId": "e-0-51bed20b5019326359ddb49f-29"}, {"reasons": {"count": 0, "items": [{"summary": "This spot is popular", "type": "general", "reasonName": "globalInteractionReason"}]}, "venue": {"id": "4b72ba6cf964a520ca852de3", "name": "Sweet Boulangerie & Patisserie", "location": {"address": "64a Exmouth Market", "lat": 51.526261, "lng": -0.108161, "labeledLatLngs": [{"label": "display", "lat": 51.526261, "lng": -0.108161}], "distance": 372, "postalCode": "EC1R 4QP", "cc": "GB", "city": "London", "state": "Greater London", "country": "United Kingdom", "formattedAddress": ["64a Exmouth Market", "London", "Greater London", "EC1R 4QP", "United Kingdom"]}, "categories": [{"id": "4bf58dd8d48988d16d941735", "name": "Caf\u00e9", "pluralName": "Caf\u00e9s", "shortName": "Caf\u00e9", "icon": {"prefix": "https://ss3.4sqi.net/img/categories_v2/food/cafe_", "suffix": ".png"}, "primary": true}], "photos": {"count": 0, "groups": []}}, "referralId": "e-0-4b72ba6cf964a520ca852de3-30"}, {"reasons": {"count": 0, "items": [{"summary": "This spot is popular", "type": "general", "reasonName": "globalInteractionReason"}]}, "venue": {"id": "4f61efaae4b08c60fa1f96b7", "name": "Bun Cha", "location": {"address": "Exmouth Market, London Borough of Islington, London EC1R", "lat": 51.52608829714962, "lng": -0.10885755449165711, "labeledLatLngs": [{"label": "display", "lat": 51.52608829714962, "lng": -0.10885755449165711}], "distance": 321, "postalCode": "E C1R", "cc": "GB", "city": "London", "state": "Greater London", "country": "United Kingdom", "formattedAddress": ["Exmouth Market, London Borough of Islington, London EC1R", "London", "Greater London", "E C1R", "United Kingdom"]}, "categories": [{"id": "4bf58dd8d48988d14a941735", "name": "Vietnamese Restaurant", "pluralName": "Vietnamese Restaurants", "shortName": "Vietnamese", "icon": {"prefix": "https://ss3.4sqi.net/img/categories_v2/food/vietnamese_", "suffix": ".png"}, "primary": true}], "photos": {"count": 0, "groups": []}}, "referralId": "e-0-4f61efaae4b08c60fa1f96b7-31"}, {"reasons": {"count": 0, "items": [{"summary": "This spot is popular", "type": "general", "reasonName": "globalInteractionReason"}]}, "venue": {"id": "59dcb298149946639a74da9b", "name": "Veggie Pret", "location": {"address": "21 Exmouth Market, London", "lat": 51.525653896189745, "lng": -0.10992050089086547, "labeledLatLngs": [{"label": "display", "lat": 51.525653896189745, "lng": -0.10992050089086547}], "distance": 246, "postalCode": "EC1R 4QD", "cc": "GB", "city": "London", "state": "Greater London", "country": "United Kingdom", "formattedAddress": ["21 Exmouth Market, London", "London", "Greater London", "EC1R 4QD", "United Kingdom"]}, "categories": [{"id": "4bf58dd8d48988d1c5941735", "name": "Sandwich Place", "pluralName": "Sandwich Places", "shortName": "Sandwiches", "icon": {"prefix": "https://ss3.4sqi.net/img/categories_v2/food/deli_", "suffix": ".png"}, "primary": true}], "photos": {"count": 0, "groups": []}}, "referralId": "e-0-59dcb298149946639a74da9b-32"}, {"reasons": {"count": 0, "items": [{"summary": "This spot is popular", "type": "general", "reasonName": "globalInteractionReason"}]}, "venue": {"id": "5416dc07498ec48c3de875e9", "name": "155", "location": {"address": "155 Farringdon Road", "crossStreet": "Bakers Row", "lat": 51.52406515267939, "lng": -0.10952098100187191, "labeledLatLngs": [{"label": "display", "lat": 51.52406515267939, "lng": -0.10952098100187191}], "distance": 334, "postalCode": "EC1R 3AD", "cc": "GB", "city": "London", "state": "Greater London", "country": "United Kingdom", "formattedAddress": ["155 Farringdon Road (Bakers Row)", "London", "Greater London", "EC1R 3AD", "United Kingdom"]}, "categories": [{"id": "52e81612bcbc57f1066b79f1", "name": "Bistro", "pluralName": "Bistros", "shortName": "Bistro", "icon": {"prefix": "https://ss3.4sqi.net/img/categories_v2/food/default_", "suffix": ".png"}, "primary": true}], "photos": {"count": 0, "groups": []}, "venuePage": {"id": "94791132"}}, "referralId": "e-0-5416dc07498ec48c3de875e9-33"}, {"reasons": {"count": 0, "items": [{"summary": "This spot is popular", "type": "general", "reasonName": "globalInteractionReason"}]}, "venue": {"id": "4c35b9bba0ced13a142d1a6e", "name": "The Sandwich Man", "location": {"address": "23-24 Easton St", "lat": 51.52562538637735, "lng": -0.11127696984379504, "labeledLatLngs": [{"label": "display", "lat": 51.52562538637735, "lng": -0.11127696984379504}], "distance": 153, "postalCode": "WC1X 0DS", "cc": "GB", "city": "Islington", "state": "Greater London", "country": "United Kingdom", "formattedAddress": ["23-24 Easton St", "Islington", "Greater London", "WC1X 0DS", "United Kingdom"]}, "categories": [{"id": "4bf58dd8d48988d1c5941735", "name": "Sandwich Place", "pluralName": "Sandwich Places", "shortName": "Sandwiches", "icon": {"prefix": "https://ss3.4sqi.net/img/categories_v2/food/deli_", "suffix": ".png"}, "primary": true}], "photos": {"count": 0, "groups": []}}, "referralId": "e-0-4c35b9bba0ced13a142d1a6e-34"}, {"reasons": {"count": 0, "items": [{"summary": "This spot is popular", "type": "general", "reasonName": "globalInteractionReason"}]}, "venue": {"id": "4c40b4f8e26920a1d6525de7", "name": "N\u00e9cco", "location": {"address": "54 Exmouth Market", "lat": 51.52617056588691, "lng": -0.10858330930192323, "labeledLatLngs": [{"label": "display", "lat": 51.52617056588691, "lng": -0.10858330930192323}], "distance": 341, "postalCode": "EC1R 4QE", "cc": "GB", "city": "Islington", "state": "Greater London", "country": "United Kingdom", "formattedAddress": ["54 Exmouth Market", "Islington", "Greater London", "EC1R 4QE", "United Kingdom"]}, "categories": [{"id": "4bf58dd8d48988d111941735", "name": "Japanese Restaurant", "pluralName": "Japanese Restaurants", "shortName": "Japanese", "icon": {"prefix": "https://ss3.4sqi.net/img/categories_v2/food/japanese_", "suffix": ".png"}, "primary": true}], "photos": {"count": 0, "groups": []}}, "referralId": "e-0-4c40b4f8e26920a1d6525de7-35"}, {"reasons": {"count": 0, "items": [{"summary": "This spot is popular", "type": "general", "reasonName": "globalInteractionReason"}]}, "venue": {"id": "4cfae42b20fe3704199150f8", "name": "Rosebery Kebab House", "location": {"address": "63 Rosebery Ave", "lat": 51.52587681077101, "lng": -0.10987162841909444, "labeledLatLngs": [{"label": "display", "lat": 51.52587681077101, "lng": -0.10987162841909444}], "distance": 250, "postalCode": "EC1R 4SD", "cc": "GB", "city": "Islington", "state": "Greater London", "country": "United Kingdom", "formattedAddress": ["63 Rosebery Ave", "Islington", "Greater London", "EC1R 4SD", "United Kingdom"]}, "categories": [{"id": "4bf58dd8d48988d16e941735", "name": "Fast Food Restaurant", "pluralName": "Fast Food Restaurants", "shortName": "Fast Food", "icon": {"prefix": "https://ss3.4sqi.net/img/categories_v2/food/fastfood_", "suffix": ".png"}, "primary": true}], "photos": {"count": 0, "groups": []}}, "referralId": "e-0-4cfae42b20fe3704199150f8-36"}, {"reasons": {"count": 0, "items": [{"summary": "This spot is popular", "type": "general", "reasonName": "globalInteractionReason"}]}, "venue": {"id": "4f104553e4b067f66e4db250", "name": "You Me Sushi", "location": {"address": "180 Gray's Inn Rd", "lat": 51.52285226113272, "lng": -0.11429097658454886, "labeledLatLngs": [{"label": "display", "lat": 51.52285226113272, "lng": -0.11429097658454886}], "distance": 330, "postalCode": "WC1X 8EW", "cc": "GB", "city": "London", "state": "Greater London", "country": "United Kingdom", "formattedAddress": ["180 Gray's Inn Rd", "London", "Greater London", "WC1X 8EW", "United Kingdom"]}, "categories": [{"id": "4bf58dd8d48988d1d2941735", "name": "Sushi Restaurant", "pluralName": "Sushi Restaurants", "shortName": "Sushi", "icon": {"prefix": "https://ss3.4sqi.net/img/categories_v2/food/sushi_", "suffix": ".png"}, "primary": true}], "photos": {"count": 0, "groups": []}}, "referralId": "e-0-4f104553e4b067f66e4db250-37"}, {"reasons": {"count": 0, "items": [{"summary": "This spot is popular", "type": "general", "reasonName": "globalInteractionReason"}]}, "venue": {"id": "5734d753498e142ffb6059f6", "name": "Cielo Blanco", "location": {"address": "55-57 Exmouth Mkt", "lat": 51.52622708149036, "lng": -0.10859026989353696, "labeledLatLngs": [{"label": "display", "lat": 51.52622708149036, "lng": -0.10859026989353696}], "distance": 342, "postalCode": "EC1R 4QL", "cc": "GB", "city": "London", "state": "Greater London", "country": "United Kingdom", "formattedAddress": ["55-57 Exmouth Mkt", "London", "Greater London", "EC1R 4QL", "United Kingdom"]}, "categories": [{"id": "4bf58dd8d48988d1c1941735", "name": "Mexican Restaurant", "pluralName": "Mexican Restaurants", "shortName": "Mexican", "icon": {"prefix": "https://ss3.4sqi.net/img/categories_v2/food/mexican_", "suffix": ".png"}, "primary": true}], "photos": {"count": 0, "groups": []}}, "referralId": "e-0-5734d753498e142ffb6059f6-38"}, {"reasons": {"count": 0, "items": [{"summary": "This spot is popular", "type": "general", "reasonName": "globalInteractionReason"}]}, "venue": {"id": "58445ba303cf25529ff76851", "name": "Hammer & Tongs", "location": {"address": "171 Farringdon Road", "lat": 51.524715, "lng": -0.110364854, "labeledLatLngs": [{"label": "display", "lat": 51.524715, "lng": -0.110364854}], "distance": 246, "postalCode": "EC1R 3AL", "cc": "GB", "city": "London", "state": "Greater London", "country": "United Kingdom", "formattedAddress": ["171 Farringdon Road", "London", "Greater London", "EC1R 3AL", "United Kingdom"]}, "categories": [{"id": "4bf58dd8d48988d1df931735", "name": "BBQ Joint", "pluralName": "BBQ Joints", "shortName": "BBQ", "icon": {"prefix": "https://ss3.4sqi.net/img/categories_v2/food/bbqalt_", "suffix": ".png"}, "primary": true}], "photos": {"count": 0, "groups": []}}, "referralId": "e-0-58445ba303cf25529ff76851-39"}, {"reasons": {"count": 0, "items": [{"summary": "This spot is popular", "type": "general", "reasonName": "globalInteractionReason"}]}, "venue": {"id": "4ac518e2f964a52093aa20e3", "name": "Chutney Raj", "location": {"address": "137 Grays Inn Rd.", "lat": 51.52432620431288, "lng": -0.11558943308436924, "labeledLatLngs": [{"label": "display", "lat": 51.52432620431288, "lng": -0.11558943308436924}], "distance": 218, "postalCode": "WC1X 8TU", "cc": "GB", "city": "London", "state": "Greater London", "country": "United Kingdom", "formattedAddress": ["137 Grays Inn Rd.", "London", "Greater London", "WC1X 8TU", "United Kingdom"]}, "categories": [{"id": "4bf58dd8d48988d10f941735", "name": "Indian Restaurant", "pluralName": "Indian Restaurants", "shortName": "Indian", "icon": {"prefix": "https://ss3.4sqi.net/img/categories_v2/food/indian_", "suffix": ".png"}, "primary": true}], "photos": {"count": 0, "groups": []}}, "referralId": "e-0-4ac518e2f964a52093aa20e3-40"}, {"reasons": {"count": 0, "items": [{"summary": "This spot is popular", "type": "general", "reasonName": "globalInteractionReason"}]}, "venue": {"id": "5357f85b498ec6e73aae5b6d", "name": "Little India", "location": {"address": "137 Grays Inn Road", "lat": 51.52439154341821, "lng": -0.11605976293031722, "labeledLatLngs": [{"label": "display", "lat": 51.52439154341821, "lng": -0.11605976293031722}], "distance": 236, "postalCode": "WC1X 8TU", "cc": "GB", "city": "Holborn", "state": "Greater London", "country": "United Kingdom", "formattedAddress": ["137 Grays Inn Road", "Holborn", "Greater London", "WC1X 8TU", "United Kingdom"]}, "categories": [{"id": "4bf58dd8d48988d10f941735", "name": "Indian Restaurant", "pluralName": "Indian Restaurants", "shortName": "Indian", "icon": {"prefix": "https://ss3.4sqi.net/img/categories_v2/food/indian_", "suffix": ".png"}, "primary": true}], "photos": {"count": 0, "groups": []}}, "referralId": "e-0-5357f85b498ec6e73aae5b6d-41"}, {"reasons": {"count": 0, "items": [{"summary": "This spot is popular", "type": "general", "reasonName": "globalInteractionReason"}]}, "venue": {"id": "4c7e1b79d598a093d0c3c462", "name": "Trio D'Or Caf\u00e9", "location": {"address": "1 Guildford Street", "lat": 51.52435113903838, "lng": -0.11610316767847687, "labeledLatLngs": [{"label": "display", "lat": 51.52435113903838, "lng": -0.11610316767847687}], "distance": 241, "postalCode": "WC1N 1DR", "cc": "GB", "city": "Bloomsbury", "state": "Greater London", "country": "United Kingdom", "formattedAddress": ["1 Guildford Street", "Bloomsbury", "Greater London", "WC1N 1DR", "United Kingdom"]}, "categories": [{"id": "4bf58dd8d48988d16d941735", "name": "Caf\u00e9", "pluralName": "Caf\u00e9s", "shortName": "Caf\u00e9", "icon": {"prefix": "https://ss3.4sqi.net/img/categories_v2/food/cafe_", "suffix": ".png"}, "primary": true}], "photos": {"count": 0, "groups": []}}, "referralId": "e-0-4c7e1b79d598a093d0c3c462-42"}, {"reasons": {"count": 0, "items": [{"summary": "This spot is popular", "type": "general", "reasonName": "globalInteractionReason"}]}, "venue": {"id": "4bec5a66c43f2d7f8cc4dbd9", "name": "Gulshan", "location": {"lat": 51.525491620000004, "lng": -0.10993968333333333, "labeledLatLngs": [{"label": "display", "lat": 51.525491620000004, "lng": -0.10993968333333333}], "distance": 247, "cc": "GB", "country": "United Kingdom", "formattedAddress": ["United Kingdom"]}, "categories": [{"id": "4bf58dd8d48988d10f941735", "name": "Indian Restaurant", "pluralName": "Indian Restaurants", "shortName": "Indian", "icon": {"prefix": "https://ss3.4sqi.net/img/categories_v2/food/indian_", "suffix": ".png"}, "primary": true}], "photos": {"count": 0, "groups": []}}, "referralId": "e-0-4bec5a66c43f2d7f8cc4dbd9-43"}, {"reasons": {"count": 0, "items": [{"summary": "This spot is popular", "type": "general", "reasonName": "globalInteractionReason"}]}, "venue": {"id": "4b1cfd11f964a520f90a24e3", "name": "D&K Cafe", "location": {"address": "185 Gray's Inn Road", "lat": 51.52584900814529, "lng": -0.11741928394305944, "labeledLatLngs": [{"label": "display", "lat": 51.52584900814529, "lng": -0.11741928394305944}], "distance": 272, "postalCode": "WC1X 8UE", "cc": "GB", "city": "London", "state": "Greater London", "country": "United Kingdom", "formattedAddress": ["185 Gray's Inn Road", "London", "Greater London", "WC1X 8UE", "United Kingdom"]}, "categories": [{"id": "4bf58dd8d48988d16d941735", "name": "Caf\u00e9", "pluralName": "Caf\u00e9s", "shortName": "Caf\u00e9", "icon": {"prefix": "https://ss3.4sqi.net/img/categories_v2/food/cafe_", "suffix": ".png"}, "primary": true}], "photos": {"count": 0, "groups": []}}, "referralId": "e-0-4b1cfd11f964a520f90a24e3-44"}, {"reasons": {"count": 0, "items": [{"summary": "This spot is popular", "type": "general", "reasonName": "globalInteractionReason"}]}, "venue": {"id": "586fb88d3cccc655c5b4087d", "name": "Belgo King's Cross", "location": {"address": "1 King's Cross Rd", "lat": 51.526221932012085, "lng": -0.11346523136629286, "labeledLatLngs": [{"label": "display", "lat": 51.526221932012085, "lng": -0.11346523136629286}], "distance": 49, "postalCode": "WC1X 9HX", "cc": "GB", "city": "London", "state": "Greater London", "country": "United Kingdom", "formattedAddress": ["1 King's Cross Rd", "London", "Greater London", "WC1X 9HX", "United Kingdom"]}, "categories": [{"id": "52e81612bcbc57f1066b7a02", "name": "Belgian Restaurant", "pluralName": "Belgian Restaurants", "shortName": "Belgian", "icon": {"prefix": "https://ss3.4sqi.net/img/categories_v2/food/default_", "suffix": ".png"}, "primary": true}], "photos": {"count": 0, "groups": []}}, "referralId": "e-0-586fb88d3cccc655c5b4087d-45"}, {"reasons": {"count": 0, "items": [{"summary": "This spot is popular", "type": "general", "reasonName": "globalInteractionReason"}]}, "venue": {"id": "4da6e4e2cda1480291c354f2", "name": "Rudis Sandwich Bar", "location": {"lat": 51.523108, "lng": -0.114713, "labeledLatLngs": [{"label": "display", "lat": 51.523108, "lng": -0.114713}], "distance": 309, "cc": "GB", "city": "Camden Town", "state": "Greater London", "country": "United Kingdom", "formattedAddress": ["Camden Town", "Greater London", "United Kingdom"]}, "categories": [{"id": "4bf58dd8d48988d1c5941735", "name": "Sandwich Place", "pluralName": "Sandwich Places", "shortName": "Sandwiches", "icon": {"prefix": "https://ss3.4sqi.net/img/categories_v2/food/deli_", "suffix": ".png"}, "primary": true}], "photos": {"count": 0, "groups": []}}, "referralId": "e-0-4da6e4e2cda1480291c354f2-46"}, {"reasons": {"count": 0, "items": [{"summary": "This spot is popular", "type": "general", "reasonName": "globalInteractionReason"}]}, "venue": {"id": "4b06a261f964a520f7ed22e3", "name": "Appetite", "location": {"address": "186 Gray's Inn Rd", "crossStreet": "Roger st", "lat": 51.52302503706926, "lng": -0.11446507068712507, "labeledLatLngs": [{"label": "display", "lat": 51.52302503706926, "lng": -0.11446507068712507}], "distance": 314, "postalCode": "WC1X 8EW", "cc": "GB", "city": "London", "state": "Greater London", "country": "United Kingdom", "formattedAddress": ["186 Gray's Inn Rd (Roger st)", "London", "Greater London", "WC1X 8EW", "United Kingdom"]}, "categories": [{"id": "4bf58dd8d48988d1c5941735", "name": "Sandwich Place", "pluralName": "Sandwich Places", "shortName": "Sandwiches", "icon": {"prefix": "https://ss3.4sqi.net/img/categories_v2/food/deli_", "suffix": ".png"}, "primary": true}], "photos": {"count": 0, "groups": []}}, "referralId": "e-0-4b06a261f964a520f7ed22e3-47"}, {"reasons": {"count": 0, "items": [{"summary": "This spot is popular", "type": "general", "reasonName": "globalInteractionReason"}]}, "venue": {"id": "50181f11e4b0cfe38ca63465", "name": "Freddies Cafe Bar", "location": {"lat": 51.52443168211106, "lng": -0.11752006635623702, "labeledLatLngs": [{"label": "display", "lat": 51.52443168211106, "lng": -0.11752006635623702}], "distance": 317, "cc": "GB", "country": "United Kingdom", "formattedAddress": ["United Kingdom"]}, "categories": [{"id": "4bf58dd8d48988d16d941735", "name": "Caf\u00e9", "pluralName": "Caf\u00e9s", "shortName": "Caf\u00e9", "icon": {"prefix": "https://ss3.4sqi.net/img/categories_v2/food/cafe_", "suffix": ".png"}, "primary": true}], "photos": {"count": 0, "groups": []}}, "referralId": "e-0-50181f11e4b0cfe38ca63465-48"}, {"reasons": {"count": 0, "items": [{"summary": "This spot is popular", "type": "general", "reasonName": "globalInteractionReason"}]}, "venue": {"id": "4c8e094358668cfad231ceec", "name": "Jesshops", "location": {"address": "49 Exmouth Market", "lat": 51.526277, "lng": -0.1088, "labeledLatLngs": [{"label": "display", "lat": 51.526277, "lng": -0.1088}], "distance": 328, "cc": "GB", "city": "Islington", "state": "Greater London", "country": "United Kingdom", "formattedAddress": ["49 Exmouth Market", "Islington", "Greater London", "United Kingdom"]}, "categories": [{"id": "4bf58dd8d48988d1c5941735", "name": "Sandwich Place", "pluralName": "Sandwich Places", "shortName": "Sandwiches", "icon": {"prefix": "https://ss3.4sqi.net/img/categories_v2/food/deli_", "suffix": ".png"}, "primary": true}], "photos": {"count": 0, "groups": []}}, "referralId": "e-0-4c8e094358668cfad231ceec-49"}, {"reasons": {"count": 0, "items": [{"summary": "This spot is popular", "type": "general", "reasonName": "globalInteractionReason"}]}, "venue": {"id": "4bf6cff95efe2d7f33cd6734", "name": "Pride of Siam", "location": {"address": "Exmouth Market", "lat": 51.52610700063068, "lng": -0.10862418837931657, "labeledLatLngs": [{"label": "display", "lat": 51.52610700063068, "lng": -0.10862418837931657}], "distance": 338, "cc": "GB", "city": "Islington", "state": "Greater London", "country": "United Kingdom", "formattedAddress": ["Exmouth Market", "Islington", "Greater London", "United Kingdom"]}, "categories": [{"id": "4bf58dd8d48988d149941735", "name": "Thai Restaurant", "pluralName": "Thai Restaurants", "shortName": "Thai", "icon": {"prefix": "https://ss3.4sqi.net/img/categories_v2/food/thai_", "suffix": ".png"}, "primary": true}], "photos": {"count": 0, "groups": []}}, "referralId": "e-0-4bf6cff95efe2d7f33cd6734-50"}, {"reasons": {"count": 0, "items": [{"summary": "This spot is popular", "type": "general", "reasonName": "globalInteractionReason"}]}, "venue": {"id": "56461299498ee052e214c974", "name": "Cibo Gourmet", "location": {"address": "73 Gray's Inn Road", "lat": 51.522726716027464, "lng": -0.11429237975510968, "labeledLatLngs": [{"label": "display", "lat": 51.522726716027464, "lng": -0.11429237975510968}], "distance": 344, "postalCode": "WC1X 8TP", "cc": "GB", "city": "London", "state": "Greater London", "country": "United Kingdom", "formattedAddress": ["73 Gray's Inn Road", "London", "Greater London", "WC1X 8TP", "United Kingdom"]}, "categories": [{"id": "4bf58dd8d48988d110941735", "name": "Italian Restaurant", "pluralName": "Italian Restaurants", "shortName": "Italian", "icon": {"prefix": "https://ss3.4sqi.net/img/categories_v2/food/italian_", "suffix": ".png"}, "primary": true}], "photos": {"count": 0, "groups": []}}, "referralId": "e-0-56461299498ee052e214c974-51"}, {"reasons": {"count": 0, "items": [{"summary": "This spot is popular", "type": "general", "reasonName": "globalInteractionReason"}]}, "venue": {"id": "5c1ca7fe916bc1002cfb7fc7", "name": "Wooleys", "location": {"address": "Grey\u2019s Inn Road", "lat": 51.522687, "lng": -0.114297, "labeledLatLngs": [{"label": "display", "lat": 51.522687, "lng": -0.114297}], "distance": 348, "postalCode": "WC1X 8TP", "cc": "GB", "city": "London", "state": "Greater London", "country": "United Kingdom", "formattedAddress": ["Grey\u2019s Inn Road", "London", "Greater London", "WC1X 8TP", "United Kingdom"]}, "categories": [{"id": "4bf58dd8d48988d16d941735", "name": "Caf\u00e9", "pluralName": "Caf\u00e9s", "shortName": "Caf\u00e9", "icon": {"prefix": "https://ss3.4sqi.net/img/categories_v2/food/cafe_", "suffix": ".png"}, "primary": true}], "photos": {"count": 0, "groups": []}}, "referralId": "e-0-5c1ca7fe916bc1002cfb7fc7-52"}, {"reasons": {"count": 0, "items": [{"summary": "This spot is popular", "type": "general", "reasonName": "globalInteractionReason"}]}, "venue": {"id": "5720511d498ee9a7561a09b8", "name": "Breakfast @clinck", "location": {"lat": 51.5287019797885, "lng": -0.11561152021923703, "labeledLatLngs": [{"label": "display", "lat": 51.5287019797885, "lng": -0.11561152021923703}], "distance": 357, "cc": "GB", "country": "United Kingdom", "formattedAddress": ["United Kingdom"]}, "categories": [{"id": "4bf58dd8d48988d143941735", "name": "Breakfast Spot", "pluralName": "Breakfast Spots", "shortName": "Breakfast", "icon": {"prefix": "https://ss3.4sqi.net/img/categories_v2/food/breakfast_", "suffix": ".png"}, "primary": true}], "photos": {"count": 0, "groups": []}}, "referralId": "e-0-5720511d498ee9a7561a09b8-53"}, {"reasons": {"count": 0, "items": [{"summary": "This spot is popular", "type": "general", "reasonName": "globalInteractionReason"}]}, "venue": {"id": "4e8df6bb0aaf1c980290b2da", "name": "King Rooster", "location": {"lat": 51.52906614404198, "lng": -0.11559415506893003, "labeledLatLngs": [{"label": "display", "lat": 51.52906614404198, "lng": -0.11559415506893003}], "distance": 394, "cc": "GB", "city": "Islington", "state": "Greater London", "country": "United Kingdom", "formattedAddress": ["Islington", "Greater London", "United Kingdom"]}, "categories": [{"id": "4d4ae6fc7a7b7dea34424761", "name": "Fried Chicken Joint", "pluralName": "Fried Chicken Joints", "shortName": "Fried Chicken", "icon": {"prefix": "https://ss3.4sqi.net/img/categories_v2/food/friedchicken_", "suffix": ".png"}, "primary": true}], "photos": {"count": 0, "groups": []}}, "referralId": "e-0-4e8df6bb0aaf1c980290b2da-54"}]}]}}