{"meta": {"code": 200, "requestId": "5fedd9d74536486d2a4580cc"}, "response": {"suggestedFilters": {"header": "Tap to show:", "filters": [{"name": "Open now", "key": "openNow"}]}, "headerLocation": "Hackney", "headerFullLocation": "Hackney, London", "headerLocationGranularity": "neighborhood", "query": "travel", "totalResults": 30, "suggestedBounds": {"ne": {"lat": 51.5254710036, "lng": -0.07336802341915684}, "sw": {"lat": 51.51827099639999, "lng": -0.08491797658084317}}, "groups": [{"type": "Recommended Places", "name": "recommended", "items": [{"reasons": {"count": 0, "items": [{"summary": "This spot is popular", "type": "general", "reasonName": "globalInteractionReason"}]}, "venue": {"id": "53187f34498edf52292f17ed", "name": "citizenM London Shoreditch", "location": {"address": "6 Holywell Lane", "lat": 51.524114983910046, "lng": -0.07868796586990356, "labeledLatLngs": [{"label": "display", "lat": 51.524114983910046, "lng": -0.07868796586990356}], "distance": 251, "postalCode": "EC2A 3ET", "cc": "GB", "city": "London", "state": "Greater London", "country": "United Kingdom", "formattedAddress": ["6 Holywell Lane", "London", "Greater London", "EC2A 3ET", "United Kingdom"]}, "categories": [{"id": "4bf58dd8d48988d1fa931735", "name": "Hotel", "pluralName": "Hotels", "shortName": "Hotel", "icon": {"prefix": "https://ss3.4sqi.net/img/categories_v2/travel/hotel_", "suffix": ".png"}, "primary": true}], "photos": {"count": 0, "groups": []}}, "referralId": "e-0-53187f34498edf52292f17ed-0"}, {"reasons": {"count": 0, "items": [{"summary": "This spot is popular", "type": "general", "reasonName": "globalInteractionReason"}]}, "venue": {"id": "59c3ebf3b3d8e249ffe6a51a", "name": "Point A Hotel Liverpool Street", "location": {"address": "13-15 Folgate St", "lat": 51.52132476699876, "lng": -0.0774984948645232, "labeledLatLngs": [{"label": "display", "lat": 51.52132476699876, "lng": -0.0774984948645232}], "distance": 129, "postalCode": "E1 6BX", "cc": "GB", "city": "London", "state": "Greater London", "country": "United Kingdom", "formattedAddress": ["13-15 Folgate St", "London", "Greater London", "E1 6BX", "United Kingdom"]}, "categories": [{"id": "4bf58dd8d48988d1fa931735", "name": "Hotel", "pluralName": "Hotels", "shortName": "Hotel", "icon": {"prefix": "https://ss3.4sqi.net/img/categories_v2/travel/hotel_", "suffix": ".png"}, "primary": true}], "photos": {"count": 0, "groups": []}}, "referralId": "e-0-59c3ebf3b3d8e249ffe6a51a-1"}, {"reasons": {"count": 0, "items": [{"summary": "This spot is popular", "type": "general", "reasonName": "globalInteractionReason"}]}, "venue": {"id": "5641a379498e570b2d5d969a", "name": "Batty Langley Hotel", "location": {"address": "12 Folgate Street", "lat": 51.520967, "lng": -0.078015, "labeledLatLngs": [{"label": "display", "lat": 51.520967, "lng": -0.078015}], "distance": 127, "cc": "GB", "city": "London", "state": "Greater London", "country": "United Kingdom", "formattedAddress": ["12 Folgate Street", "London", "Greater London", "United Kingdom"]}, "categories": [{"id": "4bf58dd8d48988d1fa931735", "name": "Hotel", "pluralName": "Hotels", "shortName": "Hotel", "icon": {"prefix": "https://ss3.4sqi.net/img/categories_v2/travel/hotel_", "suffix": ".png"}, "primary": true}], "photos": {"count": 0, "groups": []}}, "referralId": "e-0-5641a379498e570b2d5d969a-2"}, {"reasons": {"count": 0, "items": [{"summary": "This spot is popular", "type": "general", "reasonName": "globalInteractionReason"}]}, "venue": {"id": "591553e50e5da86a043e6ad2", "name": "The Curtain", "location": {"address": "45 Curtain Rd", "lat": 51.5235870074067, "lng": -0.08050099762200219, "labeledLatLngs": [{"label": "display", "lat": 51.5235870074067, "lng": -0.08050099762200219}], "distance": 212, "postalCode": "EC2A 3PT", "cc": "GB", "city": "London", "state": "Greater London", "country": "United Kingdom", "formattedAddress": ["45 Curtain Rd", "London", "Greater London", "EC2A 3PT", "United Kingdom"]}, "categories": [{"id": "4bf58dd8d48988d1fa931735", "name": "Hotel", "pluralName": "Hotels", "shortName": "Hotel", "icon": {"prefix": "https://ss3.4sqi.net/img/categories_v2/travel/hotel_", "suffix": ".png"}, "primary": true}], "photos": {"count": 0, "groups": []}}, "referralId": "e-0-591553e50e5da86a043e6ad2-3"}, {"reasons": {"count": 0, "items": [{"summary": "This spot is popular", "type": "general", "reasonName": "globalInteractionReason"}]}, "venue": {"id": "4f5c91e4e4b09f0f98d16b96", "name": "Boundary Rooms", "location": {"address": "2-4 Boundary St", "crossStreet": "Redchurch St", "lat": 51.524515879460594, "lng": -0.07668868537237414, "labeledLatLngs": [{"label": "display", "lat": 51.524515879460594, "lng": -0.07668868537237414}], "distance": 339, "postalCode": "E2 7DD", "cc": "GB", "city": "London", "state": "Greater London", "country": "United Kingdom", "formattedAddress": ["2-4 Boundary St (Redchurch St)", "London", "Greater London", "E2 7DD", "United Kingdom"]}, "categories": [{"id": "4bf58dd8d48988d1fa931735", "name": "Hotel", "pluralName": "Hotels", "shortName": "Hotel", "icon": {"prefix": "https://ss3.4sqi.net/img/categories_v2/travel/hotel_", "suffix": ".png"}, "primary": true}], "photos": {"count": 0, "groups": []}}, "referralId": "e-0-4f5c91e4e4b09f0f98d16b96-4"}, {"reasons": {"count": 0, "items": [{"summary": "This spot is popular", "type": "general", "reasonName": "globalInteractionReason"}]}, "venue": {"id": "58fbbe8dc21cb16c170a4cf4", "name": "Point A Hotel Shoreditch", "location": {"address": "8-10 Paul St", "lat": 51.52262270243427, "lng": -0.08440250007072496, "labeledLatLngs": [{"label": "display", "lat": 51.52262270243427, "lng": -0.08440250007072496}], "distance": 373, "postalCode": "EC2A 4JH", "cc": "GB", "city": "London", "state": "Greater London", "country": "United Kingdom", "formattedAddress": ["8-10 Paul St", "London", "Greater London", "EC2A 4JH", "United Kingdom"]}, "categories": [{"id": "4bf58dd8d48988d1fa931735", "name": "Hotel", "pluralName": "Hotels", "shortName": "Hotel", "icon": {"prefix": "https://ss3.4sqi.net/img/categories_v2/travel/hotel_", "suffix": ".png"}, "primary": true}], "photos": {"count": 0, "groups": []}}, "referralId": "e-0-58fbbe8dc21cb16c170a4cf4-5"}, {"reasons": {"count": 0, "items": [{"summary": "This spot is popular", "type": "general", "reasonName": "globalInteractionReason"}]}, "venue": {"id": "4bc891b32f94d13a09d8137f", "name": "Shoreditch High Street London Overground Station", "location": {"address": "Braithwaite St", "lat": 51.52332387456887, "lng": -0.07545878850686044, "labeledLatLngs": [{"label": "display", "lat": 51.52332387456887, "lng": -0.07545878850686044}], "distance": 302, "postalCode": "E1 6GJ", "cc": "GB", "city": "Shoreditch", "state": "Greater London", "country": "United Kingdom", "formattedAddress": ["Braithwaite St", "Shoreditch", "Greater London", "E1 6GJ", "United Kingdom"]}, "categories": [{"id": "4bf58dd8d48988d129951735", "name": "Train Station", "pluralName": "Train Stations", "shortName": "Train Station", "icon": {"prefix": "https://ss3.4sqi.net/img/categories_v2/travel/trainstation_", "suffix": ".png"}, "primary": true}], "photos": {"count": 0, "groups": []}}, "referralId": "e-0-4bc891b32f94d13a09d8137f-6"}, {"reasons": {"count": 0, "items": [{"summary": "This spot is popular", "type": "general", "reasonName": "globalInteractionReason"}]}, "venue": {"id": "581c79a287dde547fb22ffab", "name": "TravelStay.com", "location": {"address": "1 Primrose Street", "lat": 51.520616555696385, "lng": -0.07946786408695061, "labeledLatLngs": [{"label": "display", "lat": 51.520616555696385, "lng": -0.07946786408695061}], "distance": 141, "postalCode": "EC2A 2EX", "cc": "GB", "city": "London", "state": "Greater London", "country": "United Kingdom", "formattedAddress": ["1 Primrose Street", "London", "Greater London", "EC2A 2EX", "United Kingdom"]}, "categories": [{"id": "4bf58dd8d48988d1fa931735", "name": "Hotel", "pluralName": "Hotels", "shortName": "Hotel", "icon": {"prefix": "https://ss3.4sqi.net/img/categories_v2/travel/hotel_", "suffix": ".png"}, "primary": true}], "photos": {"count": 0, "groups": []}, "venuePage": {"id": "372316002"}}, "referralId": "e-0-581c79a287dde547fb22ffab-7"}, {"reasons": {"count": 0, "items": [{"summary": "This spot is popular", "type": "general", "reasonName": "globalInteractionReason"}]}, "venue": {"id": "4de92d2b1f6e9b53772034fb", "name": "Commercial Street Bus Stop", "location": {"lat": 51.52195303404768, "lng": -0.0782114874971954, "labeledLatLngs": [{"label": "display", "lat": 51.52195303404768, "lng": -0.0782114874971954}], "distance": 65, "cc": "GB", "city": "Hackney", "state": "Greater London", "country": "United Kingdom", "formattedAddress": ["Hackney", "Greater London", "United Kingdom"]}, "categories": [{"id": "52f2ab2ebcbc57f1066b8b4f", "name": "Bus Stop", "pluralName": "Bus Stops", "shortName": "Bus Stop", "icon": {"prefix": "https://ss3.4sqi.net/img/categories_v2/travel/busstation_", "suffix": ".png"}, "primary": true}], "photos": {"count": 0, "groups": []}}, "referralId": "e-0-4de92d2b1f6e9b53772034fb-8"}, {"reasons": {"count": 0, "items": [{"summary": "This spot is popular", "type": "general", "reasonName": "globalInteractionReason"}]}, "venue": {"id": "50ddcf1ee4b0eb1fd79b6fef", "name": "Shoreditch High Street Station Bus Stop E", "location": {"lat": 51.522666281993345, "lng": -0.07801436790611538, "labeledLatLngs": [{"label": "display", "lat": 51.522666281993345, "lng": -0.07801436790611538}], "distance": 118, "cc": "GB", "country": "United Kingdom", "formattedAddress": ["United Kingdom"]}, "categories": [{"id": "52f2ab2ebcbc57f1066b8b4f", "name": "Bus Stop", "pluralName": "Bus Stops", "shortName": "Bus Stop", "icon": {"prefix": "https://ss3.4sqi.net/img/categories_v2/travel/busstation_", "suffix": ".png"}, "primary": true}], "photos": {"count": 0, "groups": []}}, "referralId": "e-0-50ddcf1ee4b0eb1fd79b6fef-9"}, {"reasons": {"count": 0, "items": [{"summary": "This spot is popular", "type": "general", "reasonName": "globalInteractionReason"}]}, "venue": {"id": "4cd1d2ee9d87224bd3055d3b", "name": "Primrose Street Bus Stop J", "location": {"address": "Bishopsgate", "lat": 51.51994580121968, "lng": -0.07912980953496349, "labeledLatLngs": [{"label": "display", "lat": 51.51994580121968, "lng": -0.07912980953496349}], "distance": 214, "cc": "GB", "city": "London", "state": "Greater London", "country": "United Kingdom", "formattedAddress": ["Bishopsgate", "London", "Greater London", "United Kingdom"]}, "categories": [{"id": "52f2ab2ebcbc57f1066b8b4f", "name": "Bus Stop", "pluralName": "Bus Stops", "shortName": "Bus Stop", "icon": {"prefix": "https://ss3.4sqi.net/img/categories_v2/travel/busstation_", "suffix": ".png"}, "primary": true}], "photos": {"count": 0, "groups": []}}, "referralId": "e-0-4cd1d2ee9d87224bd3055d3b-10"}, {"reasons": {"count": 0, "items": [{"summary": "This spot is popular", "type": "general", "reasonName": "globalInteractionReason"}]}, "venue": {"id": "50a6774de4b0c08636dffe42", "name": "Shoreditch High St Station Bus Stop B", "location": {"address": "Shoreditch High Street", "crossStreet": "Holywell Lane", "lat": 51.52401819162466, "lng": -0.07965087890625, "labeledLatLngs": [{"label": "display", "lat": 51.52401819162466, "lng": -0.07965087890625}], "distance": 241, "cc": "GB", "city": "London", "state": "Greater London", "country": "United Kingdom", "formattedAddress": ["Shoreditch High Street (Holywell Lane)", "London", "Greater London", "United Kingdom"]}, "categories": [{"id": "52f2ab2ebcbc57f1066b8b4f", "name": "Bus Stop", "pluralName": "Bus Stops", "shortName": "Bus Stop", "icon": {"prefix": "https://ss3.4sqi.net/img/categories_v2/travel/busstation_", "suffix": ".png"}, "primary": true}], "photos": {"count": 0, "groups": []}}, "referralId": "e-0-50a6774de4b0c08636dffe42-11"}, {"reasons": {"count": 0, "items": [{"summary": "This spot is popular", "type": "general", "reasonName": "globalInteractionReason"}]}, "venue": {"id": "509e4cdae4b057cac3d77795", "name": "Curtain Road Bus Stop A", "location": {"lat": 51.52428817749023, "lng": -0.08028594404459, "labeledLatLngs": [{"label": "display", "lat": 51.52428817749023, "lng": -0.08028594404459}], "distance": 280, "cc": "GB", "country": "United Kingdom", "formattedAddress": ["United Kingdom"]}, "categories": [{"id": "52f2ab2ebcbc57f1066b8b4f", "name": "Bus Stop", "pluralName": "Bus Stops", "shortName": "Bus Stop", "icon": {"prefix": "https://ss3.4sqi.net/img/categories_v2/travel/busstation_", "suffix": ".png"}, "primary": true}], "photos": {"count": 0, "groups": []}}, "referralId": "e-0-509e4cdae4b057cac3d77795-12"}, {"reasons": {"count": 0, "items": [{"summary": "This spot is popular", "type": "general", "reasonName": "globalInteractionReason"}]}, "venue": {"id": "4e4aa9922271ac3f6bd77f40", "name": "TfL Santander Cycle Hire", "location": {"address": "Clifton St", "crossStreet": "Scrutton St", "lat": 51.52303344881193, "lng": -0.08298313538880596, "labeledLatLngs": [{"label": "display", "lat": 51.52303344881193, "lng": -0.08298313538880596}], "distance": 295, "postalCode": "EC2A 4EX", "cc": "GB", "city": "Shoreditch", "state": "Greater London", "country": "United Kingdom", "formattedAddress": ["Clifton St (Scrutton St)", "Shoreditch", "Greater London", "EC2A 4EX", "United Kingdom"]}, "categories": [{"id": "4e4c9077bd41f78e849722f9", "name": "Bike Rental / Bike Share", "pluralName": "Bike Rentals / Bike Shares", "shortName": "Bike", "icon": {"prefix": "https://ss3.4sqi.net/img/categories_v2/shops/bikeshop_", "suffix": ".png"}, "primary": true}], "photos": {"count": 0, "groups": []}}, "referralId": "e-0-4e4aa9922271ac3f6bd77f40-13"}, {"reasons": {"count": 0, "items": [{"summary": "This spot is popular", "type": "general", "reasonName": "globalInteractionReason"}]}, "venue": {"id": "5237563311d2a8888b4d0329", "name": "Platform 2", "location": {"address": "Shoreditch High Street Station", "lat": 51.52331372609919, "lng": -0.07542811605489173, "labeledLatLngs": [{"label": "display", "lat": 51.52331372609919, "lng": -0.07542811605489173}], "distance": 303, "cc": "GB", "city": "Shoreditch", "state": "Greater London", "country": "United Kingdom", "formattedAddress": ["Shoreditch High Street Station", "Shoreditch", "Greater London", "United Kingdom"]}, "categories": [{"id": "4f4531504b9074f6e4fb0102", "name": "Platform", "pluralName": "Platforms", "shortName": "Platform", "icon": {"prefix": "https://ss3.4sqi.net/img/categories_v2/travel/trainstation_", "suffix": ".png"}, "primary": true}], "photos": {"count": 0, "groups": []}}, "referralId": "e-0-5237563311d2a8888b4d0329-14"}, {"reasons": {"count": 0, "items": [{"summary": "This spot is popular", "type": "general", "reasonName": "globalInteractionReason"}]}, "venue": {"id": "58e9fa81e9dad136802a958c", "name": "Platform 1", "location": {"address": "Shoreditch High Street Overground", "lat": 51.523249, "lng": -0.075358, "labeledLatLngs": [{"label": "display", "lat": 51.523249, "lng": -0.075358}], "distance": 303, "postalCode": "E1", "cc": "GB", "city": "London", "state": "Greater London", "country": "United Kingdom", "formattedAddress": ["Shoreditch High Street Overground", "London", "Greater London", "E1", "United Kingdom"]}, "categories": [{"id": "4f4531504b9074f6e4fb0102", "name": "Platform", "pluralName": "Platforms", "shortName": "Platform", "icon": {"prefix": "https://ss3.4sqi.net/img/categories_v2/travel/trainstation_", "suffix": ".png"}, "primary": true}], "photos": {"count": 0, "groups": []}}, "referralId": "e-0-58e9fa81e9dad136802a958c-15"}, {"reasons": {"count": 0, "items": [{"summary": "This spot is popular", "type": "general", "reasonName": "globalInteractionReason"}]}, "venue": {"id": "4bbf7e9974a9a593d88bcef6", "name": "Shoreditch House Roof Pool", "location": {"address": "Ebor St.", "lat": 51.52389358256591, "lng": -0.07603813970767952, "labeledLatLngs": [{"label": "display", "lat": 51.52389358256591, "lng": -0.07603813970767952}], "distance": 311, "postalCode": "E1 6AW", "cc": "GB", "city": "Shoreditch", "state": "Greater London", "country": "United Kingdom", "formattedAddress": ["Ebor St.", "Shoreditch", "Greater London", "E1 6AW", "United Kingdom"]}, "categories": [{"id": "4bf58dd8d48988d132951735", "name": "Hotel Pool", "pluralName": "Hotel Pools", "shortName": "Pool", "icon": {"prefix": "https://ss3.4sqi.net/img/categories_v2/parks_outdoors/pool_", "suffix": ".png"}, "primary": true}], "photos": {"count": 0, "groups": []}}, "referralId": "e-0-4bbf7e9974a9a593d88bcef6-16"}, {"reasons": {"count": 0, "items": [{"summary": "This spot is popular", "type": "general", "reasonName": "globalInteractionReason"}]}, "venue": {"id": "4c5463391b46c9b613ad83ce", "name": "TfL Santander Cycle Hire", "location": {"address": "Brushfield St", "crossStreet": "Bishopsgate", "lat": 51.51908062806824, "lng": -0.07877647922324509, "labeledLatLngs": [{"label": "display", "lat": 51.51908062806824, "lng": -0.07877647922324509}], "distance": 311, "postalCode": "E1 6AA", "cc": "GB", "city": "Spitalfields", "state": "Greater London", "country": "United Kingdom", "formattedAddress": ["Brushfield St (Bishopsgate)", "Spitalfields", "Greater London", "E1 6AA", "United Kingdom"]}, "categories": [{"id": "4e4c9077bd41f78e849722f9", "name": "Bike Rental / Bike Share", "pluralName": "Bike Rentals / Bike Shares", "shortName": "Bike", "icon": {"prefix": "https://ss3.4sqi.net/img/categories_v2/shops/bikeshop_", "suffix": ".png"}, "primary": true}], "photos": {"count": 0, "groups": []}}, "referralId": "e-0-4c5463391b46c9b613ad83ce-17"}, {"reasons": {"count": 0, "items": [{"summary": "This spot is popular", "type": "general", "reasonName": "globalInteractionReason"}]}, "venue": {"id": "4c76a36466be6dcb03b8c30f", "name": "Platform 9", "location": {"address": "Liverpool Street Station (LST)", "lat": 51.51910426625349, "lng": -0.08125600879410529, "labeledLatLngs": [{"label": "display", "lat": 51.51910426625349, "lng": -0.08125600879410529}], "distance": 340, "postalCode": "EC2M 7PY", "cc": "GB", "city": "London", "state": "Greater London", "country": "United Kingdom", "formattedAddress": ["Liverpool Street Station (LST)", "London", "Greater London", "EC2M 7PY", "United Kingdom"]}, "categories": [{"id": "4f4531504b9074f6e4fb0102", "name": "Platform", "pluralName": "Platforms", "shortName": "Platform", "icon": {"prefix": "https://ss3.4sqi.net/img/categories_v2/travel/trainstation_", "suffix": ".png"}, "primary": true}], "photos": {"count": 0, "groups": []}}, "referralId": "e-0-4c76a36466be6dcb03b8c30f-18"}, {"reasons": {"count": 0, "items": [{"summary": "This spot is popular", "type": "general", "reasonName": "globalInteractionReason"}]}, "venue": {"id": "507a8806e4b0c101c6dd1db4", "name": "Shoreditch High Street Station Bus Stop N", "location": {"address": "Shoreditch High St", "lat": 51.524887489887206, "lng": -0.07755906419649708, "labeledLatLngs": [{"label": "display", "lat": 51.524887489887206, "lng": -0.07755906419649708}], "distance": 353, "cc": "GB", "neighborhood": "Shoreditch", "city": "London", "state": "Greater London", "country": "United Kingdom", "formattedAddress": ["Shoreditch High St", "London", "Greater London", "United Kingdom"]}, "categories": [{"id": "52f2ab2ebcbc57f1066b8b4f", "name": "Bus Stop", "pluralName": "Bus Stops", "shortName": "Bus Stop", "icon": {"prefix": "https://ss3.4sqi.net/img/categories_v2/travel/busstation_", "suffix": ".png"}, "primary": true}], "photos": {"count": 0, "groups": []}}, "referralId": "e-0-507a8806e4b0c101c6dd1db4-19"}, {"reasons": {"count": 0, "items": [{"summary": "This spot is popular", "type": "general", "reasonName": "globalInteractionReason"}]}, "venue": {"id": "4c53607430f92d7ff783a9b8", "name": "TfL Santander Cycle Hire", "location": {"address": "Bethnal Green Rd", "crossStreet": "Chance St", "lat": 51.52369311158833, "lng": -0.07490339856606788, "labeledLatLngs": [{"label": "display", "lat": 51.52369311158833, "lng": -0.07490339856606788}], "distance": 356, "postalCode": "E2 7JB", "cc": "GB", "city": "Shoreditch", "state": "Greater London", "country": "United Kingdom", "formattedAddress": ["Bethnal Green Rd (Chance St)", "Shoreditch", "Greater London", "E2 7JB", "United Kingdom"]}, "categories": [{"id": "4e4c9077bd41f78e849722f9", "name": "Bike Rental / Bike Share", "pluralName": "Bike Rentals / Bike Shares", "shortName": "Bike", "icon": {"prefix": "https://ss3.4sqi.net/img/categories_v2/shops/bikeshop_", "suffix": ".png"}, "primary": true}], "photos": {"count": 0, "groups": []}}, "referralId": "e-0-4c53607430f92d7ff783a9b8-20"}, {"reasons": {"count": 0, "items": [{"summary": "This spot is popular", "type": "general", "reasonName": "globalInteractionReason"}]}, "venue": {"id": "4ee2e063e4b04d23df60c5bb", "name": "Bus Stop G", "location": {"address": "Bishopsgate Street", "lat": 51.51858704621419, "lng": -0.07949709872441436, "labeledLatLngs": [{"label": "display", "lat": 51.51858704621419, "lng": -0.07949709872441436}], "distance": 366, "cc": "GB", "city": "London", "state": "Greater London", "country": "United Kingdom", "formattedAddress": ["Bishopsgate Street", "London", "Greater London", "United Kingdom"]}, "categories": [{"id": "52f2ab2ebcbc57f1066b8b4f", "name": "Bus Stop", "pluralName": "Bus Stops", "shortName": "Bus Stop", "icon": {"prefix": "https://ss3.4sqi.net/img/categories_v2/travel/busstation_", "suffix": ".png"}, "primary": true}], "photos": {"count": 0, "groups": []}}, "referralId": "e-0-4ee2e063e4b04d23df60c5bb-21"}, {"reasons": {"count": 0, "items": [{"summary": "This spot is popular", "type": "general", "reasonName": "globalInteractionReason"}]}, "venue": {"id": "5de51a5802579b0008d2067e", "name": "Hart Shoreditch Hotel London, Curio Collection by Hilton", "location": {"address": "61-67 Great Eastern St", "lat": 51.524889, "lng": -0.081418, "labeledLatLngs": [{"label": "display", "lat": 51.524889, "lng": -0.081418}], "distance": 371, "postalCode": "EC2A 3HU", "cc": "GB", "city": "London", "state": "Greater London", "country": "United Kingdom", "formattedAddress": ["61-67 Great Eastern St", "London", "Greater London", "EC2A 3HU", "United Kingdom"]}, "categories": [{"id": "4bf58dd8d48988d1fa931735", "name": "Hotel", "pluralName": "Hotels", "shortName": "Hotel", "icon": {"prefix": "https://ss3.4sqi.net/img/categories_v2/travel/hotel_", "suffix": ".png"}, "primary": true}], "photos": {"count": 0, "groups": []}}, "referralId": "e-0-5de51a5802579b0008d2067e-22"}, {"reasons": {"count": 0, "items": [{"summary": "This spot is popular", "type": "general", "reasonName": "globalInteractionReason"}]}, "venue": {"id": "4c50416e2ba0ef3b079a54e8", "name": "Liverpool Street Bus Station", "location": {"address": "Sun Street Passage", "crossStreet": "at Liverpool St.", "lat": 51.51852394008591, "lng": -0.07973370804180845, "labeledLatLngs": [{"label": "display", "lat": 51.51852394008591, "lng": -0.07973370804180845}], "distance": 374, "postalCode": "E C2M", "cc": "GB", "city": "London", "state": "Greater London", "country": "United Kingdom", "formattedAddress": ["Sun Street Passage (at Liverpool St.)", "London", "Greater London", "E C2M", "United Kingdom"]}, "categories": [{"id": "4bf58dd8d48988d1fe931735", "name": "Bus Station", "pluralName": "Bus Stations", "shortName": "Bus Station", "icon": {"prefix": "https://ss3.4sqi.net/img/categories_v2/travel/busstation_", "suffix": ".png"}, "primary": true}], "photos": {"count": 0, "groups": []}}, "referralId": "e-0-4c50416e2ba0ef3b079a54e8-23"}, {"reasons": {"count": 0, "items": [{"summary": "This spot is popular", "type": "general", "reasonName": "globalInteractionReason"}]}, "venue": {"id": "4ceeaa47f368b1f746df81f7", "name": "Platform 16", "location": {"address": "Liverpool Street Station (LST)", "lat": 51.51852689911091, "lng": -0.07977701997440029, "labeledLatLngs": [{"label": "display", "lat": 51.51852689911091, "lng": -0.07977701997440029}], "distance": 374, "postalCode": "EC2M 7PY", "cc": "GB", "city": "London", "state": "Greater London", "country": "United Kingdom", "formattedAddress": ["Liverpool Street Station (LST)", "London", "Greater London", "EC2M 7PY", "United Kingdom"]}, "categories": [{"id": "4f4531504b9074f6e4fb0102", "name": "Platform", "pluralName": "Platforms", "shortName": "Platform", "icon": {"prefix": "https://ss3.4sqi.net/img/categories_v2/travel/trainstation_", "suffix": ".png"}, "primary": true}], "photos": {"count": 0, "groups": []}}, "referralId": "e-0-4ceeaa47f368b1f746df81f7-24"}, {"reasons": {"count": 0, "items": [{"summary": "This spot is popular", "type": "general", "reasonName": "globalInteractionReason"}]}, "venue": {"id": "4b32fde0f964a520dd1625e3", "name": "Terravision Bus Stop", "location": {"address": "Bishopsgate", "lat": 51.5184706979113, "lng": -0.07973798757542765, "labeledLatLngs": [{"label": "display", "lat": 51.5184706979113, "lng": -0.07973798757542765}], "distance": 380, "cc": "GB", "city": "London", "state": "Greater London", "country": "United Kingdom", "formattedAddress": ["Bishopsgate", "London", "Greater London", "United Kingdom"]}, "categories": [{"id": "52f2ab2ebcbc57f1066b8b4f", "name": "Bus Stop", "pluralName": "Bus Stops", "shortName": "Bus Stop", "icon": {"prefix": "https://ss3.4sqi.net/img/categories_v2/travel/busstation_", "suffix": ".png"}, "primary": true}], "photos": {"count": 0, "groups": []}}, "referralId": "e-0-4b32fde0f964a520dd1625e3-25"}, {"reasons": {"count": 0, "items": [{"summary": "This spot is popular", "type": "general", "reasonName": "globalInteractionReason"}]}, "venue": {"id": "5b7d9abf3731ee002ced29b7", "name": "Liverpool Street Station Bus Stop G", "location": {"address": "Bishopsgate", "lat": 51.5187516, "lng": -0.0814374, "labeledLatLngs": [{"label": "display", "lat": 51.5187516, "lng": -0.0814374}], "distance": 381, "postalCode": "EC2M 7PY", "cc": "GB", "city": "London", "state": "Greater London", "country": "United Kingdom", "formattedAddress": ["Bishopsgate", "London", "Greater London", "EC2M 7PY", "United Kingdom"]}, "categories": [{"id": "52f2ab2ebcbc57f1066b8b4f", "name": "Bus Stop", "pluralName": "Bus Stops", "shortName": "Bus Stop", "icon": {"prefix": "https://ss3.4sqi.net/img/categories_v2/travel/busstation_", "suffix": ".png"}, "primary": true}], "photos": {"count": 0, "groups": []}}, "referralId": "e-0-5b7d9abf3731ee002ced29b7-26"}, {"reasons": {"count": 0, "items": [{"summary": "This spot is popular", "type": "general", "reasonName": "globalInteractionReason"}]}, "venue": {"id": "5bc266900457b7002c95e51f", "name": "Redchurch Townhouse", "location": {"address": "25-27 Whitby St", "crossStreet": "Chance St", "lat": 51.524082, "lng": -0.074899, "labeledLatLngs": [{"label": "display", "lat": 51.524082, "lng": -0.074899}], "distance": 383, "postalCode": "E1 6JU", "cc": "GB", "city": "London", "state": "Greater London", "country": "United Kingdom", "formattedAddress": ["25-27 Whitby St (Chance St)", "London", "Greater London", "E1 6JU", "United Kingdom"]}, "categories": [{"id": "4bf58dd8d48988d1fa931735", "name": "Hotel", "pluralName": "Hotels", "shortName": "Hotel", "icon": {"prefix": "https://ss3.4sqi.net/img/categories_v2/travel/hotel_", "suffix": ".png"}, "primary": true}], "photos": {"count": 0, "groups": []}, "venuePage": {"id": "535619435"}}, "referralId": "e-0-5bc266900457b7002c95e51f-27"}, {"reasons": {"count": 0, "items": [{"summary": "This spot is popular", "type": "general", "reasonName": "globalInteractionReason"}]}, "venue": {"id": "51c3351d498eb4e78a37d308", "name": "Rez Apart Hotel", "location": {"address": "26 Widegate Street", "lat": 51.518413456143875, "lng": -0.07860061410244498, "labeledLatLngs": [{"label": "display", "lat": 51.518413456143875, "lng": -0.07860061410244498}], "distance": 386, "postalCode": "E1 7HP", "cc": "GB", "city": "London", "state": "Greater London", "country": "United Kingdom", "formattedAddress": ["26 Widegate Street", "London", "Greater London", "E1 7HP", "United Kingdom"]}, "categories": [{"id": "4bf58dd8d48988d1fa931735", "name": "Hotel", "pluralName": "Hotels", "shortName": "Hotel", "icon": {"prefix": "https://ss3.4sqi.net/img/categories_v2/travel/hotel_", "suffix": ".png"}, "primary": true}], "photos": {"count": 0, "groups": []}}, "referralId": "e-0-51c3351d498eb4e78a37d308-28"}, {"reasons": {"count": 0, "items": [{"summary": "This spot is popular", "type": "general", "reasonName": "globalInteractionReason"}]}, "venue": {"id": "4cd99a031647a093d3dee74c", "name": "Platform 7", "location": {"address": "Liverpool Street Station (LST)", "lat": 51.51864734552055, "lng": -0.08164165698599568, "labeledLatLngs": [{"label": "display", "lat": 51.51864734552055, "lng": -0.08164165698599568}], "distance": 398, "postalCode": "EC2M 7PY", "cc": "GB", "city": "London", "state": "Greater London", "country": "United Kingdom", "formattedAddress": ["Liverpool Street Station (LST)", "London", "Greater London", "EC2M 7PY", "United Kingdom"]}, "categories": [{"id": "4f4531504b9074f6e4fb0102", "name": "Platform", "pluralName": "Platforms", "shortName": "Platform", "icon": {"prefix": "https://ss3.4sqi.net/img/categories_v2/travel/trainstation_", "suffix": ".png"}, "primary": true}], "photos": {"count": 0, "groups": []}}, "referralId": "e-0-4cd99a031647a093d3dee74c-29"}]}]}}