{"meta": {"code": 200, "requestId": "5fedda6a35102e558006d407"}, "response": {"suggestedFilters": {"header": "Tap to show:", "filters": [{"name": "Open now", "key": "openNow"}]}, "headerLocation": "West Kensington", "headerFullLocation": "West Kensington, London", "headerLocationGranularity": "neighborhood", "query": "food", "totalResults": 25, "suggestedBounds": {"ne": {"lat": 51.49761000360001, "lng": -0.2029485537051455}, "sw": {"lat": 51.4904099964, "lng": -0.21449144629485448}}, "groups": [{"type": "Recommended Places", "name": "recommended", "items": [{"reasons": {"count": 0, "items": [{"summary": "This spot is popular", "type": "general", "reasonName": "globalInteractionReason"}]}, "venue": {"id": "53108de6498e1c8d5dc70a95", "name": "L'Elysee", "location": {"address": "93 Hammersmith Rd", "lat": 51.49496662542406, "lng": -0.2117374925961278, "labeledLatLngs": [{"label": "display", "lat": 51.49496662542406, "lng": -0.2117374925961278}], "distance": 234, "postalCode": "W14 0QH", "cc": "GB", "city": "London", "state": "Greater London", "country": "United Kingdom", "formattedAddress": ["93 Hammersmith Rd", "London", "Greater London", "W14 0QH", "United Kingdom"]}, "categories": [{"id": "4bf58dd8d48988d16a941735", "name": "Bakery", "pluralName": "Bakeries", "shortName": "Bakery", "icon": {"prefix": "https://ss3.4sqi.net/img/categories_v2/food/bakery_", "suffix": ".png"}, "primary": true}], "photos": {"count": 0, "groups": []}}, "referralId": "e-0-53108de6498e1c8d5dc70a95-0"}, {"reasons": {"count": 0, "items": [{"summary": "This spot is popular", "type": "general", "reasonName": "globalInteractionReason"}]}, "venue": {"id": "51cf30bf498e2c23fed00261", "name": "Indian Express", "location": {"address": "3 North End Parade", "lat": 51.49302784342529, "lng": -0.20823223710944824, "labeledLatLngs": [{"label": "display", "lat": 51.49302784342529, "lng": -0.20823223710944824}], "distance": 114, "postalCode": "W14 0SJ", "cc": "GB", "city": "London", "state": "Greater London", "country": "United Kingdom", "formattedAddress": ["3 North End Parade", "London", "Greater London", "W14 0SJ", "United Kingdom"]}, "categories": [{"id": "4bf58dd8d48988d10f941735", "name": "Indian Restaurant", "pluralName": "Indian Restaurants", "shortName": "Indian", "icon": {"prefix": "https://ss3.4sqi.net/img/categories_v2/food/indian_", "suffix": ".png"}, "primary": true}], "photos": {"count": 0, "groups": []}}, "referralId": "e-0-51cf30bf498e2c23fed00261-1"}, {"reasons": {"count": 0, "items": [{"summary": "This spot is popular", "type": "general", "reasonName": "globalInteractionReason"}]}, "venue": {"id": "4ec8a140e30071991683c0ef", "name": "Society Bar & Restaurant", "location": {"address": "380 Kensington High St", "crossStreet": "Holland Rd", "lat": 51.496390055467586, "lng": -0.20688094664719545, "labeledLatLngs": [{"label": "display", "lat": 51.496390055467586, "lng": -0.20688094664719545}], "distance": 294, "postalCode": "W14 8NL", "cc": "GB", "city": "Kensington and Chelsea", "state": "Greater London", "country": "United Kingdom", "formattedAddress": ["380 Kensington High St (Holland Rd)", "Kensington and Chelsea", "Greater London", "W14 8NL", "United Kingdom"]}, "categories": [{"id": "4bf58dd8d48988d1c4941735", "name": "Restaurant", "pluralName": "Restaurants", "shortName": "Restaurant", "icon": {"prefix": "https://ss3.4sqi.net/img/categories_v2/food/default_", "suffix": ".png"}, "primary": true}], "photos": {"count": 0, "groups": []}, "venuePage": {"id": "32861913"}}, "referralId": "e-0-4ec8a140e30071991683c0ef-2"}, {"reasons": {"count": 0, "items": [{"summary": "This spot is popular", "type": "general", "reasonName": "globalInteractionReason"}]}, "venue": {"id": "4b1d7165f964a5209b1024e3", "name": "Best Mangal II", "location": {"address": "66 North End Rd", "lat": 51.49104485001578, "lng": -0.20721731978807661, "labeledLatLngs": [{"label": "display", "lat": 51.49104485001578, "lng": -0.20721731978807661}], "distance": 346, "postalCode": "W14 9EP", "cc": "GB", "city": "West Kensington", "state": "Greater London", "country": "United Kingdom", "formattedAddress": ["66 North End Rd", "West Kensington", "Greater London", "W14 9EP", "United Kingdom"]}, "categories": [{"id": "5283c7b4e4b094cb91ec88d7", "name": "Kebab Restaurant", "pluralName": "Kebab Restaurants", "shortName": "Kebab", "icon": {"prefix": "https://ss3.4sqi.net/img/categories_v2/food/middleeastern_", "suffix": ".png"}, "primary": true}], "photos": {"count": 0, "groups": []}}, "referralId": "e-0-4b1d7165f964a5209b1024e3-3"}, {"reasons": {"count": 0, "items": [{"summary": "This spot is popular", "type": "general", "reasonName": "globalInteractionReason"}]}, "venue": {"id": "5950f28ffd16bb35d2fea36f", "name": "Pret A Manger", "location": {"address": "Unit 5, Kennedy House, 99-119 Hammersmith Road", "lat": 51.49464071156841, "lng": -0.211975756988092, "labeledLatLngs": [{"label": "display", "lat": 51.49464071156841, "lng": -0.211975756988092}], "distance": 236, "postalCode": "W14 0QH", "cc": "GB", "city": "London", "state": "Greater London", "country": "United Kingdom", "formattedAddress": ["Unit 5, Kennedy House, 99-119 Hammersmith Road", "London", "Greater London", "W14 0QH", "United Kingdom"]}, "categories": [{"id": "4bf58dd8d48988d1c5941735", "name": "Sandwich Place", "pluralName": "Sandwich Places", "shortName": "Sandwiches", "icon": {"prefix": "https://ss3.4sqi.net/img/categories_v2/food/deli_", "suffix": ".png"}, "primary": true}], "photos": {"count": 0, "groups": []}}, "referralId": "e-0-5950f28ffd16bb35d2fea36f-4"}, {"reasons": {"count": 0, "items": [{"summary": "This spot is popular", "type": "general", "reasonName": "globalInteractionReason"}]}, "venue": {"id": "4bed32083372c928023f1114", "name": "Cafe Continente", "location": {"address": "North End Rd", "crossStreet": "Gunterstone Rd", "lat": 51.49143881625508, "lng": -0.20727257521132425, "labeledLatLngs": [{"label": "display", "lat": 51.49143881625508, "lng": -0.20727257521132425}], "distance": 303, "postalCode": "W14 9EP", "cc": "GB", "city": "West Kensington", "state": "Greater London", "country": "United Kingdom", "formattedAddress": ["North End Rd (Gunterstone Rd)", "West Kensington", "Greater London", "W14 9EP", "United Kingdom"]}, "categories": [{"id": "4bf58dd8d48988d16d941735", "name": "Caf\u00e9", "pluralName": "Caf\u00e9s", "shortName": "Caf\u00e9", "icon": {"prefix": "https://ss3.4sqi.net/img/categories_v2/food/cafe_", "suffix": ".png"}, "primary": true}], "photos": {"count": 0, "groups": []}}, "referralId": "e-0-4bed32083372c928023f1114-5"}, {"reasons": {"count": 0, "items": [{"summary": "This spot is popular", "type": "general", "reasonName": "globalInteractionReason"}]}, "venue": {"id": "4b224fccf964a5206b4524e3", "name": "Hare & Tortoise", "location": {"address": "371-373 High St Kensington", "lat": 51.49667, "lng": -0.20497039, "labeledLatLngs": [{"label": "display", "lat": 51.49667, "lng": -0.20497039}], "distance": 393, "postalCode": "W14 8QZ", "cc": "GB", "city": "Kensington", "state": "Greater London", "country": "United Kingdom", "formattedAddress": ["371-373 High St Kensington", "Kensington", "Greater London", "W14 8QZ", "United Kingdom"]}, "categories": [{"id": "4bf58dd8d48988d111941735", "name": "Japanese Restaurant", "pluralName": "Japanese Restaurants", "shortName": "Japanese", "icon": {"prefix": "https://ss3.4sqi.net/img/categories_v2/food/japanese_", "suffix": ".png"}, "primary": true}], "photos": {"count": 0, "groups": []}}, "referralId": "e-0-4b224fccf964a5206b4524e3-6"}, {"reasons": {"count": 0, "items": [{"summary": "This spot is popular", "type": "general", "reasonName": "globalInteractionReason"}]}, "venue": {"id": "5bfaaff9bb8d36002c0881bf", "name": "Chapter Coffee", "location": {"address": "137 North End Road", "lat": 51.491954, "lng": -0.207106, "labeledLatLngs": [{"label": "display", "lat": 51.491954, "lng": -0.207106}], "distance": 254, "postalCode": "W14 8TQ", "cc": "GB", "neighborhood": "West Kensington", "city": "London", "state": "Greater London", "country": "United Kingdom", "formattedAddress": ["137 North End Road", "London", "Greater London", "W14 8TQ", "United Kingdom"]}, "categories": [{"id": "4bf58dd8d48988d16d941735", "name": "Caf\u00e9", "pluralName": "Caf\u00e9s", "shortName": "Caf\u00e9", "icon": {"prefix": "https://ss3.4sqi.net/img/categories_v2/food/cafe_", "suffix": ".png"}, "primary": true}], "photos": {"count": 0, "groups": []}}, "referralId": "e-0-5bfaaff9bb8d36002c0881bf-7"}, {"reasons": {"count": 0, "items": [{"summary": "This spot is popular", "type": "general", "reasonName": "globalInteractionReason"}]}, "venue": {"id": "4bd2ae30caff9521e051d3f0", "name": "Domino's Pizza", "location": {"address": "13 To 15 Northend Parade, Fulham", "lat": 51.49323912121304, "lng": -0.20880372879514653, "labeledLatLngs": [{"label": "display", "lat": 51.49323912121304, "lng": -0.20880372879514653}], "distance": 86, "postalCode": "W14 0SJ", "cc": "GB", "city": "London", "state": "Greater London", "country": "United Kingdom", "formattedAddress": ["13 To 15 Northend Parade, Fulham", "London", "Greater London", "W14 0SJ", "United Kingdom"]}, "categories": [{"id": "4bf58dd8d48988d1ca941735", "name": "Pizza Place", "pluralName": "Pizza Places", "shortName": "Pizza", "icon": {"prefix": "https://ss3.4sqi.net/img/categories_v2/food/pizza_", "suffix": ".png"}, "primary": true}], "photos": {"count": 0, "groups": []}}, "referralId": "e-0-4bd2ae30caff9521e051d3f0-8"}, {"reasons": {"count": 0, "items": [{"summary": "This spot is popular", "type": "general", "reasonName": "globalInteractionReason"}]}, "venue": {"id": "4b9e94baf964a52033f136e3", "name": "Miran Masala", "location": {"address": "3 Hammersmith Rd.", "lat": 51.49606329888591, "lng": -0.2082315277172626, "labeledLatLngs": [{"label": "display", "lat": 51.49606329888591, "lng": -0.2082315277172626}], "distance": 231, "postalCode": "W14 8XJ", "cc": "GB", "city": "Hammersmith", "state": "Greater London", "country": "United Kingdom", "formattedAddress": ["3 Hammersmith Rd.", "Hammersmith", "Greater London", "W14 8XJ", "United Kingdom"]}, "categories": [{"id": "4bf58dd8d48988d10f941735", "name": "Indian Restaurant", "pluralName": "Indian Restaurants", "shortName": "Indian", "icon": {"prefix": "https://ss3.4sqi.net/img/categories_v2/food/indian_", "suffix": ".png"}, "primary": true}], "photos": {"count": 0, "groups": []}}, "referralId": "e-0-4b9e94baf964a52033f136e3-9"}, {"reasons": {"count": 0, "items": [{"summary": "This spot is popular", "type": "general", "reasonName": "globalInteractionReason"}]}, "venue": {"id": "4c6442253590d13acea4e2bc", "name": "Fortune Restaurant", "location": {"address": "142 W Cromwell Rd", "lat": 51.49101055251261, "lng": -0.20657854382277385, "labeledLatLngs": [{"label": "display", "lat": 51.49101055251261, "lng": -0.20657854382277385}], "distance": 365, "postalCode": "W14 9AE", "cc": "GB", "city": "West Kensington", "state": "Greater London", "country": "United Kingdom", "formattedAddress": ["142 W Cromwell Rd", "West Kensington", "Greater London", "W14 9AE", "United Kingdom"]}, "categories": [{"id": "4bf58dd8d48988d145941735", "name": "Chinese Restaurant", "pluralName": "Chinese Restaurants", "shortName": "Chinese", "icon": {"prefix": "https://ss3.4sqi.net/img/categories_v2/food/asian_", "suffix": ".png"}, "primary": true}], "photos": {"count": 0, "groups": []}}, "referralId": "e-0-4c6442253590d13acea4e2bc-10"}, {"reasons": {"count": 0, "items": [{"summary": "This spot is popular", "type": "general", "reasonName": "globalInteractionReason"}]}, "venue": {"id": "4c8fd06fde3d236a94956618", "name": "Alborz", "location": {"address": "13 Hammersmith Rd", "lat": 51.49591793832931, "lng": -0.20869169420746944, "labeledLatLngs": [{"label": "display", "lat": 51.49591793832931, "lng": -0.20869169420746944}], "distance": 212, "postalCode": "W14 8XJ", "cc": "GB", "city": "Kensington", "state": "Greater London", "country": "United Kingdom", "formattedAddress": ["13 Hammersmith Rd", "Kensington", "Greater London", "W14 8XJ", "United Kingdom"]}, "categories": [{"id": "52e81612bcbc57f1066b79f7", "name": "Persian Restaurant", "pluralName": "Persian Restaurants", "shortName": "Persian", "icon": {"prefix": "https://ss3.4sqi.net/img/categories_v2/food/middleeastern_", "suffix": ".png"}, "primary": true}], "photos": {"count": 0, "groups": []}}, "referralId": "e-0-4c8fd06fde3d236a94956618-11"}, {"reasons": {"count": 0, "items": [{"summary": "This spot is popular", "type": "general", "reasonName": "globalInteractionReason"}]}, "venue": {"id": "4b6319baf964a520f2622ae3", "name": "Cafe del Mundo", "location": {"address": "11 Hammersmith Rd", "lat": 51.4959372463027, "lng": -0.20859746410410038, "labeledLatLngs": [{"label": "display", "lat": 51.4959372463027, "lng": -0.20859746410410038}], "distance": 214, "postalCode": "W14 8XJ", "cc": "GB", "city": "London", "state": "Greater London", "country": "United Kingdom", "formattedAddress": ["11 Hammersmith Rd", "London", "Greater London", "W14 8XJ", "United Kingdom"]}, "categories": [{"id": "4bf58dd8d48988d1c5941735", "name": "Sandwich Place", "pluralName": "Sandwich Places", "shortName": "Sandwiches", "icon": {"prefix": "https://ss3.4sqi.net/img/categories_v2/food/deli_", "suffix": ".png"}, "primary": true}], "photos": {"count": 0, "groups": []}}, "referralId": "e-0-4b6319baf964a520f2622ae3-12"}, {"reasons": {"count": 0, "items": [{"summary": "This spot is popular", "type": "general", "reasonName": "globalInteractionReason"}]}, "venue": {"id": "4acf2511f964a52084d220e3", "name": "Kanna Thai", "location": {"address": "127a Hammersmith Road", "lat": 51.49450053931474, "lng": -0.2131227010244012, "labeledLatLngs": [{"label": "display", "lat": 51.49450053931474, "lng": -0.2131227010244012}], "distance": 309, "postalCode": "W14 0QL", "cc": "GB", "city": "London", "state": "Greater London", "country": "United Kingdom", "formattedAddress": ["127a Hammersmith Road", "London", "Greater London", "W14 0QL", "United Kingdom"]}, "categories": [{"id": "4bf58dd8d48988d149941735", "name": "Thai Restaurant", "pluralName": "Thai Restaurants", "shortName": "Thai", "icon": {"prefix": "https://ss3.4sqi.net/img/categories_v2/food/thai_", "suffix": ".png"}, "primary": true}], "photos": {"count": 0, "groups": []}}, "referralId": "e-0-4acf2511f964a52084d220e3-13"}, {"reasons": {"count": 0, "items": [{"summary": "This spot is popular", "type": "general", "reasonName": "globalInteractionReason"}]}, "venue": {"id": "4acf3ddff964a520d8d220e3", "name": "Village Fayre", "location": {"address": "Kensington Village", "crossStreet": "Avonmore Road", "lat": 51.49245166523637, "lng": -0.20358297381540796, "labeledLatLngs": [{"label": "display", "lat": 51.49245166523637, "lng": -0.20358297381540796}], "distance": 396, "postalCode": "W14 8TS", "cc": "GB", "city": "West Kensington", "state": "Greater London", "country": "United Kingdom", "formattedAddress": ["Kensington Village (Avonmore Road)", "West Kensington", "Greater London", "W14 8TS", "United Kingdom"]}, "categories": [{"id": "4bf58dd8d48988d16d941735", "name": "Caf\u00e9", "pluralName": "Caf\u00e9s", "shortName": "Caf\u00e9", "icon": {"prefix": "https://ss3.4sqi.net/img/categories_v2/food/cafe_", "suffix": ".png"}, "primary": true}], "photos": {"count": 0, "groups": []}}, "referralId": "e-0-4acf3ddff964a520d8d220e3-14"}, {"reasons": {"count": 0, "items": [{"summary": "This spot is popular", "type": "general", "reasonName": "globalInteractionReason"}]}, "venue": {"id": "4e496e58fa76a0c058c402c5", "name": "Red Planet Pizza", "location": {"address": "North End Road 2-4", "lat": 51.49478321983996, "lng": -0.2109832495370111, "labeledLatLngs": [{"label": "display", "lat": 51.49478321983996, "lng": -0.2109832495370111}], "distance": 178, "postalCode": "W14 0SH", "cc": "GB", "city": "Hammersmith", "state": "Greater London", "country": "United Kingdom", "formattedAddress": ["North End Road 2-4", "Hammersmith", "Greater London", "W14 0SH", "United Kingdom"]}, "categories": [{"id": "4bf58dd8d48988d1ca941735", "name": "Pizza Place", "pluralName": "Pizza Places", "shortName": "Pizza", "icon": {"prefix": "https://ss3.4sqi.net/img/categories_v2/food/pizza_", "suffix": ".png"}, "primary": true}], "photos": {"count": 0, "groups": []}}, "referralId": "e-0-4e496e58fa76a0c058c402c5-15"}, {"reasons": {"count": 0, "items": [{"summary": "This spot is popular", "type": "general", "reasonName": "globalInteractionReason"}]}, "venue": {"id": "4c74c0dcb474a1cd1680b7bf", "name": "Pizza pronto", "location": {"address": "North End Crescent", "lat": 51.492727742329464, "lng": -0.20716283359921112, "labeledLatLngs": [{"label": "display", "lat": 51.492727742329464, "lng": -0.20716283359921112}], "distance": 178, "postalCode": "W14", "cc": "GB", "city": "London", "state": "Greater London", "country": "United Kingdom", "formattedAddress": ["North End Crescent", "London", "Greater London", " W14", "United Kingdom"]}, "categories": [{"id": "4bf58dd8d48988d1ca941735", "name": "Pizza Place", "pluralName": "Pizza Places", "shortName": "Pizza", "icon": {"prefix": "https://ss3.4sqi.net/img/categories_v2/food/pizza_", "suffix": ".png"}, "primary": true}], "photos": {"count": 0, "groups": []}}, "referralId": "e-0-4c74c0dcb474a1cd1680b7bf-16"}, {"reasons": {"count": 0, "items": [{"summary": "This spot is popular", "type": "general", "reasonName": "globalInteractionReason"}]}, "venue": {"id": "4e0c4c1cd22d9e3b2fc0d77d", "name": "Frank's Sandwich Bar", "location": {"address": "Addison Bridge Pl.", "crossStreet": "at Kensington High St.", "lat": 51.49592581601347, "lng": -0.20784528399483643, "labeledLatLngs": [{"label": "display", "lat": 51.49592581601347, "lng": -0.20784528399483643}], "distance": 221, "postalCode": "W14 8XP", "cc": "GB", "city": "West Kensington", "state": "Greater London", "country": "United Kingdom", "formattedAddress": ["Addison Bridge Pl. (at Kensington High St.)", "West Kensington", "Greater London", "W14 8XP", "United Kingdom"]}, "categories": [{"id": "4bf58dd8d48988d1c5941735", "name": "Sandwich Place", "pluralName": "Sandwich Places", "shortName": "Sandwiches", "icon": {"prefix": "https://ss3.4sqi.net/img/categories_v2/food/deli_", "suffix": ".png"}, "primary": true}], "photos": {"count": 0, "groups": []}}, "referralId": "e-0-4e0c4c1cd22d9e3b2fc0d77d-17"}, {"reasons": {"count": 0, "items": [{"summary": "This spot is popular", "type": "general", "reasonName": "globalInteractionReason"}]}, "venue": {"id": "4c3b0cbedef90f47d63efd2d", "name": "Chicken Shack", "location": {"address": "North End Crescent", "crossStreet": "North End Road", "lat": 51.49207072508791, "lng": -0.2071709774856614, "labeledLatLngs": [{"label": "display", "lat": 51.49207072508791, "lng": -0.2071709774856614}], "distance": 241, "postalCode": "W14", "cc": "GB", "city": "Hammersmith", "state": "Greater London", "country": "United Kingdom", "formattedAddress": ["North End Crescent (North End Road)", "Hammersmith", "Greater London", " W14", "United Kingdom"]}, "categories": [{"id": "4d4ae6fc7a7b7dea34424761", "name": "Fried Chicken Joint", "pluralName": "Fried Chicken Joints", "shortName": "Fried Chicken", "icon": {"prefix": "https://ss3.4sqi.net/img/categories_v2/food/friedchicken_", "suffix": ".png"}, "primary": true}], "photos": {"count": 0, "groups": []}}, "referralId": "e-0-4c3b0cbedef90f47d63efd2d-18"}, {"reasons": {"count": 0, "items": [{"summary": "This spot is popular", "type": "general", "reasonName": "globalInteractionReason"}]}, "venue": {"id": "5236f86711d2994dbe3cf693", "name": "Sendiana", "location": {"lat": 51.49449786909062, "lng": -0.21306231881063992, "labeledLatLngs": [{"label": "display", "lat": 51.49449786909062, "lng": -0.21306231881063992}], "distance": 305, "cc": "GB", "country": "United Kingdom", "formattedAddress": ["United Kingdom"]}, "categories": [{"id": "4bf58dd8d48988d16d941735", "name": "Caf\u00e9", "pluralName": "Caf\u00e9s", "shortName": "Caf\u00e9", "icon": {"prefix": "https://ss3.4sqi.net/img/categories_v2/food/cafe_", "suffix": ".png"}, "primary": true}], "photos": {"count": 0, "groups": []}}, "referralId": "e-0-5236f86711d2994dbe3cf693-19"}, {"reasons": {"count": 0, "items": [{"summary": "This spot is popular", "type": "general", "reasonName": "globalInteractionReason"}]}, "venue": {"id": "4b67e38ef964a52052602be3", "name": "Cafe Paradiso", "location": {"address": "129 Hammersmith Road", "crossStreet": "Auriol Road", "lat": 51.494443180274, "lng": -0.2132142429741006, "labeledLatLngs": [{"label": "display", "lat": 51.494443180274, "lng": -0.2132142429741006}], "distance": 315, "postalCode": "W14 0QL", "cc": "GB", "city": "London", "state": "Greater London", "country": "United Kingdom", "formattedAddress": ["129 Hammersmith Road (Auriol Road)", "London", "Greater London", "W14 0QL", "United Kingdom"]}, "categories": [{"id": "4bf58dd8d48988d16d941735", "name": "Caf\u00e9", "pluralName": "Caf\u00e9s", "shortName": "Caf\u00e9", "icon": {"prefix": "https://ss3.4sqi.net/img/categories_v2/food/cafe_", "suffix": ".png"}, "primary": true}], "photos": {"count": 0, "groups": []}}, "referralId": "e-0-4b67e38ef964a52052602be3-20"}, {"reasons": {"count": 0, "items": [{"summary": "This spot is popular", "type": "general", "reasonName": "globalInteractionReason"}]}, "venue": {"id": "4b7fe48af964a520ee4230e3", "name": "PizzaExpress", "location": {"address": "The Addison Rooms, Olympia Exhibition Centre, Hammersmith Road", "crossStreet": "Olympia Exhibition Centre", "lat": 51.49609695998457, "lng": -0.20871447887589056, "labeledLatLngs": [{"label": "display", "lat": 51.49609695998457, "lng": -0.20871447887589056}], "distance": 232, "postalCode": "W14 8UX", "cc": "GB", "city": "London", "state": "Greater London", "country": "United Kingdom", "formattedAddress": ["The Addison Rooms, Olympia Exhibition Centre, Hammersmith Road (Olympia Exhibition Centre)", "London", "Greater London", "W14 8UX", "United Kingdom"]}, "categories": [{"id": "4bf58dd8d48988d1ca941735", "name": "Pizza Place", "pluralName": "Pizza Places", "shortName": "Pizza", "icon": {"prefix": "https://ss3.4sqi.net/img/categories_v2/food/pizza_", "suffix": ".png"}, "primary": true}], "photos": {"count": 0, "groups": []}}, "referralId": "e-0-4b7fe48af964a520ee4230e3-21"}, {"reasons": {"count": 0, "items": [{"summary": "This spot is popular", "type": "general", "reasonName": "globalInteractionReason"}]}, "venue": {"id": "4d35892f6c7c721eabaccb56", "name": "UMG Cafe", "location": {"lat": 51.496724, "lng": -0.205647, "labeledLatLngs": [{"label": "display", "lat": 51.496724, "lng": -0.205647}], "distance": 369, "cc": "GB", "country": "United Kingdom", "formattedAddress": ["United Kingdom"]}, "categories": [{"id": "4bf58dd8d48988d16d941735", "name": "Caf\u00e9", "pluralName": "Caf\u00e9s", "shortName": "Caf\u00e9", "icon": {"prefix": "https://ss3.4sqi.net/img/categories_v2/food/cafe_", "suffix": ".png"}, "primary": true}], "photos": {"count": 0, "groups": []}}, "referralId": "e-0-4d35892f6c7c721eabaccb56-22"}, {"reasons": {"count": 0, "items": [{"summary": "This spot is popular", "type": "general", "reasonName": "globalInteractionReason"}]}, "venue": {"id": "4c4f3f2ea7351b8dede1cb92", "name": "Chicken Cottage", "location": {"address": "North End Road", "lat": 51.490679858158515, "lng": -0.20680136615906497, "labeledLatLngs": [{"label": "display", "lat": 51.490679858158515, "lng": -0.20680136615906497}], "distance": 393, "cc": "GB", "country": "United Kingdom", "formattedAddress": ["North End Road", "United Kingdom"]}, "categories": [{"id": "4bf58dd8d48988d16e941735", "name": "Fast Food Restaurant", "pluralName": "Fast Food Restaurants", "shortName": "Fast Food", "icon": {"prefix": "https://ss3.4sqi.net/img/categories_v2/food/fastfood_", "suffix": ".png"}, "primary": true}], "photos": {"count": 0, "groups": []}}, "referralId": "e-0-4c4f3f2ea7351b8dede1cb92-23"}, {"reasons": {"count": 0, "items": [{"summary": "This spot is popular", "type": "general", "reasonName": "globalInteractionReason"}]}, "venue": {"id": "4c2b448977cfe21efc2bb4f1", "name": "El Toro", "location": {"address": "87 Hammersmith Rd", "crossStreet": "N End Rd", "lat": 51.49491, "lng": -0.211484, "labeledLatLngs": [{"label": "display", "lat": 51.49491, "lng": -0.211484}], "distance": 216, "postalCode": "W14 0QH", "cc": "GB", "city": "Hammersmith", "state": "Greater London", "country": "United Kingdom", "formattedAddress": ["87 Hammersmith Rd (N End Rd)", "Hammersmith", "Greater London", "W14 0QH", "United Kingdom"]}, "categories": [{"id": "4bf58dd8d48988d107941735", "name": "Argentinian Restaurant", "pluralName": "Argentinian Restaurants", "shortName": "Argentinian", "icon": {"prefix": "https://ss3.4sqi.net/img/categories_v2/food/argentinian_", "suffix": ".png"}, "primary": true}], "photos": {"count": 0, "groups": []}}, "referralId": "e-0-4c2b448977cfe21efc2bb4f1-24"}]}]}}