{"meta": {"code": 200, "requestId": "5feddab50062d40d7ed7e2ff"}, "response": {"headerLocation": "Hackney Central", "headerFullLocation": "Hackney Central, London", "headerLocationGranularity": "neighborhood", "query": "travel", "totalResults": 13, "suggestedBounds": {"ne": {"lat": 51.552127003600006, "lng": -0.05570164049476743}, "sw": {"lat": 51.544926996399994, "lng": -0.06725835950523257}}, "groups": [{"type": "Recommended Places", "name": "recommended", "items": [{"reasons": {"count": 0, "items": [{"summary": "This spot is popular", "type": "general", "reasonName": "globalInteractionReason"}]}, "venue": {"id": "56cf19ffcd105562b4a2785f", "name": "KIP Hotel", "location": {"address": "2 Aspland Grove", "lat": 51.54730441740626, "lng": -0.056106815347146316, "labeledLatLngs": [{"label": "display", "lat": 51.54730441740626, "lng": -0.056106815347146316}], "distance": 396, "postalCode": "E8 1FJ", "cc": "GB", "city": "London", "state": "Greater London", "country": "United Kingdom", "formattedAddress": ["2 Aspland Grove", "London", "Greater London", "E8 1FJ", "United Kingdom"]}, "categories": [{"id": "4bf58dd8d48988d1fa931735", "name": "Hotel", "pluralName": "Hotels", "shortName": "Hotel", "icon": {"prefix": "https://ss3.4sqi.net/img/categories_v2/travel/hotel_", "suffix": ".png"}, "primary": true}], "photos": {"count": 0, "groups": []}}, "referralId": "e-0-56cf19ffcd105562b4a2785f-0"}, {"reasons": {"count": 0, "items": [{"summary": "This spot is popular", "type": "general", "reasonName": "globalInteractionReason"}]}, "venue": {"id": "51b1ff87498e5838b94c5b08", "name": "Platform 3", "location": {"address": "Hackney Downs Railway Station", "lat": 51.548184359634774, "lng": -0.06047542467223532, "labeledLatLngs": [{"label": "display", "lat": 51.548184359634774, "lng": -0.06047542467223532}], "distance": 79, "cc": "GB", "neighborhood": "Hackney Central", "city": "London", "state": "Greater London", "country": "United Kingdom", "formattedAddress": ["Hackney Downs Railway Station", "London", "Greater London", "United Kingdom"]}, "categories": [{"id": "4f4531504b9074f6e4fb0102", "name": "Platform", "pluralName": "Platforms", "shortName": "Platform", "icon": {"prefix": "https://ss3.4sqi.net/img/categories_v2/travel/trainstation_", "suffix": ".png"}, "primary": true}], "photos": {"count": 0, "groups": []}}, "referralId": "e-0-51b1ff87498e5838b94c5b08-1"}, {"reasons": {"count": 0, "items": [{"summary": "This spot is popular", "type": "general", "reasonName": "globalInteractionReason"}]}, "venue": {"id": "4b790573f964a5202de92ee3", "name": "Platform 2", "location": {"address": "Hackney Downs Railway Station (HAC)", "crossStreet": "Dalston Lane", "lat": 51.54856236929082, "lng": -0.060451937650710025, "labeledLatLngs": [{"label": "display", "lat": 51.54856236929082, "lng": -0.060451937650710025}], "distance": 71, "postalCode": "E8 1LA", "cc": "GB", "neighborhood": "Hackney", "city": "London", "state": "Greater London", "country": "United Kingdom", "formattedAddress": ["Hackney Downs Railway Station (HAC) (Dalston Lane)", "Hackney Downs", "Greater London", "E8 1LA", "United Kingdom"]}, "categories": [{"id": "4f4531504b9074f6e4fb0102", "name": "Platform", "pluralName": "Platforms", "shortName": "Platform", "icon": {"prefix": "https://ss3.4sqi.net/img/categories_v2/travel/trainstation_", "suffix": ".png"}, "primary": true}], "photos": {"count": 0, "groups": []}}, "referralId": "e-0-4b790573f964a5202de92ee3-2"}, {"reasons": {"count": 0, "items": [{"summary": "This spot is popular", "type": "general", "reasonName": "globalInteractionReason"}]}, "venue": {"id": "51acceac498ea50be74e5a85", "name": "Platform 1", "location": {"address": "Hackney Downs Railway Station", "lat": 51.54842047073684, "lng": -0.060448410446289326, "labeledLatLngs": [{"label": "display", "lat": 51.54842047073684, "lng": -0.060448410446289326}], "distance": 72, "cc": "GB", "city": "London", "state": "Greater London", "country": "United Kingdom", "formattedAddress": ["Hackney Downs Railway Station", "Hackney Downs", "Greater London", "United Kingdom"]}, "categories": [{"id": "4f4531504b9074f6e4fb0102", "name": "Platform", "pluralName": "Platforms", "shortName": "Platform", "icon": {"prefix": "https://ss3.4sqi.net/img/categories_v2/travel/trainstation_", "suffix": ".png"}, "primary": true}], "photos": {"count": 0, "groups": []}}, "referralId": "e-0-51acceac498ea50be74e5a85-3"}, {"reasons": {"count": 0, "items": [{"summary": "This spot is popular", "type": "general", "reasonName": "globalInteractionReason"}]}, "venue": {"id": "51bdf947498e5042c4071a2f", "name": "Platform 4", "location": {"address": "Hackney Downs Railway Station", "lat": 51.54851812059685, "lng": -0.06077449095833905, "labeledLatLngs": [{"label": "display", "lat": 51.54851812059685, "lng": -0.06077449095833905}], "distance": 48, "cc": "GB", "city": "London", "state": "Greater London", "country": "United Kingdom", "formattedAddress": ["Hackney Downs Railway Station", "Hackney Downs", "Greater London", "United Kingdom"]}, "categories": [{"id": "4f4531504b9074f6e4fb0102", "name": "Platform", "pluralName": "Platforms", "shortName": "Platform", "icon": {"prefix": "https://ss3.4sqi.net/img/categories_v2/travel/trainstation_", "suffix": ".png"}, "primary": true}], "photos": {"count": 0, "groups": []}}, "referralId": "e-0-51bdf947498e5042c4071a2f-4"}, {"reasons": {"count": 0, "items": [{"summary": "This spot is popular", "type": "general", "reasonName": "globalInteractionReason"}]}, "venue": {"id": "56f0493a498e35328ae56d0f", "name": "Hackney Central Walkway", "location": {"address": "Hackney Central", "lat": 51.547318, "lng": -0.05919233, "labeledLatLngs": [{"label": "display", "lat": 51.547318, "lng": -0.05919233}], "distance": 207, "cc": "GB", "city": "Hackney", "state": "Greater London", "country": "United Kingdom", "formattedAddress": ["Hackney Central", "Hackney", "Greater London", "United Kingdom"]}, "categories": [{"id": "52f2ab2ebcbc57f1066b8b4a", "name": "Tunnel", "pluralName": "Tunnels", "shortName": "Tunnel", "icon": {"prefix": "https://ss3.4sqi.net/img/categories_v2/travel/default_", "suffix": ".png"}, "primary": true}], "photos": {"count": 0, "groups": []}}, "referralId": "e-0-56f0493a498e35328ae56d0f-5"}, {"reasons": {"count": 0, "items": [{"summary": "This spot is popular", "type": "general", "reasonName": "globalInteractionReason"}]}, "venue": {"id": "56474be5498e2673f4dd7f3c", "name": "Travelodge", "location": {"address": "19 Amhurst Rd", "lat": 51.54750071630048, "lng": -0.05607386825943195, "labeledLatLngs": [{"label": "display", "lat": 51.54750071630048, "lng": -0.05607386825943195}], "distance": 391, "postalCode": "E8 1JW", "cc": "GB", "neighborhood": "Hackney, London, Greater London", "city": "Hackney Central", "state": "Greater London", "country": "United Kingdom", "formattedAddress": ["19 Amhurst Rd", "Hackney Central", "Greater London", "E8 1JW", "United Kingdom"]}, "categories": [{"id": "4bf58dd8d48988d1fa931735", "name": "Hotel", "pluralName": "Hotels", "shortName": "Hotel", "icon": {"prefix": "https://ss3.4sqi.net/img/categories_v2/travel/hotel_", "suffix": ".png"}, "primary": true}], "photos": {"count": 0, "groups": []}}, "referralId": "e-0-56474be5498e2673f4dd7f3c-6"}, {"reasons": {"count": 0, "items": [{"summary": "This spot is popular", "type": "general", "reasonName": "globalInteractionReason"}]}, "venue": {"id": "4b08260ff964a520d20423e3", "name": "Hackney Central London Overground Station", "location": {"address": "Amhurst Rd", "lat": 51.54706841313448, "lng": -0.05705164314071606, "labeledLatLngs": [{"label": "display", "lat": 51.54706841313448, "lng": -0.05705164314071606}], "distance": 346, "postalCode": "E8 1LL", "cc": "GB", "city": "London", "state": "Greater London", "country": "United Kingdom", "formattedAddress": ["Amhurst Rd", "London", "Greater London", "E8 1LL", "United Kingdom"]}, "categories": [{"id": "4bf58dd8d48988d129951735", "name": "Train Station", "pluralName": "Train Stations", "shortName": "Train Station", "icon": {"prefix": "https://ss3.4sqi.net/img/categories_v2/travel/trainstation_", "suffix": ".png"}, "primary": true}], "photos": {"count": 0, "groups": []}}, "referralId": "e-0-4b08260ff964a520d20423e3-7"}, {"reasons": {"count": 0, "items": [{"summary": "This spot is popular", "type": "general", "reasonName": "globalInteractionReason"}]}, "venue": {"id": "506999653d7cfe42e733a92b", "name": "Hackney Downs Railway Station (HAC)", "location": {"address": "Dalston Lane", "lat": 51.548449147403375, "lng": -0.06048944383495127, "labeledLatLngs": [{"label": "display", "lat": 51.548449147403375, "lng": -0.06048944383495127}], "distance": 69, "postalCode": "E8 1LA", "cc": "GB", "city": "Hackney", "state": "Greater London", "country": "United Kingdom", "formattedAddress": ["Dalston Lane", "Hackney", "Greater London", "E8 1LA", "United Kingdom"]}, "categories": [{"id": "4bf58dd8d48988d129951735", "name": "Train Station", "pluralName": "Train Stations", "shortName": "Train Station", "icon": {"prefix": "https://ss3.4sqi.net/img/categories_v2/travel/trainstation_", "suffix": ".png"}, "primary": true}], "photos": {"count": 0, "groups": []}}, "referralId": "e-0-506999653d7cfe42e733a92b-8"}, {"reasons": {"count": 0, "items": [{"summary": "This spot is popular", "type": "general", "reasonName": "globalInteractionReason"}]}, "venue": {"id": "4e108d77b0fbfef99b89c341", "name": "Platform 1", "location": {"address": "Hackney Central Railway Station (HKC)", "lat": 51.547050649765616, "lng": -0.05694937140176809, "labeledLatLngs": [{"label": "display", "lat": 51.547050649765616, "lng": -0.05694937140176809}], "distance": 354, "cc": "GB", "city": "Hackney", "state": "Greater London", "country": "United Kingdom", "formattedAddress": ["Hackney Central Railway Station (HKC)", "Hackney", "Greater London", "United Kingdom"]}, "categories": [{"id": "4f4531504b9074f6e4fb0102", "name": "Platform", "pluralName": "Platforms", "shortName": "Platform", "icon": {"prefix": "https://ss3.4sqi.net/img/categories_v2/travel/trainstation_", "suffix": ".png"}, "primary": true}], "photos": {"count": 0, "groups": []}}, "referralId": "e-0-4e108d77b0fbfef99b89c341-9"}, {"reasons": {"count": 0, "items": [{"summary": "This spot is popular", "type": "general", "reasonName": "globalInteractionReason"}]}, "venue": {"id": "4df64ec7aeb7170aa2fa2b49", "name": "Platform 2", "location": {"address": "Hackney Central Railway Station (HKC), Amhurst Rd.", "lat": 51.547045941109985, "lng": -0.05671865858538778, "labeledLatLngs": [{"label": "display", "lat": 51.547045941109985, "lng": -0.05671865858538778}], "distance": 368, "postalCode": "E8 1LL", "cc": "GB", "neighborhood": "Hackney Central", "city": "Hackney", "state": "Greater London", "country": "United Kingdom", "formattedAddress": ["Hackney Central Railway Station (HKC), Amhurst Rd.", "Hackney", "Greater London", "E8 1LL", "United Kingdom"]}, "categories": [{"id": "4f4531504b9074f6e4fb0102", "name": "Platform", "pluralName": "Platforms", "shortName": "Platform", "icon": {"prefix": "https://ss3.4sqi.net/img/categories_v2/travel/trainstation_", "suffix": ".png"}, "primary": true}], "photos": {"count": 0, "groups": []}}, "referralId": "e-0-4df64ec7aeb7170aa2fa2b49-10"}, {"reasons": {"count": 0, "items": [{"summary": "This spot is popular", "type": "general", "reasonName": "globalInteractionReason"}]}, "venue": {"id": "4ddfc92ee4cde756db3be099", "name": "Pembury Road Bus Stop", "location": {"address": "Pembury Rd.", "lat": 51.55170809220659, "lng": -0.05923576592187633, "labeledLatLngs": [{"label": "display", "lat": 51.55170809220659, "lng": -0.05923576592187633}], "distance": 386, "postalCode": "E5 8LJ", "cc": "GB", "city": "Hackney", "state": "Greater London", "country": "United Kingdom", "formattedAddress": ["Pembury Rd.", "Hackney", "Greater London", "E5 8LJ", "United Kingdom"]}, "categories": [{"id": "52f2ab2ebcbc57f1066b8b4f", "name": "Bus Stop", "pluralName": "Bus Stops", "shortName": "Bus Stop", "icon": {"prefix": "https://ss3.4sqi.net/img/categories_v2/travel/busstation_", "suffix": ".png"}, "primary": true}], "photos": {"count": 0, "groups": []}}, "referralId": "e-0-4ddfc92ee4cde756db3be099-11"}, {"reasons": {"count": 0, "items": [{"summary": "This spot is popular", "type": "general", "reasonName": "globalInteractionReason"}]}, "venue": {"id": "4ed77bc982311e04d24b7be2", "name": "Bus Stop E @ Graham Road", "location": {"address": "Graham Rd", "lat": 51.54662499572316, "lng": -0.056734617858718084, "labeledLatLngs": [{"label": "display", "lat": 51.54662499572316, "lng": -0.056734617858718084}], "distance": 390, "cc": "GB", "city": "London", "state": "Greater London", "country": "United Kingdom", "formattedAddress": ["Graham Rd", "London", "Greater London", "United Kingdom"]}, "categories": [{"id": "52f2ab2ebcbc57f1066b8b4f", "name": "Bus Stop", "pluralName": "Bus Stops", "shortName": "Bus Stop", "icon": {"prefix": "https://ss3.4sqi.net/img/categories_v2/travel/busstation_", "suffix": ".png"}, "primary": true}], "photos": {"count": 0, "groups": []}}, "referralId": "e-0-4ed77bc982311e04d24b7be2-12"}]}]}}