{"meta": {"code": 200, "requestId": "5fedd9f9c8e80157c8ebfa71"}, "response": {"suggestedFilters": {"header": "Tap to show:", "filters": [{"name": "Open now", "key": "openNow"}]}, "headerLocation": "Golders Green", "headerFullLocation": "Golders Green, London", "headerLocationGranularity": "neighborhood", "query": "food", "totalResults": 24, "suggestedBounds": {"ne": {"lat": 51.57696000360001, "lng": -0.194178484233531}, "sw": {"lat": 51.569759996399995, "lng": -0.20574151576646899}}, "groups": [{"type": "Recommended Places", "name": "recommended", "items": [{"reasons": {"count": 0, "items": [{"summary": "This spot is popular", "type": "general", "reasonName": "globalInteractionReason"}]}, "venue": {"id": "4c5709446418a593f86f7e0e", "name": "Likya Ocakbasi", "location": {"address": "68-70 Golders Green Rd", "lat": 51.572769583819884, "lng": -0.1989135785937472, "labeledLatLngs": [{"label": "display", "lat": 51.572769583819884, "lng": -0.1989135785937472}], "distance": 97, "postalCode": "NW11 8LN", "cc": "GB", "city": "London", "state": "Greater London", "country": "United Kingdom", "formattedAddress": ["68-70 Golders Green Rd", "London", "Greater London", "NW11 8LN", "United Kingdom"]}, "categories": [{"id": "4f04af1f2fb6e1c99f3db0bb", "name": "Turkish Restaurant", "pluralName": "Turkish Restaurants", "shortName": "Turkish", "icon": {"prefix": "https://ss3.4sqi.net/img/categories_v2/food/turkish_", "suffix": ".png"}, "primary": true}], "photos": {"count": 0, "groups": []}}, "referralId": "e-0-4c5709446418a593f86f7e0e-0"}, {"reasons": {"count": 0, "items": [{"summary": "This spot is popular", "type": "general", "reasonName": "globalInteractionReason"}]}, "venue": {"id": "4fe70d7be4b03c981bb4a351", "name": "Spicy Grill", "location": {"address": "122 Golders Green Road", "crossStreet": "at The Riding", "lat": 51.573863818553605, "lng": -0.20079464882877185, "labeledLatLngs": [{"label": "display", "lat": 51.573863818553605, "lng": -0.20079464882877185}], "distance": 80, "cc": "GB", "city": "London", "state": "Greater London", "country": "United Kingdom", "formattedAddress": ["122 Golders Green Road (at The Riding)", "London", "Greater London", "United Kingdom"]}, "categories": [{"id": "4bf58dd8d48988d113941735", "name": "Korean Restaurant", "pluralName": "Korean Restaurants", "shortName": "Korean", "icon": {"prefix": "https://ss3.4sqi.net/img/categories_v2/food/korean_", "suffix": ".png"}, "primary": true}], "photos": {"count": 0, "groups": []}}, "referralId": "e-0-4fe70d7be4b03c981bb4a351-1"}, {"reasons": {"count": 0, "items": [{"summary": "This spot is popular", "type": "general", "reasonName": "globalInteractionReason"}]}, "venue": {"id": "4b9034b7f964a520307c33e3", "name": "pita", "location": {"address": "Golders green road", "lat": 51.57337029307584, "lng": -0.1998991089640821, "labeledLatLngs": [{"label": "display", "lat": 51.57337029307584, "lng": -0.1998991089640821}], "distance": 4, "postalCode": "NW11 8HB", "cc": "GB", "city": "London", "state": "Greater London", "country": "United Kingdom", "formattedAddress": ["Golders green road", "London", "Greater London", "NW11 8HB", "United Kingdom"]}, "categories": [{"id": "4bf58dd8d48988d10b941735", "name": "Falafel Restaurant", "pluralName": "Falafel Restaurants", "shortName": "Falafel", "icon": {"prefix": "https://ss3.4sqi.net/img/categories_v2/food/falafel_", "suffix": ".png"}, "primary": true}], "photos": {"count": 0, "groups": []}}, "referralId": "e-0-4b9034b7f964a520307c33e3-2"}, {"reasons": {"count": 0, "items": [{"summary": "This spot is popular", "type": "general", "reasonName": "globalInteractionReason"}]}, "venue": {"id": "4ed684f79a529c405bdbaa38", "name": "Sushi Mania", "location": {"address": "130 Golders Green Road", "lat": 51.573975205980645, "lng": -0.20106380406318292, "labeledLatLngs": [{"label": "display", "lat": 51.573975205980645, "lng": -0.20106380406318292}], "distance": 102, "cc": "GB", "city": "London", "state": "Greater London", "country": "United Kingdom", "formattedAddress": ["130 Golders Green Road", "London", "Greater London", "United Kingdom"]}, "categories": [{"id": "4bf58dd8d48988d1d2941735", "name": "Sushi Restaurant", "pluralName": "Sushi Restaurants", "shortName": "Sushi", "icon": {"prefix": "https://ss3.4sqi.net/img/categories_v2/food/sushi_", "suffix": ".png"}, "primary": true}], "photos": {"count": 0, "groups": []}}, "referralId": "e-0-4ed684f79a529c405bdbaa38-3"}, {"reasons": {"count": 0, "items": [{"summary": "This spot is popular", "type": "general", "reasonName": "globalInteractionReason"}]}, "venue": {"id": "5691737b498e277c24215158", "name": "Hummus Bar", "location": {"address": "82 Golders Green Road", "lat": 51.573052, "lng": -0.199405, "labeledLatLngs": [{"label": "display", "lat": 51.573052, "lng": -0.199405}], "distance": 51, "postalCode": "NW11 8LN", "cc": "GB", "country": "United Kingdom", "formattedAddress": ["82 Golders Green Road", "NW11 8LN", "United Kingdom"]}, "categories": [{"id": "52e81612bcbc57f1066b79fc", "name": "Kosher Restaurant", "pluralName": "Kosher Restaurants", "shortName": "Kosher", "icon": {"prefix": "https://ss3.4sqi.net/img/categories_v2/food/default_", "suffix": ".png"}, "primary": true}], "photos": {"count": 0, "groups": []}}, "referralId": "e-0-5691737b498e277c24215158-4"}, {"reasons": {"count": 0, "items": [{"summary": "This spot is popular", "type": "general", "reasonName": "globalInteractionReason"}]}, "venue": {"id": "4b60a23cf964a52079f129e3", "name": "L'Artista", "location": {"address": "917 Finchley Rd.", "lat": 51.572942485471046, "lng": -0.1958192777928135, "labeledLatLngs": [{"label": "display", "lat": 51.572942485471046, "lng": -0.1958192777928135}], "distance": 290, "postalCode": "NW11 7PE", "cc": "GB", "city": "Golders Green", "state": "Greater London", "country": "United Kingdom", "formattedAddress": ["917 Finchley Rd.", "Golders Green", "Greater London", "NW11 7PE", "United Kingdom"]}, "categories": [{"id": "4bf58dd8d48988d110941735", "name": "Italian Restaurant", "pluralName": "Italian Restaurants", "shortName": "Italian", "icon": {"prefix": "https://ss3.4sqi.net/img/categories_v2/food/italian_", "suffix": ".png"}, "primary": true}], "photos": {"count": 0, "groups": []}}, "referralId": "e-0-4b60a23cf964a52079f129e3-5"}, {"reasons": {"count": 0, "items": [{"summary": "This spot is popular", "type": "general", "reasonName": "globalInteractionReason"}]}, "venue": {"id": "4c7d45a65af8b60c4e168f10", "name": "Old Tree", "location": {"address": "105 Golders Green Rd", "lat": 51.57317149369065, "lng": -0.19973930025493072, "labeledLatLngs": [{"label": "display", "lat": 51.57317149369065, "lng": -0.19973930025493072}], "distance": 25, "postalCode": "NW11 8HR", "cc": "GB", "city": "Barnet", "state": "Greater London", "country": "United Kingdom", "formattedAddress": ["105 Golders Green Rd", "Barnet", "Greater London", "NW11 8HR", "United Kingdom"]}, "categories": [{"id": "4bf58dd8d48988d16a941735", "name": "Bakery", "pluralName": "Bakeries", "shortName": "Bakery", "icon": {"prefix": "https://ss3.4sqi.net/img/categories_v2/food/bakery_", "suffix": ".png"}, "primary": true}], "photos": {"count": 0, "groups": []}}, "referralId": "e-0-4c7d45a65af8b60c4e168f10-6"}, {"reasons": {"count": 0, "items": [{"summary": "This spot is popular", "type": "general", "reasonName": "globalInteractionReason"}]}, "venue": {"id": "56b5dc94498e8bc7ca64034d", "name": "Damoa", "location": {"lat": 51.57226314211949, "lng": -0.1974564419440589, "labeledLatLngs": [{"label": "display", "lat": 51.57226314211949, "lng": -0.1974564419440589}], "distance": 211, "postalCode": "NW11 8LL", "cc": "GB", "city": "London", "country": "United Kingdom", "formattedAddress": ["London", "NW11 8LL", "United Kingdom"]}, "categories": [{"id": "4bf58dd8d48988d113941735", "name": "Korean Restaurant", "pluralName": "Korean Restaurants", "shortName": "Korean", "icon": {"prefix": "https://ss3.4sqi.net/img/categories_v2/food/korean_", "suffix": ".png"}, "primary": true}], "photos": {"count": 0, "groups": []}}, "referralId": "e-0-56b5dc94498e8bc7ca64034d-7"}, {"reasons": {"count": 0, "items": [{"summary": "This spot is popular", "type": "general", "reasonName": "globalInteractionReason"}]}, "venue": {"id": "4c0b5d12a1b32d7f91f79af0", "name": "Novellino", "location": {"address": "103 Golders Green Rd", "lat": 51.57302881795456, "lng": -0.19972801208496094, "labeledLatLngs": [{"label": "display", "lat": 51.57302881795456, "lng": -0.19972801208496094}], "distance": 40, "postalCode": "NW11 8EN", "cc": "GB", "city": "Golders Green", "state": "Greater London", "country": "United Kingdom", "formattedAddress": ["103 Golders Green Rd", "Golders Green", "Greater London", "NW11 8EN", "United Kingdom"]}, "categories": [{"id": "4bf58dd8d48988d16d941735", "name": "Caf\u00e9", "pluralName": "Caf\u00e9s", "shortName": "Caf\u00e9", "icon": {"prefix": "https://ss3.4sqi.net/img/categories_v2/food/cafe_", "suffix": ".png"}, "primary": true}], "photos": {"count": 0, "groups": []}}, "referralId": "e-0-4c0b5d12a1b32d7f91f79af0-8"}, {"reasons": {"count": 0, "items": [{"summary": "This spot is popular", "type": "general", "reasonName": "globalInteractionReason"}]}, "venue": {"id": "4bd6b795637ba593468df870", "name": "Moccha cafe", "location": {"address": "40 golders green high st", "lat": 51.572303773683, "lng": -0.19782950049662076, "labeledLatLngs": [{"label": "display", "lat": 51.572303773683, "lng": -0.19782950049662076}], "distance": 188, "postalCode": "N W11", "cc": "GB", "city": "Golders Green", "state": "Greater London", "country": "United Kingdom", "formattedAddress": ["40 golders green high st", "Golders Green", "Greater London", "N W11", "United Kingdom"]}, "categories": [{"id": "4bf58dd8d48988d16d941735", "name": "Caf\u00e9", "pluralName": "Caf\u00e9s", "shortName": "Caf\u00e9", "icon": {"prefix": "https://ss3.4sqi.net/img/categories_v2/food/cafe_", "suffix": ".png"}, "primary": true}], "photos": {"count": 0, "groups": []}}, "referralId": "e-0-4bd6b795637ba593468df870-9"}, {"reasons": {"count": 0, "items": [{"summary": "This spot is popular", "type": "general", "reasonName": "globalInteractionReason"}]}, "venue": {"id": "4bc9cd1e3740b713ed405f65", "name": "Florentin", "location": {"address": "85 Golders Green High St.", "lat": 51.572753, "lng": -0.19884, "labeledLatLngs": [{"label": "display", "lat": 51.572753, "lng": -0.19884}], "distance": 102, "postalCode": "N W11", "cc": "GB", "city": "Golders Green", "state": "Greater London", "country": "United Kingdom", "formattedAddress": ["85 Golders Green High St.", "Golders Green", "Greater London", "N W11", "United Kingdom"]}, "categories": [{"id": "4bf58dd8d48988d1df931735", "name": "BBQ Joint", "pluralName": "BBQ Joints", "shortName": "BBQ", "icon": {"prefix": "https://ss3.4sqi.net/img/categories_v2/food/bbqalt_", "suffix": ".png"}, "primary": true}], "photos": {"count": 0, "groups": []}}, "referralId": "e-0-4bc9cd1e3740b713ed405f65-10"}, {"reasons": {"count": 0, "items": [{"summary": "This spot is popular", "type": "general", "reasonName": "globalInteractionReason"}]}, "venue": {"id": "4b4934ecf964a5200e6a26e3", "name": "Carmelli's", "location": {"address": "116A Golders Green Rd.", "lat": 51.57688372769462, "lng": -0.1995175925063624, "labeledLatLngs": [{"label": "display", "lat": 51.57688372769462, "lng": -0.1995175925063624}], "distance": 393, "postalCode": "NW11 8HB", "cc": "GB", "city": "London", "state": "Greater London", "country": "United Kingdom", "formattedAddress": ["116A Golders Green Rd.", "London", "Greater London", "NW11 8HB", "United Kingdom"]}, "categories": [{"id": "4bf58dd8d48988d16a941735", "name": "Bakery", "pluralName": "Bakeries", "shortName": "Bakery", "icon": {"prefix": "https://ss3.4sqi.net/img/categories_v2/food/bakery_", "suffix": ".png"}, "primary": true}], "photos": {"count": 0, "groups": []}}, "referralId": "e-0-4b4934ecf964a5200e6a26e3-11"}, {"reasons": {"count": 0, "items": [{"summary": "This spot is popular", "type": "general", "reasonName": "globalInteractionReason"}]}, "venue": {"id": "4d876a66651041bd8e179b30", "name": "Subway", "location": {"address": "42 Golders Green High Rd", "lat": 51.57241004971501, "lng": -0.1978140172952738, "labeledLatLngs": [{"label": "display", "lat": 51.57241004971501, "lng": -0.1978140172952738}], "distance": 182, "postalCode": "NW11 8LL", "cc": "GB", "city": "Golders Green", "state": "Greater London", "country": "United Kingdom", "formattedAddress": ["42 Golders Green High Rd", "Golders Green", "Greater London", "NW11 8LL", "United Kingdom"]}, "categories": [{"id": "4bf58dd8d48988d1c5941735", "name": "Sandwich Place", "pluralName": "Sandwich Places", "shortName": "Sandwiches", "icon": {"prefix": "https://ss3.4sqi.net/img/categories_v2/food/deli_", "suffix": ".png"}, "primary": true}], "photos": {"count": 0, "groups": []}}, "referralId": "e-0-4d876a66651041bd8e179b30-12"}, {"reasons": {"count": 0, "items": [{"summary": "This spot is popular", "type": "general", "reasonName": "globalInteractionReason"}]}, "venue": {"id": "4aff129af964a520d63322e3", "name": "White House Express", "location": {"address": "102 Golders Green Rd", "lat": 51.573417640099784, "lng": -0.20010124630812187, "labeledLatLngs": [{"label": "display", "lat": 51.573417640099784, "lng": -0.20010124630812187}], "distance": 11, "postalCode": "NW11 8HB", "cc": "GB", "city": "London", "state": "Greater London", "country": "United Kingdom", "formattedAddress": ["102 Golders Green Rd", "London", "Greater London", "NW11 8HB", "United Kingdom"]}, "categories": [{"id": "4bf58dd8d48988d115941735", "name": "Middle Eastern Restaurant", "pluralName": "Middle Eastern Restaurants", "shortName": "Middle Eastern", "icon": {"prefix": "https://ss3.4sqi.net/img/categories_v2/food/middleeastern_", "suffix": ".png"}, "primary": true}], "photos": {"count": 0, "groups": []}}, "referralId": "e-0-4aff129af964a520d63322e3-13"}, {"reasons": {"count": 0, "items": [{"summary": "This spot is popular", "type": "general", "reasonName": "globalInteractionReason"}]}, "venue": {"id": "4ba77519f964a520719539e3", "name": "KFC", "location": {"address": "12-14 Golders Green", "lat": 51.5724423, "lng": -0.1970094, "labeledLatLngs": [{"label": "display", "lat": 51.5724423, "lng": -0.1970094}], "distance": 228, "postalCode": "NW11 8LL", "cc": "GB", "city": "London", "state": "Greater London", "country": "United Kingdom", "formattedAddress": ["12-14 Golders Green", "London", "Greater London", "NW11 8LL", "United Kingdom"]}, "categories": [{"id": "4bf58dd8d48988d16e941735", "name": "Fast Food Restaurant", "pluralName": "Fast Food Restaurants", "shortName": "Fast Food", "icon": {"prefix": "https://ss3.4sqi.net/img/categories_v2/food/fastfood_", "suffix": ".png"}, "primary": true}], "photos": {"count": 0, "groups": []}, "venuePage": {"id": "584734267"}}, "referralId": "e-0-4ba77519f964a520719539e3-14"}, {"reasons": {"count": 0, "items": [{"summary": "This spot is popular", "type": "general", "reasonName": "globalInteractionReason"}]}, "venue": {"id": "4f0f3391e4b0b3060841b5ee", "name": "Sarang", "location": {"address": "Golders Green", "lat": 51.571368, "lng": -0.19559, "labeledLatLngs": [{"label": "display", "lat": 51.571368, "lng": -0.19559}], "distance": 374, "postalCode": "NW11 8RR", "cc": "GB", "city": "Golders Green", "state": "Greater London", "country": "United Kingdom", "formattedAddress": ["Golders Green", "Golders Green", "Greater London", "NW11 8RR", "United Kingdom"]}, "categories": [{"id": "4bf58dd8d48988d113941735", "name": "Korean Restaurant", "pluralName": "Korean Restaurants", "shortName": "Korean", "icon": {"prefix": "https://ss3.4sqi.net/img/categories_v2/food/korean_", "suffix": ".png"}, "primary": true}], "photos": {"count": 0, "groups": []}}, "referralId": "e-0-4f0f3391e4b0b3060841b5ee-15"}, {"reasons": {"count": 0, "items": [{"summary": "This spot is popular", "type": "general", "reasonName": "globalInteractionReason"}]}, "venue": {"id": "4e9ac2ee775b2c05adf1c2af", "name": "Dim Sum House", "location": {"address": "63 Golders Green Rd.", "lat": 51.572390831792475, "lng": -0.1981189198643456, "labeledLatLngs": [{"label": "display", "lat": 51.572390831792475, "lng": -0.1981189198643456}], "distance": 166, "postalCode": "NW11 8EL", "cc": "GB", "city": "Golders Green", "state": "Greater London", "country": "United Kingdom", "formattedAddress": ["63 Golders Green Rd.", "Golders Green", "Greater London", "NW11 8EL", "United Kingdom"]}, "categories": [{"id": "4bf58dd8d48988d1f5931735", "name": "Dim Sum Restaurant", "pluralName": "Dim Sum Restaurants", "shortName": "Dim Sum", "icon": {"prefix": "https://ss3.4sqi.net/img/categories_v2/food/dimsum_", "suffix": ".png"}, "primary": true}], "photos": {"count": 0, "groups": []}}, "referralId": "e-0-4e9ac2ee775b2c05adf1c2af-16"}, {"reasons": {"count": 0, "items": [{"summary": "This spot is popular", "type": "general", "reasonName": "globalInteractionReason"}]}, "venue": {"id": "5c0c478df129b5002524139b", "name": "Hosh", "location": {"address": "40 Golders Green Road", "lat": 51.572467, "lng": -0.197792, "labeledLatLngs": [{"label": "display", "lat": 51.572467, "lng": -0.197792}], "distance": 179, "postalCode": "NW11 8LL", "cc": "GB", "city": "London", "state": "Greater London", "country": "United Kingdom", "formattedAddress": ["40 Golders Green Road", "London", "Greater London", "NW11 8LL", "United Kingdom"]}, "categories": [{"id": "4f04af1f2fb6e1c99f3db0bb", "name": "Turkish Restaurant", "pluralName": "Turkish Restaurants", "shortName": "Turkish", "icon": {"prefix": "https://ss3.4sqi.net/img/categories_v2/food/turkish_", "suffix": ".png"}, "primary": true}], "photos": {"count": 0, "groups": []}}, "referralId": "e-0-5c0c478df129b5002524139b-17"}, {"reasons": {"count": 0, "items": [{"summary": "This spot is popular", "type": "general", "reasonName": "globalInteractionReason"}]}, "venue": {"id": "50662076e4b03ce13a555fea", "name": "Whispers", "location": {"lat": 51.572689, "lng": -0.198924, "labeledLatLngs": [{"label": "display", "lat": 51.572689, "lng": -0.198924}], "distance": 103, "cc": "GB", "country": "United Kingdom", "formattedAddress": ["United Kingdom"]}, "categories": [{"id": "4bf58dd8d48988d16d941735", "name": "Caf\u00e9", "pluralName": "Caf\u00e9s", "shortName": "Caf\u00e9", "icon": {"prefix": "https://ss3.4sqi.net/img/categories_v2/food/cafe_", "suffix": ".png"}, "primary": true}], "photos": {"count": 0, "groups": []}}, "referralId": "e-0-50662076e4b03ce13a555fea-18"}, {"reasons": {"count": 0, "items": [{"summary": "This spot is popular", "type": "general", "reasonName": "globalInteractionReason"}]}, "venue": {"id": "4e6699221838501627f892d2", "name": "Pizaza", "location": {"address": "100 Golders Green Road", "lat": 51.57346381210203, "lng": -0.20006721299379565, "labeledLatLngs": [{"label": "display", "lat": 51.57346381210203, "lng": -0.20006721299379565}], "distance": 13, "postalCode": "NW11 8HB", "cc": "GB", "city": "Golders Green", "state": "Greater London", "country": "United Kingdom", "formattedAddress": ["100 Golders Green Road", "Golders Green", "Greater London", "NW11 8HB", "United Kingdom"]}, "categories": [{"id": "4bf58dd8d48988d1ca941735", "name": "Pizza Place", "pluralName": "Pizza Places", "shortName": "Pizza", "icon": {"prefix": "https://ss3.4sqi.net/img/categories_v2/food/pizza_", "suffix": ".png"}, "primary": true}], "photos": {"count": 0, "groups": []}}, "referralId": "e-0-4e6699221838501627f892d2-19"}, {"reasons": {"count": 0, "items": [{"summary": "This spot is popular", "type": "general", "reasonName": "globalInteractionReason"}]}, "venue": {"id": "50e333b5e4b070c041f7c850", "name": "Sami's", "location": {"address": "Golders Green Road", "lat": 51.5738, "lng": -0.200801, "labeledLatLngs": [{"label": "display", "lat": 51.5738, "lng": -0.200801}], "distance": 76, "cc": "GB", "city": "London", "state": "Greater London", "country": "United Kingdom", "formattedAddress": ["Golders Green Road", "London", "Greater London", "United Kingdom"]}, "categories": [{"id": "4bf58dd8d48988d10b941735", "name": "Falafel Restaurant", "pluralName": "Falafel Restaurants", "shortName": "Falafel", "icon": {"prefix": "https://ss3.4sqi.net/img/categories_v2/food/falafel_", "suffix": ".png"}, "primary": true}], "photos": {"count": 0, "groups": []}}, "referralId": "e-0-50e333b5e4b070c041f7c850-20"}, {"reasons": {"count": 0, "items": [{"summary": "This spot is popular", "type": "general", "reasonName": "globalInteractionReason"}]}, "venue": {"id": "4d97953fe07ea35d82aedd02", "name": "Isola Bella", "location": {"address": "Golders Green Rd", "lat": 51.57350573747148, "lng": -0.2003048049184852, "labeledLatLngs": [{"label": "display", "lat": 51.57350573747148, "lng": -0.2003048049184852}], "distance": 28, "postalCode": "NW11 8HR", "cc": "GB", "city": "London", "state": "Greater London", "country": "United Kingdom", "formattedAddress": ["Golders Green Rd", "London", "Greater London", "NW11 8HR", "United Kingdom"]}, "categories": [{"id": "4bf58dd8d48988d16d941735", "name": "Caf\u00e9", "pluralName": "Caf\u00e9s", "shortName": "Caf\u00e9", "icon": {"prefix": "https://ss3.4sqi.net/img/categories_v2/food/cafe_", "suffix": ".png"}, "primary": true}], "photos": {"count": 0, "groups": []}}, "referralId": "e-0-4d97953fe07ea35d82aedd02-21"}, {"reasons": {"count": 0, "items": [{"summary": "This spot is popular", "type": "general", "reasonName": "globalInteractionReason"}]}, "venue": {"id": "5061b13fe4b07f87198fc558", "name": "Bar Linda Golders Green Station", "location": {"lat": 51.57207330829408, "lng": -0.19493517365385696, "labeledLatLngs": [{"label": "display", "lat": 51.57207330829408, "lng": -0.19493517365385696}], "distance": 376, "cc": "GB", "country": "United Kingdom", "formattedAddress": ["United Kingdom"]}, "categories": [{"id": "4bf58dd8d48988d16d941735", "name": "Caf\u00e9", "pluralName": "Caf\u00e9s", "shortName": "Caf\u00e9", "icon": {"prefix": "https://ss3.4sqi.net/img/categories_v2/food/cafe_", "suffix": ".png"}, "primary": true}], "photos": {"count": 0, "groups": []}}, "referralId": "e-0-5061b13fe4b07f87198fc558-22"}, {"reasons": {"count": 0, "items": [{"summary": "This spot is popular", "type": "general", "reasonName": "globalInteractionReason"}]}, "venue": {"id": "4c710423b5a5236a19ee5152", "name": "Golders Green TfL Staff Canteen", "location": {"lat": 51.572259644472645, "lng": -0.19459619402796707, "labeledLatLngs": [{"label": "display", "lat": 51.572259644472645, "lng": -0.19459619402796707}], "distance": 390, "cc": "GB", "country": "United Kingdom", "formattedAddress": ["United Kingdom"]}, "categories": [{"id": "4bf58dd8d48988d128941735", "name": "Cafeteria", "pluralName": "Cafeterias", "shortName": "Cafeteria", "icon": {"prefix": "https://ss3.4sqi.net/img/categories_v2/education/cafeteria_", "suffix": ".png"}, "primary": true}], "photos": {"count": 0, "groups": []}}, "referralId": "e-0-4c710423b5a5236a19ee5152-23"}]}]}}