{"meta": {"code": 200, "requestId": "5feddc1a54a4277f8f45a9d5"}, "response": {"headerLocation": "Hackney", "headerFullLocation": "Hackney, London", "headerLocationGranularity": "neighborhood", "query": "arts entertainment", "totalResults": 4, "suggestedBounds": {"ne": {"lat": 51.54253000360001, "lng": -0.04789285905471588}, "sw": {"lat": 51.535329996399994, "lng": -0.059447140945284124}}, "groups": [{"type": "Recommended Places", "name": "recommended", "items": [{"reasons": {"count": 0, "items": [{"summary": "This spot is popular", "type": "general", "reasonName": "globalInteractionReason"}]}, "venue": {"id": "553bcb22498eb9779e53a9d7", "name": "Time-Run", "location": {"address": "9-15 Helmsley Pl", "lat": 51.53960013075101, "lng": -0.058446391786932894, "labeledLatLngs": [{"label": "display", "lat": 51.53960013075101, "lng": -0.058446391786932894}], "distance": 339, "postalCode": "E8 3SB", "cc": "GB", "city": "London", "state": "Greater London", "country": "United Kingdom", "formattedAddress": ["9-15 Helmsley Pl", "London", "Greater London", "E8 3SB", "United Kingdom"]}, "categories": [{"id": "5f2c2834b6d05514c704451e", "name": "Escape Room", "pluralName": "Escape Rooms", "shortName": "Escape Room", "icon": {"prefix": "https://ss3.4sqi.net/img/categories_v2/arts_entertainment/default_", "suffix": ".png"}, "primary": true}], "photos": {"count": 0, "groups": []}}, "referralId": "e-0-553bcb22498eb9779e53a9d7-0"}, {"reasons": {"count": 0, "items": [{"summary": "This spot is popular", "type": "general", "reasonName": "globalInteractionReason"}]}, "venue": {"id": "4acdccb4f964a5200fcd20e3", "name": "SPACE Studios", "location": {"address": "129 - 131 Mare St", "lat": 51.538340702671356, "lng": -0.05717531167672621, "labeledLatLngs": [{"label": "display", "lat": 51.538340702671356, "lng": -0.05717531167672621}], "distance": 251, "postalCode": "E8 3RH", "cc": "GB", "neighborhood": "London Fields", "city": "Hackney", "state": "Greater London", "country": "United Kingdom", "formattedAddress": ["129 - 131 Mare St", "Hackney", "Greater London", "E8 3RH", "United Kingdom"]}, "categories": [{"id": "4bf58dd8d48988d1e2931735", "name": "Art Gallery", "pluralName": "Art Galleries", "shortName": "Art Gallery", "icon": {"prefix": "https://ss3.4sqi.net/img/categories_v2/arts_entertainment/artgallery_", "suffix": ".png"}, "primary": true}], "photos": {"count": 0, "groups": []}}, "referralId": "e-0-4acdccb4f964a5200fcd20e3-1"}, {"reasons": {"count": 0, "items": [{"summary": "This spot is popular", "type": "general", "reasonName": "globalInteractionReason"}]}, "venue": {"id": "4f2c721be4b006ef981b0a6b", "name": "The Dutton Grot Pit", "location": {"lat": 51.53855742533795, "lng": -0.055987461175730904, "labeledLatLngs": [{"label": "display", "lat": 51.53855742533795, "lng": -0.055987461175730904}], "distance": 165, "cc": "GB", "country": "United Kingdom", "formattedAddress": ["United Kingdom"]}, "categories": [{"id": "4bf58dd8d48988d134941735", "name": "Dance Studio", "pluralName": "Dance Studios", "shortName": "Dance Studio", "icon": {"prefix": "https://ss3.4sqi.net/img/categories_v2/arts_entertainment/performingarts_dancestudio_", "suffix": ".png"}, "primary": true}], "photos": {"count": 0, "groups": []}}, "referralId": "e-0-4f2c721be4b006ef981b0a6b-2"}, {"reasons": {"count": 0, "items": [{"summary": "This spot is popular", "type": "general", "reasonName": "globalInteractionReason"}]}, "venue": {"id": "5e1eee0e49c88c0008db0ea2", "name": "The White Keys Music LTD", "location": {"address": "Unit 8, 6-12 Triangle Road", "lat": 51.53799153272321, "lng": -0.05907297134399414, "labeledLatLngs": [{"label": "display", "lat": 51.53799153272321, "lng": -0.05907297134399414}], "distance": 388, "postalCode": "E8 3RP", "cc": "GB", "city": "London", "state": "Greater London", "country": "United Kingdom", "formattedAddress": ["Unit 8, 6-12 Triangle Road", "London", "Greater London", "E8 3RP", "United Kingdom"]}, "categories": [{"id": "4bf58dd8d48988d1e5931735", "name": "Music Venue", "pluralName": "Music Venues", "shortName": "Music Venue", "icon": {"prefix": "https://ss3.4sqi.net/img/categories_v2/arts_entertainment/musicvenue_", "suffix": ".png"}, "primary": true}], "photos": {"count": 0, "groups": []}}, "referralId": "e-0-5e1eee0e49c88c0008db0ea2-3"}]}]}}