{"meta": {"code": 200, "requestId": "5feddb0702573325d431aa57"}, "response": {"headerLocation": "Vauxhall", "headerFullLocation": "Vauxhall, London", "headerLocationGranularity": "neighborhood", "query": "arts entertainment", "totalResults": 11, "suggestedBounds": {"ne": {"lat": 51.4881000036, "lng": -0.11848975742351146}, "sw": {"lat": 51.48089999639999, "lng": -0.13003024257648854}}, "groups": [{"type": "Recommended Places", "name": "recommended", "items": [{"reasons": {"count": 0, "items": [{"summary": "This spot is popular", "type": "general", "reasonName": "globalInteractionReason"}]}, "venue": {"id": "5b1641e71ffe97002c4f809e", "name": "Above The Stag Theatre", "location": {"address": "72 Albert Embankment", "lat": 51.48751986231018, "lng": -0.1231495649243991, "labeledLatLngs": [{"label": "display", "lat": 51.48751986231018, "lng": -0.1231495649243991}], "distance": 344, "postalCode": "SE1 7TP", "cc": "GB", "city": "London", "state": "Greater London", "country": "United Kingdom", "formattedAddress": ["72 Albert Embankment", "London", "Greater London", "SE1 7TP", "United Kingdom"]}, "categories": [{"id": "4bf58dd8d48988d137941735", "name": "Theater", "pluralName": "Theaters", "shortName": "Theater", "icon": {"prefix": "https://ss3.4sqi.net/img/categories_v2/arts_entertainment/performingarts_theater_", "suffix": ".png"}, "primary": true}], "photos": {"count": 0, "groups": []}, "venuePage": {"id": "495783187"}}, "referralId": "e-0-5b1641e71ffe97002c4f809e-0"}, {"reasons": {"count": 0, "items": [{"summary": "This spot is popular", "type": "general", "reasonName": "globalInteractionReason"}]}, "venue": {"id": "5b9ff14d018cbb002cb11553", "name": "New Motion", "location": {"lat": 51.485027, "lng": -0.12373164, "labeledLatLngs": [{"label": "display", "lat": 51.485027, "lng": -0.12373164}], "distance": 69, "postalCode": "SW8 1SP", "cc": "GB", "country": "United Kingdom", "formattedAddress": ["SW8 1SP", "United Kingdom"]}, "categories": [{"id": "4bf58dd8d48988d134941735", "name": "Dance Studio", "pluralName": "Dance Studios", "shortName": "Dance Studio", "icon": {"prefix": "https://ss3.4sqi.net/img/categories_v2/arts_entertainment/performingarts_dancestudio_", "suffix": ".png"}, "primary": true}], "photos": {"count": 0, "groups": []}}, "referralId": "e-0-5b9ff14d018cbb002cb11553-1"}, {"reasons": {"count": 0, "items": [{"summary": "This spot is popular", "type": "general", "reasonName": "globalInteractionReason"}]}, "venue": {"id": "522dc40d2fc62009cd05233b", "name": "Amstel Art Gallery London", "location": {"address": "Unit 7 St.George Wharf", "crossStreet": "8, Wandsworth Road", "lat": 51.485565376754025, "lng": -0.12488365173339842, "labeledLatLngs": [{"label": "display", "lat": 51.485565376754025, "lng": -0.12488365173339842}], "distance": 126, "postalCode": "SW8 2JW", "cc": "GB", "city": "London", "state": "Greater London", "country": "United Kingdom", "formattedAddress": ["Unit 7 St.George Wharf (8, Wandsworth Road)", "London", "Greater London", "SW8 2JW", "United Kingdom"]}, "categories": [{"id": "4bf58dd8d48988d1e2931735", "name": "Art Gallery", "pluralName": "Art Galleries", "shortName": "Art Gallery", "icon": {"prefix": "https://ss3.4sqi.net/img/categories_v2/arts_entertainment/artgallery_", "suffix": ".png"}, "primary": true}], "photos": {"count": 0, "groups": []}}, "referralId": "e-0-522dc40d2fc62009cd05233b-2"}, {"reasons": {"count": 0, "items": [{"summary": "This spot is popular", "type": "general", "reasonName": "globalInteractionReason"}]}, "venue": {"id": "4dcc296b7d8b1901246e1604", "name": "Micheal Painting", "location": {"lat": 51.48596263213321, "lng": -0.12515860154432154, "labeledLatLngs": [{"label": "display", "lat": 51.48596263213321, "lng": -0.12515860154432154}], "distance": 174, "cc": "GB", "city": "London", "state": "Greater London", "country": "United Kingdom", "formattedAddress": ["London", "Greater London", "United Kingdom"]}, "categories": [{"id": "4bf58dd8d48988d1e2931735", "name": "Art Gallery", "pluralName": "Art Galleries", "shortName": "Art Gallery", "icon": {"prefix": "https://ss3.4sqi.net/img/categories_v2/arts_entertainment/artgallery_", "suffix": ".png"}, "primary": true}], "photos": {"count": 0, "groups": []}}, "referralId": "e-0-4dcc296b7d8b1901246e1604-3"}, {"reasons": {"count": 0, "items": [{"summary": "This spot is popular", "type": "general", "reasonName": "globalInteractionReason"}]}, "venue": {"id": "5231b67a11d27f9f70c5dea3", "name": "The London Vocal Coach", "location": {"lat": 51.48545787471713, "lng": -0.1269072886606193, "labeledLatLngs": [{"label": "display", "lat": 51.48545787471713, "lng": -0.1269072886606193}], "distance": 212, "cc": "GB", "country": "United Kingdom", "formattedAddress": ["United Kingdom"]}, "categories": [{"id": "4bf58dd8d48988d1f2931735", "name": "Performing Arts Venue", "pluralName": "Performing Arts Venues", "shortName": "Performing Arts", "icon": {"prefix": "https://ss3.4sqi.net/img/categories_v2/arts_entertainment/performingarts_", "suffix": ".png"}, "primary": true}], "photos": {"count": 0, "groups": []}}, "referralId": "e-0-5231b67a11d27f9f70c5dea3-4"}, {"reasons": {"count": 0, "items": [{"summary": "This spot is popular", "type": "general", "reasonName": "globalInteractionReason"}]}, "venue": {"id": "55b75635498ebd38fcf5c7d4", "name": "omarobaid.com", "location": {"lat": 51.48487055030911, "lng": -0.12767314910888672, "labeledLatLngs": [{"label": "display", "lat": 51.48487055030911, "lng": -0.12767314910888672}], "distance": 240, "cc": "GB", "city": "London", "state": "Greater London", "country": "United Kingdom", "formattedAddress": ["London", "Greater London", "United Kingdom"]}, "categories": [{"id": "4bf58dd8d48988d1e2931735", "name": "Art Gallery", "pluralName": "Art Galleries", "shortName": "Art Gallery", "icon": {"prefix": "https://ss3.4sqi.net/img/categories_v2/arts_entertainment/artgallery_", "suffix": ".png"}, "primary": true}], "photos": {"count": 0, "groups": []}}, "referralId": "e-0-55b75635498ebd38fcf5c7d4-5"}, {"reasons": {"count": 0, "items": [{"summary": "This spot is popular", "type": "general", "reasonName": "globalInteractionReason"}]}, "venue": {"id": "5bb00b7a7c891c002d1c4161", "name": "The Maureen O\u2019Hara Cinema", "location": {"address": "Embassy Gardens Ambassador Building", "crossStreet": "off Ponton Road", "lat": 51.484268, "lng": -0.127784, "labeledLatLngs": [{"label": "display", "lat": 51.484268, "lng": -0.127784}], "distance": 245, "postalCode": "SW8 5DN", "cc": "GB", "city": "London", "state": "Greater London", "country": "United Kingdom", "formattedAddress": ["Embassy Gardens Ambassador Building (off Ponton Road)", "London", "Greater London", "SW8 5DN", "United Kingdom"]}, "categories": [{"id": "4bf58dd8d48988d180941735", "name": "Multiplex", "pluralName": "Multiplexes", "shortName": "Cineplex", "icon": {"prefix": "https://ss3.4sqi.net/img/categories_v2/arts_entertainment/movietheater_", "suffix": ".png"}, "primary": true}], "photos": {"count": 0, "groups": []}}, "referralId": "e-0-5bb00b7a7c891c002d1c4161-6"}, {"reasons": {"count": 0, "items": [{"summary": "This spot is popular", "type": "general", "reasonName": "globalInteractionReason"}]}, "venue": {"id": "566b49b6498ef67908fab38e", "name": "The Tower's Private Cinema", "location": {"lat": 51.48514914377556, "lng": -0.12771474709751293, "labeledLatLngs": [{"label": "display", "lat": 51.48514914377556, "lng": -0.12771474709751293}], "distance": 250, "cc": "GB", "country": "United Kingdom", "formattedAddress": ["United Kingdom"]}, "categories": [{"id": "4bf58dd8d48988d17f941735", "name": "Movie Theater", "pluralName": "Movie Theaters", "shortName": "Movie Theater", "icon": {"prefix": "https://ss3.4sqi.net/img/categories_v2/arts_entertainment/movietheater_", "suffix": ".png"}, "primary": true}], "photos": {"count": 0, "groups": []}}, "referralId": "e-0-566b49b6498ef67908fab38e-7"}, {"reasons": {"count": 0, "items": [{"summary": "This spot is popular", "type": "general", "reasonName": "globalInteractionReason"}]}, "venue": {"id": "5606c12f498e07e15da44982", "name": "a mile in my shoes", "location": {"lat": 51.485018, "lng": -0.128481, "labeledLatLngs": [{"label": "display", "lat": 51.485018, "lng": -0.128481}], "distance": 298, "cc": "GB", "country": "United Kingdom", "formattedAddress": ["United Kingdom"]}, "categories": [{"id": "52e81612bcbc57f1066b79ee", "name": "Street Art", "pluralName": "Street Art Installations", "shortName": "Street Art", "icon": {"prefix": "https://ss3.4sqi.net/img/categories_v2/arts_entertainment/default_", "suffix": ".png"}, "primary": true}], "photos": {"count": 0, "groups": []}}, "referralId": "e-0-5606c12f498e07e15da44982-8"}, {"reasons": {"count": 0, "items": [{"summary": "This spot is popular", "type": "general", "reasonName": "globalInteractionReason"}]}, "venue": {"id": "553bf6d3498eba55ec0bfe12", "name": "bonibabes", "location": {"lat": 51.484228, "lng": -0.1197, "labeledLatLngs": [{"label": "display", "lat": 51.484228, "lng": -0.1197}], "distance": 317, "cc": "GB", "country": "United Kingdom", "formattedAddress": ["United Kingdom"]}, "categories": [{"id": "52e81612bcbc57f1066b79ec", "name": "Salsa Club", "pluralName": "Salsa Clubs", "shortName": "Salsa Club", "icon": {"prefix": "https://ss3.4sqi.net/img/categories_v2/arts_entertainment/performingarts_dancestudio_", "suffix": ".png"}, "primary": true}], "photos": {"count": 0, "groups": []}}, "referralId": "e-0-553bf6d3498eba55ec0bfe12-9"}, {"reasons": {"count": 0, "items": [{"summary": "This spot is popular", "type": "general", "reasonName": "globalInteractionReason"}]}, "venue": {"id": "56cd5de1498ed43273393ac6", "name": "St Peter's Church, Kennington", "location": {"lat": 51.4863243, "lng": -0.1196279, "labeledLatLngs": [{"label": "display", "lat": 51.4863243, "lng": -0.1196279}], "distance": 379, "cc": "GB", "city": "Kennington", "state": "Greater London", "country": "United Kingdom", "formattedAddress": ["Kennington", "Greater London", "United Kingdom"]}, "categories": [{"id": "4bf58dd8d48988d1e5931735", "name": "Music Venue", "pluralName": "Music Venues", "shortName": "Music Venue", "icon": {"prefix": "https://ss3.4sqi.net/img/categories_v2/arts_entertainment/musicvenue_", "suffix": ".png"}, "primary": true}], "photos": {"count": 0, "groups": []}}, "referralId": "e-0-56cd5de1498ed43273393ac6-10"}]}]}}