{"meta": {"code": 200, "requestId": "5feddc6ad98e3a6ad1018c91"}, "response": {"headerLocation": "Sands End", "headerFullLocation": "Sands End, London", "headerLocationGranularity": "neighborhood", "query": "travel", "totalResults": 6, "suggestedBounds": {"ne": {"lat": 51.478640003600006, "lng": -0.18022095415747885}, "sw": {"lat": 51.471439996399994, "lng": -0.19175904584252113}}, "groups": [{"type": "Recommended Places", "name": "recommended", "items": [{"reasons": {"count": 0, "items": [{"summary": "This spot is popular", "type": "general", "reasonName": "globalInteractionReason"}]}, "venue": {"id": "4ac518b5f964a5208aa020e3", "name": "The Chelsea Harbour Hotel", "location": {"address": "Chelsea Harbour", "lat": 51.4760298, "lng": -0.181968, "labeledLatLngs": [{"label": "display", "lat": 51.4760298, "lng": -0.181968}], "distance": 299, "postalCode": "SW10 0XG", "cc": "GB", "city": "London", "state": "Greater London", "country": "United Kingdom", "formattedAddress": ["Chelsea Harbour", "London", "Greater London", "SW10 0XG", "United Kingdom"]}, "categories": [{"id": "4bf58dd8d48988d1fa931735", "name": "Hotel", "pluralName": "Hotels", "shortName": "Hotel", "icon": {"prefix": "https://ss3.4sqi.net/img/categories_v2/travel/hotel_", "suffix": ".png"}, "primary": true}], "photos": {"count": 0, "groups": []}}, "referralId": "e-0-4ac518b5f964a5208aa020e3-0"}, {"reasons": {"count": 0, "items": [{"summary": "This spot is popular", "type": "general", "reasonName": "globalInteractionReason"}]}, "venue": {"id": "4b75932df964a52058152ee3", "name": "DoubleTree by Hilton", "location": {"address": "Imperial Rd", "lat": 51.47392964833631, "lng": -0.18375579038081838, "labeledLatLngs": [{"label": "display", "lat": 51.47392964833631, "lng": -0.18375579038081838}], "distance": 198, "postalCode": "SW6 2GA", "cc": "GB", "neighborhood": "Fulham", "city": "Fulham", "state": "Greater London", "country": "United Kingdom", "formattedAddress": ["Imperial Rd", "Fulham", "Greater London", "SW6 2GA", "United Kingdom"]}, "categories": [{"id": "4bf58dd8d48988d1fa931735", "name": "Hotel", "pluralName": "Hotels", "shortName": "Hotel", "icon": {"prefix": "https://ss3.4sqi.net/img/categories_v2/travel/hotel_", "suffix": ".png"}, "primary": true}], "photos": {"count": 0, "groups": []}}, "referralId": "e-0-4b75932df964a52058152ee3-1"}, {"reasons": {"count": 0, "items": [{"summary": "This spot is popular", "type": "general", "reasonName": "globalInteractionReason"}]}, "venue": {"id": "5036b36acc6417d4bcd9a1ba", "name": "Imperial Wharf London Overground Station", "location": {"address": "Townmead Rd.", "lat": 51.47498135233944, "lng": -0.1829855005434739, "labeledLatLngs": [{"label": "display", "lat": 51.47498135233944, "lng": -0.1829855005434739}], "distance": 208, "postalCode": "SW6 2ZH", "cc": "GB", "city": "London", "state": "Greater London", "country": "United Kingdom", "formattedAddress": ["Townmead Rd.", "London", "Greater London", "SW6 2ZH", "United Kingdom"]}, "categories": [{"id": "4bf58dd8d48988d129951735", "name": "Train Station", "pluralName": "Train Stations", "shortName": "Train Station", "icon": {"prefix": "https://ss3.4sqi.net/img/categories_v2/travel/trainstation_", "suffix": ".png"}, "primary": true}], "photos": {"count": 0, "groups": []}}, "referralId": "e-0-5036b36acc6417d4bcd9a1ba-2"}, {"reasons": {"count": 0, "items": [{"summary": "This spot is popular", "type": "general", "reasonName": "globalInteractionReason"}]}, "venue": {"id": "4ecf7279b634dd2990571a29", "name": "Elizabeeth Queen", "location": {"address": "58 Bagleys Ln.", "lat": 51.4747699150032, "lng": -0.1887652225600626, "labeledLatLngs": [{"label": "display", "lat": 51.4747699150032, "lng": -0.1887652225600626}], "distance": 194, "postalCode": "SW6 2BH", "cc": "GB", "city": "Fulham", "state": "Greater London", "country": "United Kingdom", "formattedAddress": ["58 Bagleys Ln.", "Fulham", "Greater London", "SW6 2BH", "United Kingdom"]}, "categories": [{"id": "4bf58dd8d48988d1ee931735", "name": "Hostel", "pluralName": "Hostels", "shortName": "Hostel", "icon": {"prefix": "https://ss3.4sqi.net/img/categories_v2/travel/hostel_", "suffix": ".png"}, "primary": true}], "photos": {"count": 0, "groups": []}}, "referralId": "e-0-4ecf7279b634dd2990571a29-3"}, {"reasons": {"count": 0, "items": [{"summary": "This spot is popular", "type": "general", "reasonName": "globalInteractionReason"}]}, "venue": {"id": "4f6c4121e4b07a4bc33ae5ea", "name": "Platform 2", "location": {"address": "Imperial Wharf Station (IMW)", "lat": 51.47517649922023, "lng": -0.18298918797216657, "labeledLatLngs": [{"label": "display", "lat": 51.47517649922023, "lng": -0.18298918797216657}], "distance": 208, "cc": "GB", "city": "Sands End", "state": "Greater London", "country": "United Kingdom", "formattedAddress": ["Imperial Wharf Station (IMW)", "Sands End", "Greater London", "United Kingdom"]}, "categories": [{"id": "4f4531504b9074f6e4fb0102", "name": "Platform", "pluralName": "Platforms", "shortName": "Platform", "icon": {"prefix": "https://ss3.4sqi.net/img/categories_v2/travel/trainstation_", "suffix": ".png"}, "primary": true}], "photos": {"count": 0, "groups": []}}, "referralId": "e-0-4f6c4121e4b07a4bc33ae5ea-4"}, {"reasons": {"count": 0, "items": [{"summary": "This spot is popular", "type": "general", "reasonName": "globalInteractionReason"}]}, "venue": {"id": "4f748f99e4b07d85bf5d623b", "name": "Platform 1", "location": {"address": "Imperial Wharf London Overground Station", "lat": 51.475076, "lng": -0.182956, "labeledLatLngs": [{"label": "display", "lat": 51.475076, "lng": -0.182956}], "distance": 210, "cc": "GB", "city": "Sands End", "state": "Greater London", "country": "United Kingdom", "formattedAddress": ["Imperial Wharf London Overground Station", "Sands End", "Greater London", "United Kingdom"]}, "categories": [{"id": "4f4531504b9074f6e4fb0102", "name": "Platform", "pluralName": "Platforms", "shortName": "Platform", "icon": {"prefix": "https://ss3.4sqi.net/img/categories_v2/travel/trainstation_", "suffix": ".png"}, "primary": true}], "photos": {"count": 0, "groups": []}}, "referralId": "e-0-4f748f99e4b07d85bf5d623b-5"}]}]}}