{"meta": {"code": 200, "requestId": "5feddbe2f849016e71bda689"}, "response": {"suggestedFilters": {"header": "Tap to show:", "filters": [{"name": "Open now", "key": "openNow"}]}, "headerLocation": "Hammersmith and Fulham", "headerFullLocation": "Hammersmith and Fulham, London", "headerLocationGranularity": "neighborhood", "query": "food", "totalResults": 15, "suggestedBounds": {"ne": {"lat": 51.490860003600005, "lng": -0.22063940814747185}, "sw": {"lat": 51.48365999639999, "lng": -0.23218059185252815}}, "groups": [{"type": "Recommended Places", "name": "recommended", "items": [{"reasons": {"count": 0, "items": [{"summary": "This spot is popular", "type": "general", "reasonName": "globalInteractionReason"}]}, "venue": {"id": "594823a9b23dfa77ebf397ba", "name": "Brasserie Blanc", "location": {"address": "Parr's Way", "crossStreet": "Goldhurst House", "lat": 51.486898, "lng": -0.226691, "labeledLatLngs": [{"label": "display", "lat": 51.486898, "lng": -0.226691}], "distance": 44, "postalCode": "W6 9AN", "cc": "GB", "city": "Fulham", "state": "Greater London", "country": "United Kingdom", "formattedAddress": ["Parr's Way (Goldhurst House)", "Fulham", "Greater London", "W6 9AN", "United Kingdom"]}, "categories": [{"id": "4bf58dd8d48988d10c941735", "name": "French Restaurant", "pluralName": "French Restaurants", "shortName": "French", "icon": {"prefix": "https://ss3.4sqi.net/img/categories_v2/food/french_", "suffix": ".png"}, "primary": true}], "photos": {"count": 0, "groups": []}}, "referralId": "e-0-594823a9b23dfa77ebf397ba-0"}, {"reasons": {"count": 0, "items": [{"summary": "This spot is popular", "type": "general", "reasonName": "globalInteractionReason"}]}, "venue": {"id": "4b8fceebf964a5204b6333e3", "name": "Cafe Plum", "location": {"address": "17 Crisp Road", "lat": 51.488687, "lng": -0.227194, "labeledLatLngs": [{"label": "display", "lat": 51.488687, "lng": -0.227194}], "distance": 167, "postalCode": "W6 9RL", "cc": "GB", "city": "Hammersmith", "state": "Greater London", "country": "United Kingdom", "formattedAddress": ["17 Crisp Road", "Hammersmith", "Greater London", "W6 9RL", "United Kingdom"]}, "categories": [{"id": "4bf58dd8d48988d16d941735", "name": "Caf\u00e9", "pluralName": "Caf\u00e9s", "shortName": "Caf\u00e9", "icon": {"prefix": "https://ss3.4sqi.net/img/categories_v2/food/cafe_", "suffix": ".png"}, "primary": true}], "photos": {"count": 0, "groups": []}}, "referralId": "e-0-4b8fceebf964a5204b6333e3-1"}, {"reasons": {"count": 0, "items": [{"summary": "This spot is popular", "type": "general", "reasonName": "globalInteractionReason"}]}, "venue": {"id": "4c064c1a13b99c74e865aff3", "name": "The Gate", "location": {"address": "51 Queen Caroline St", "lat": 51.49034125577292, "lng": -0.22535595932643274, "labeledLatLngs": [{"label": "display", "lat": 51.49034125577292, "lng": -0.22535595932643274}], "distance": 350, "postalCode": "W6 9QL", "cc": "GB", "city": "Hammersmith", "state": "Greater London", "country": "United Kingdom", "formattedAddress": ["51 Queen Caroline St", "Hammersmith", "Greater London", "W6 9QL", "United Kingdom"]}, "categories": [{"id": "4bf58dd8d48988d1d3941735", "name": "Vegetarian / Vegan Restaurant", "pluralName": "Vegetarian / Vegan Restaurants", "shortName": "Vegetarian / Vegan", "icon": {"prefix": "https://ss3.4sqi.net/img/categories_v2/food/vegetarian_", "suffix": ".png"}, "primary": true}], "photos": {"count": 0, "groups": []}}, "referralId": "e-0-4c064c1a13b99c74e865aff3-2"}, {"reasons": {"count": 0, "items": [{"summary": "This spot is popular", "type": "general", "reasonName": "globalInteractionReason"}]}, "venue": {"id": "5987617069e77b511c611875", "name": "Pizzeria Da Mariano", "location": {"address": "93 Fulham Palace Rd", "lat": 51.488884, "lng": -0.222678, "labeledLatLngs": [{"label": "display", "lat": 51.488884, "lng": -0.222678}], "distance": 315, "postalCode": "W6 8JA", "cc": "GB", "city": "Hammersmith", "state": "Greater London", "country": "United Kingdom", "formattedAddress": ["93 Fulham Palace Rd", "Hammersmith", "Greater London", "W6 8JA", "United Kingdom"]}, "categories": [{"id": "4bf58dd8d48988d1ca941735", "name": "Pizza Place", "pluralName": "Pizza Places", "shortName": "Pizza", "icon": {"prefix": "https://ss3.4sqi.net/img/categories_v2/food/pizza_", "suffix": ".png"}, "primary": true}], "photos": {"count": 0, "groups": []}}, "referralId": "e-0-5987617069e77b511c611875-3"}, {"reasons": {"count": 0, "items": [{"summary": "This spot is popular", "type": "general", "reasonName": "globalInteractionReason"}]}, "venue": {"id": "4ac518d6f964a52036a820e3", "name": "River Caf\u00e9", "location": {"address": "Thames Wharf, Rainville Rd", "crossStreet": "opp. Bowfell Rd", "lat": 51.48403431557842, "lng": -0.22442487048166326, "labeledLatLngs": [{"label": "display", "lat": 51.48403431557842, "lng": -0.22442487048166326}], "distance": 384, "postalCode": "W6 9HA", "cc": "GB", "city": "London", "state": "Greater London", "country": "United Kingdom", "formattedAddress": ["Thames Wharf, Rainville Rd (opp. Bowfell Rd)", "London", "Greater London", "W6 9HA", "United Kingdom"]}, "categories": [{"id": "4bf58dd8d48988d110941735", "name": "Italian Restaurant", "pluralName": "Italian Restaurants", "shortName": "Italian", "icon": {"prefix": "https://ss3.4sqi.net/img/categories_v2/food/italian_", "suffix": ".png"}, "primary": true}], "photos": {"count": 0, "groups": []}}, "referralId": "e-0-4ac518d6f964a52036a820e3-4"}, {"reasons": {"count": 0, "items": [{"summary": "This spot is popular", "type": "general", "reasonName": "globalInteractionReason"}]}, "venue": {"id": "5b883c3de55d8b002c1aee35", "name": "Pid\u00e9", "location": {"lat": 51.48912, "lng": -0.22279434, "labeledLatLngs": [{"label": "display", "lat": 51.48912, "lng": -0.22279434}], "distance": 325, "cc": "GB", "country": "United Kingdom", "formattedAddress": ["United Kingdom"]}, "categories": [{"id": "4f04af1f2fb6e1c99f3db0bb", "name": "Turkish Restaurant", "pluralName": "Turkish Restaurants", "shortName": "Turkish", "icon": {"prefix": "https://ss3.4sqi.net/img/categories_v2/food/turkish_", "suffix": ".png"}, "primary": true}], "photos": {"count": 0, "groups": []}}, "referralId": "e-0-5b883c3de55d8b002c1aee35-5"}, {"reasons": {"count": 0, "items": [{"summary": "This spot is popular", "type": "general", "reasonName": "globalInteractionReason"}]}, "venue": {"id": "5a4fe48061e53b445b39f2c8", "name": "Kenta", "location": {"address": "106 Fulham Palace Road", "lat": 51.488013, "lng": -0.222416, "labeledLatLngs": [{"label": "display", "lat": 51.488013, "lng": -0.222416}], "distance": 289, "postalCode": "W6 9PL", "cc": "GB", "city": "London", "state": "Greater London", "country": "United Kingdom", "formattedAddress": ["106 Fulham Palace Road", "London", "Greater London", "W6 9PL", "United Kingdom"]}, "categories": [{"id": "4bf58dd8d48988d111941735", "name": "Japanese Restaurant", "pluralName": "Japanese Restaurants", "shortName": "Japanese", "icon": {"prefix": "https://ss3.4sqi.net/img/categories_v2/food/japanese_", "suffix": ".png"}, "primary": true}], "photos": {"count": 0, "groups": []}}, "referralId": "e-0-5a4fe48061e53b445b39f2c8-6"}, {"reasons": {"count": 0, "items": [{"summary": "This spot is popular", "type": "general", "reasonName": "globalInteractionReason"}]}, "venue": {"id": "4b7062b8f964a5200d172de3", "name": "Reun Thai", "location": {"address": "100 Fulham Palace Road", "crossStreet": "btw Biscay & Beryl", "lat": 51.48813586832565, "lng": -0.22249473209753853, "labeledLatLngs": [{"label": "display", "lat": 51.48813586832565, "lng": -0.22249473209753853}], "distance": 288, "postalCode": "W6 9PL", "cc": "GB", "city": "London", "state": "Greater London", "country": "United Kingdom", "formattedAddress": ["100 Fulham Palace Road (btw Biscay & Beryl)", "London", "Greater London", "W6 9PL", "United Kingdom"]}, "categories": [{"id": "4bf58dd8d48988d149941735", "name": "Thai Restaurant", "pluralName": "Thai Restaurants", "shortName": "Thai", "icon": {"prefix": "https://ss3.4sqi.net/img/categories_v2/food/thai_", "suffix": ".png"}, "primary": true}], "photos": {"count": 0, "groups": []}}, "referralId": "e-0-4b7062b8f964a5200d172de3-7"}, {"reasons": {"count": 0, "items": [{"summary": "This spot is popular", "type": "general", "reasonName": "globalInteractionReason"}]}, "venue": {"id": "4b89298cf964a520342032e3", "name": "Half Moon Cafe", "location": {"address": "125 Fulham Palace Rd", "lat": 51.487840144557914, "lng": -0.22218052086996587, "labeledLatLngs": [{"label": "display", "lat": 51.487840144557914, "lng": -0.22218052086996587}], "distance": 300, "postalCode": "W6 8ja", "cc": "GB", "city": "Hammersmith", "state": "Greater London", "country": "United Kingdom", "formattedAddress": ["125 Fulham Palace Rd", "Hammersmith", "Greater London", "W6 8ja", "United Kingdom"]}, "categories": [{"id": "4bf58dd8d48988d16d941735", "name": "Caf\u00e9", "pluralName": "Caf\u00e9s", "shortName": "Caf\u00e9", "icon": {"prefix": "https://ss3.4sqi.net/img/categories_v2/food/cafe_", "suffix": ".png"}, "primary": true}], "photos": {"count": 0, "groups": []}}, "referralId": "e-0-4b89298cf964a520342032e3-8"}, {"reasons": {"count": 0, "items": [{"summary": "This spot is popular", "type": "general", "reasonName": "globalInteractionReason"}]}, "venue": {"id": "4deb6372fa76cc1b8afdb89c", "name": "Cozco Latte", "location": {"address": "99 Fulham Palace Rd", "crossStreet": "at Biscay Rd", "lat": 51.48869578515659, "lng": -0.22271472409070905, "labeledLatLngs": [{"label": "display", "lat": 51.48869578515659, "lng": -0.22271472409070905}], "distance": 301, "postalCode": "W6 8JA", "cc": "GB", "city": "London", "state": "Greater London", "country": "United Kingdom", "formattedAddress": ["99 Fulham Palace Rd (at Biscay Rd)", "London", "Greater London", "W6 8JA", "United Kingdom"]}, "categories": [{"id": "4bf58dd8d48988d16d941735", "name": "Caf\u00e9", "pluralName": "Caf\u00e9s", "shortName": "Caf\u00e9", "icon": {"prefix": "https://ss3.4sqi.net/img/categories_v2/food/cafe_", "suffix": ".png"}, "primary": true}], "photos": {"count": 0, "groups": []}}, "referralId": "e-0-4deb6372fa76cc1b8afdb89c-9"}, {"reasons": {"count": 0, "items": [{"summary": "This spot is popular", "type": "general", "reasonName": "globalInteractionReason"}]}, "venue": {"id": "4b7e8a7df964a520cff12fe3", "name": "PizzaExpress", "location": {"address": "158 Fulham Palace Road", "lat": 51.48657244941053, "lng": -0.221060390789944, "labeledLatLngs": [{"label": "display", "lat": 51.48657244941053, "lng": -0.221060390789944}], "distance": 378, "postalCode": "W6 9ER", "cc": "GB", "city": "London", "state": "Greater London", "country": "United Kingdom", "formattedAddress": ["158 Fulham Palace Road", "London", "Greater London", "W6 9ER", "United Kingdom"]}, "categories": [{"id": "4bf58dd8d48988d1ca941735", "name": "Pizza Place", "pluralName": "Pizza Places", "shortName": "Pizza", "icon": {"prefix": "https://ss3.4sqi.net/img/categories_v2/food/pizza_", "suffix": ".png"}, "primary": true}], "photos": {"count": 0, "groups": []}}, "referralId": "e-0-4b7e8a7df964a520cff12fe3-10"}, {"reasons": {"count": 0, "items": [{"summary": "This spot is popular", "type": "general", "reasonName": "globalInteractionReason"}]}, "venue": {"id": "4bbc73f33de8c9b669f19aad", "name": "The Whole Hog", "location": {"address": "82 Fulham Palace Road", "lat": 51.48863911628723, "lng": -0.22290448000000004, "labeledLatLngs": [{"label": "display", "lat": 51.48863911628723, "lng": -0.22290448000000004}], "distance": 287, "postalCode": "W6 9PL", "cc": "GB", "city": "Hammersmith", "state": "Greater London", "country": "United Kingdom", "formattedAddress": ["82 Fulham Palace Road", "Hammersmith", "Greater London", "W6 9PL", "United Kingdom"]}, "categories": [{"id": "4bf58dd8d48988d16d941735", "name": "Caf\u00e9", "pluralName": "Caf\u00e9s", "shortName": "Caf\u00e9", "icon": {"prefix": "https://ss3.4sqi.net/img/categories_v2/food/cafe_", "suffix": ".png"}, "primary": true}], "photos": {"count": 0, "groups": []}}, "referralId": "e-0-4bbc73f33de8c9b669f19aad-11"}, {"reasons": {"count": 0, "items": [{"summary": "This spot is popular", "type": "general", "reasonName": "globalInteractionReason"}]}, "venue": {"id": "5169a6fde4b04280a1db6b2d", "name": "Caf\u00e9 Barca", "location": {"address": "115 Fulham Palace Road", "lat": 51.488122848761016, "lng": -0.22236698179743322, "labeledLatLngs": [{"label": "display", "lat": 51.488122848761016, "lng": -0.22236698179743322}], "distance": 296, "postalCode": "W6 8JA", "cc": "GB", "city": "London", "state": "Greater London", "country": "United Kingdom", "formattedAddress": ["115 Fulham Palace Road", "London", "Greater London", "W6 8JA", "United Kingdom"]}, "categories": [{"id": "4bf58dd8d48988d16d941735", "name": "Caf\u00e9", "pluralName": "Caf\u00e9s", "shortName": "Caf\u00e9", "icon": {"prefix": "https://ss3.4sqi.net/img/categories_v2/food/cafe_", "suffix": ".png"}, "primary": true}], "photos": {"count": 0, "groups": []}}, "referralId": "e-0-5169a6fde4b04280a1db6b2d-12"}, {"reasons": {"count": 0, "items": [{"summary": "This spot is popular", "type": "general", "reasonName": "globalInteractionReason"}]}, "venue": {"id": "5543dcbd498ed0aa60de222b", "name": "New Bangkok", "location": {"lat": 51.48932242795592, "lng": -0.2230263214140813, "labeledLatLngs": [{"label": "display", "lat": 51.48932242795592, "lng": -0.2230263214140813}], "distance": 328, "cc": "GB", "country": "United Kingdom", "formattedAddress": ["United Kingdom"]}, "categories": [{"id": "4bf58dd8d48988d149941735", "name": "Thai Restaurant", "pluralName": "Thai Restaurants", "shortName": "Thai", "icon": {"prefix": "https://ss3.4sqi.net/img/categories_v2/food/thai_", "suffix": ".png"}, "primary": true}], "photos": {"count": 0, "groups": []}}, "referralId": "e-0-5543dcbd498ed0aa60de222b-13"}, {"reasons": {"count": 0, "items": [{"summary": "This spot is popular", "type": "general", "reasonName": "globalInteractionReason"}]}, "venue": {"id": "4d52f2ee7ee1a35d92849f34", "name": "Tops Pizza", "location": {"address": "74 Fulham Place Rd", "lat": 51.48857847389199, "lng": -0.2219502850430569, "labeledLatLngs": [{"label": "display", "lat": 51.48857847389199, "lng": -0.2219502850430569}], "distance": 342, "postalCode": "W6 9PL", "cc": "GB", "city": "London", "state": "Greater London", "country": "United Kingdom", "formattedAddress": ["74 Fulham Place Rd", "London", "Greater London", "W6 9PL", "United Kingdom"]}, "categories": [{"id": "4bf58dd8d48988d1ca941735", "name": "Pizza Place", "pluralName": "Pizza Places", "shortName": "Pizza", "icon": {"prefix": "https://ss3.4sqi.net/img/categories_v2/food/pizza_", "suffix": ".png"}, "primary": true}], "photos": {"count": 0, "groups": []}}, "referralId": "e-0-4d52f2ee7ee1a35d92849f34-14"}]}]}}