{"meta": {"code": 200, "requestId": "5feddbc2d5239e00e20420f8"}, "response": {"warning": {"text": "There aren't a lot of results near you. Try something more general, reset your filters, or expand the search area."}, "headerLocation": "Finsbury Park", "headerFullLocation": "Finsbury Park, London", "headerLocationGranularity": "neighborhood", "query": "arts entertainment", "totalResults": 3, "suggestedBounds": {"ne": {"lat": 51.56803500360001, "lng": -0.09990061911818646}, "sw": {"lat": 51.5608349964, "lng": -0.11146138088181354}}, "groups": [{"type": "Recommended Places", "name": "recommended", "items": [{"reasons": {"count": 0, "items": [{"summary": "This spot is popular", "type": "general", "reasonName": "globalInteractionReason"}]}, "venue": {"id": "500fe5a4e4b060f9bd627fe5", "name": "Park Theatre", "location": {"address": "Clifton Terrace", "lat": 51.56577170418814, "lng": -0.10828246112306869, "labeledLatLngs": [{"label": "display", "lat": 51.56577170418814, "lng": -0.10828246112306869}], "distance": 233, "postalCode": "N4 3JP", "cc": "GB", "country": "United Kingdom", "formattedAddress": ["Clifton Terrace", "N4 3JP", "United Kingdom"]}, "categories": [{"id": "4bf58dd8d48988d137941735", "name": "Theater", "pluralName": "Theaters", "shortName": "Theater", "icon": {"prefix": "https://ss3.4sqi.net/img/categories_v2/arts_entertainment/performingarts_theater_", "suffix": ".png"}, "primary": true}], "photos": {"count": 0, "groups": []}}, "referralId": "e-0-500fe5a4e4b060f9bd627fe5-0"}, {"reasons": {"count": 0, "items": [{"summary": "This spot is popular", "type": "general", "reasonName": "globalInteractionReason"}]}, "venue": {"id": "563efbabcd100d9902a3e824", "name": "Fox & Phoenix", "location": {"lat": 51.5637849, "lng": -0.1080227, "labeledLatLngs": [{"label": "display", "lat": 51.5637849, "lng": -0.1080227}], "distance": 177, "cc": "GB", "city": "London", "state": "Greater London", "country": "United Kingdom", "formattedAddress": ["London", "Greater London", "United Kingdom"]}, "categories": [{"id": "4bf58dd8d48988d1e5931735", "name": "Music Venue", "pluralName": "Music Venues", "shortName": "Music Venue", "icon": {"prefix": "https://ss3.4sqi.net/img/categories_v2/arts_entertainment/musicvenue_", "suffix": ".png"}, "primary": true}], "photos": {"count": 0, "groups": []}}, "referralId": "e-0-563efbabcd100d9902a3e824-1"}, {"reasons": {"count": 0, "items": [{"summary": "This spot is popular", "type": "general", "reasonName": "globalInteractionReason"}]}, "venue": {"id": "4c0bc6f76071a593a0b2e132", "name": "The Rage Factor", "location": {"lat": 51.565005, "lng": -0.103226, "labeledLatLngs": [{"label": "display", "lat": 51.565005, "lng": -0.103226}], "distance": 181, "cc": "GB", "country": "United Kingdom", "formattedAddress": ["United Kingdom"]}, "categories": [{"id": "4bf58dd8d48988d1e5931735", "name": "Music Venue", "pluralName": "Music Venues", "shortName": "Music Venue", "icon": {"prefix": "https://ss3.4sqi.net/img/categories_v2/arts_entertainment/musicvenue_", "suffix": ".png"}, "primary": true}], "photos": {"count": 0, "groups": []}}, "referralId": "e-0-4c0bc6f76071a593a0b2e132-2"}]}]}}