{"meta": {"code": 200, "requestId": "5feddc429d303e30fe8fbae1"}, "response": {"headerLocation": "Lambeth", "headerFullLocation": "Lambeth, London", "headerLocationGranularity": "neighborhood", "query": "travel", "totalResults": 5, "suggestedBounds": {"ne": {"lat": 51.484534003600004, "lng": -0.12387120861585565}, "sw": {"lat": 51.47733399639999, "lng": -0.13541079138414436}}, "groups": [{"type": "Recommended Places", "name": "recommended", "items": [{"reasons": {"count": 0, "items": [{"summary": "This spot is popular", "type": "general", "reasonName": "globalInteractionReason"}]}, "venue": {"id": "55a220ba498e1d7b3785e3a7", "name": "Holiday Inn Express London - Vauxhall Nine Elms", "location": {"address": "87 South Lambeth Rd", "lat": 51.48108536208466, "lng": -0.12430176493319323, "labeledLatLngs": [{"label": "display", "lat": 51.48108536208466, "lng": -0.12430176493319323}], "distance": 370, "postalCode": "SW8 1RN", "cc": "GB", "city": "London", "state": "Greater London", "country": "United Kingdom", "formattedAddress": ["87 South Lambeth Rd", "London", "Greater London", "SW8 1RN", "United Kingdom"]}, "categories": [{"id": "4bf58dd8d48988d1fa931735", "name": "Hotel", "pluralName": "Hotels", "shortName": "Hotel", "icon": {"prefix": "https://ss3.4sqi.net/img/categories_v2/travel/hotel_", "suffix": ".png"}, "primary": true}], "photos": {"count": 0, "groups": []}}, "referralId": "e-0-55a220ba498e1d7b3785e3a7-0"}, {"reasons": {"count": 0, "items": [{"summary": "This spot is popular", "type": "general", "reasonName": "globalInteractionReason"}]}, "venue": {"id": "51c2b499498e2b0c25a00d64", "name": "Bus Stp J", "location": {"lat": 51.47996653697772, "lng": -0.1282003800930818, "labeledLatLngs": [{"label": "display", "lat": 51.47996653697772, "lng": -0.1282003800930818}], "distance": 146, "cc": "GB", "country": "United Kingdom", "formattedAddress": ["United Kingdom"]}, "categories": [{"id": "4bf58dd8d48988d1fe931735", "name": "Bus Station", "pluralName": "Bus Stations", "shortName": "Bus Station", "icon": {"prefix": "https://ss3.4sqi.net/img/categories_v2/travel/busstation_", "suffix": ".png"}, "primary": true}], "photos": {"count": 0, "groups": []}}, "referralId": "e-0-51c2b499498e2b0c25a00d64-1"}, {"reasons": {"count": 0, "items": [{"summary": "This spot is popular", "type": "general", "reasonName": "globalInteractionReason"}]}, "venue": {"id": "5c45f734dab4b1002ceaae5a", "name": "Nine Elms London Underground Station", "location": {"address": "84 Wandsworth Rd", "lat": 51.48026, "lng": -0.12932271, "labeledLatLngs": [{"label": "display", "lat": 51.48026, "lng": -0.12932271}], "distance": 78, "postalCode": "SW8 2LF", "cc": "GB", "city": "Nine Elms", "state": "Greater London", "country": "United Kingdom", "formattedAddress": ["84 Wandsworth Rd", "Nine Elms", "Greater London", "SW8 2LF", "United Kingdom"]}, "categories": [{"id": "4bf58dd8d48988d1fd931735", "name": "Metro Station", "pluralName": "Metro Stations", "shortName": "Metro", "icon": {"prefix": "https://ss3.4sqi.net/img/categories_v2/travel/subway_", "suffix": ".png"}, "primary": true}], "photos": {"count": 0, "groups": []}}, "referralId": "e-0-5c45f734dab4b1002ceaae5a-2"}, {"reasons": {"count": 0, "items": [{"summary": "This spot is popular", "type": "general", "reasonName": "globalInteractionReason"}]}, "venue": {"id": "5b190ec73d4791002c0067fd", "name": "Milan Travels Car Rental in Mumbai", "location": {"address": "-", "lat": 51.48221140516391, "lng": -0.1322329044342041, "labeledLatLngs": [{"label": "display", "lat": 51.48221140516391, "lng": -0.1322329044342041}], "distance": 229, "postalCode": "WC2N 5DU", "cc": "GB", "city": "London", "state": "Greater London", "country": "United Kingdom", "formattedAddress": ["-", "London", "Greater London", "WC2N 5DU", "United Kingdom"]}, "categories": [{"id": "4bf58dd8d48988d1ef941735", "name": "Rental Car Location", "pluralName": "Rental Car Locations", "shortName": "Rental Car", "icon": {"prefix": "https://ss3.4sqi.net/img/categories_v2/shops/airport_rentalcar_", "suffix": ".png"}, "primary": true}], "photos": {"count": 0, "groups": []}}, "referralId": "e-0-5b190ec73d4791002c0067fd-3"}, {"reasons": {"count": 0, "items": [{"summary": "This spot is popular", "type": "general", "reasonName": "globalInteractionReason"}]}, "venue": {"id": "589904cdb38b32142f556284", "name": "Wheatsheaf Lane Bus Stop", "location": {"lat": 51.480522, "lng": -0.124738, "labeledLatLngs": [{"label": "display", "lat": 51.480522, "lng": -0.124738}], "distance": 342, "cc": "GB", "country": "United Kingdom", "formattedAddress": ["United Kingdom"]}, "categories": [{"id": "52f2ab2ebcbc57f1066b8b4f", "name": "Bus Stop", "pluralName": "Bus Stops", "shortName": "Bus Stop", "icon": {"prefix": "https://ss3.4sqi.net/img/categories_v2/travel/busstation_", "suffix": ".png"}, "primary": true}], "photos": {"count": 0, "groups": []}}, "referralId": "e-0-589904cdb38b32142f556284-4"}]}]}}