{"meta": {"code": 200, "requestId": "5feddc9c823a4a5812ade020"}, "response": {"warning": {"text": "There aren't a lot of results near you. Try something more general, reset your filters, or expand the search area."}, "headerLocation": "Barnet", "headerFullLocation": "Barnet, London", "headerLocationGranularity": "neighborhood", "query": "food", "totalResults": 3, "suggestedBounds": {"ne": {"lat": 51.57493100360001, "lng": -0.18050974228845873}, "sw": {"lat": 51.567730996399995, "lng": -0.1920722577115413}}, "groups": [{"type": "Recommended Places", "name": "recommended", "items": [{"reasons": {"count": 0, "items": [{"summary": "This spot is popular", "type": "general", "reasonName": "globalInteractionReason"}]}, "venue": {"id": "4f6b5dc1e4b0952430a9c7f6", "name": "Refreshment House", "location": {"lat": 51.56794927198222, "lng": -0.1846668652089993, "labeledLatLngs": [{"label": "display", "lat": 51.56794927198222, "lng": -0.1846668652089993}], "distance": 392, "cc": "GB", "city": "London", "state": "Greater London", "country": "United Kingdom", "formattedAddress": ["London", "Greater London", "United Kingdom"]}, "categories": [{"id": "4bf58dd8d48988d16d941735", "name": "Caf\u00e9", "pluralName": "Caf\u00e9s", "shortName": "Caf\u00e9", "icon": {"prefix": "https://ss3.4sqi.net/img/categories_v2/food/cafe_", "suffix": ".png"}, "primary": true}], "photos": {"count": 0, "groups": []}}, "referralId": "e-0-4f6b5dc1e4b0952430a9c7f6-0"}, {"reasons": {"count": 0, "items": [{"summary": "This spot is popular", "type": "general", "reasonName": "globalInteractionReason"}]}, "venue": {"id": "4e6fca1afa76724dae93b8d3", "name": "Kismet", "location": {"lat": 51.57124155963434, "lng": -0.18828583997455695, "labeledLatLngs": [{"label": "display", "lat": 51.57124155963434, "lng": -0.18828583997455695}], "distance": 138, "cc": "GB", "city": "Watford", "state": "Hertfordshire", "country": "United Kingdom", "formattedAddress": ["Watford", "Hertfordshire", "United Kingdom"]}, "categories": [{"id": "4d4b7105d754a06374d81259", "name": "Food", "pluralName": "Food", "shortName": "Food", "icon": {"prefix": "https://ss3.4sqi.net/img/categories_v2/food/default_", "suffix": ".png"}, "primary": true}], "photos": {"count": 0, "groups": []}}, "referralId": "e-0-4e6fca1afa76724dae93b8d3-1"}, {"reasons": {"count": 0, "items": [{"summary": "This spot is popular", "type": "general", "reasonName": "globalInteractionReason"}]}, "venue": {"id": "4bea81b26295c9b657748608", "name": "Parkway patisserie", "location": {"address": "30A North End Road", "lat": 51.5718888926765, "lng": -0.18979750494303751, "labeledLatLngs": [{"label": "display", "lat": 51.5718888926765, "lng": -0.18979750494303751}], "distance": 250, "postalCode": "N W11", "cc": "GB", "city": "Golders Green", "state": "Greater London", "country": "United Kingdom", "formattedAddress": ["30A North End Road", "Golders Green", "Greater London", "N W11", "United Kingdom"]}, "categories": [{"id": "4bf58dd8d48988d16a941735", "name": "Bakery", "pluralName": "Bakeries", "shortName": "Bakery", "icon": {"prefix": "https://ss3.4sqi.net/img/categories_v2/food/bakery_", "suffix": ".png"}, "primary": true}], "photos": {"count": 0, "groups": []}}, "referralId": "e-0-4bea81b26295c9b657748608-2"}]}]}}