{"meta": {"code": 200, "requestId": "5fedd9f93a67415842045dc5"}, "response": {"headerLocation": "Stoke Newington Central", "headerFullLocation": "Stoke Newington Central, London", "headerLocationGranularity": "neighborhood", "query": "arts entertainment", "totalResults": 4, "suggestedBounds": {"ne": {"lat": 51.567100003600004, "lng": -0.06795973797696644}, "sw": {"lat": 51.55989999639999, "lng": -0.07952026202303356}}, "groups": [{"type": "Recommended Places", "name": "recommended", "items": [{"reasons": {"count": 0, "items": [{"summary": "This spot is popular", "type": "general", "reasonName": "globalInteractionReason"}]}, "venue": {"id": "4b7ef7b5f964a5200d0d30e3", "name": "The Others", "location": {"address": "6-8 Manor Rd", "lat": 51.565835385986006, "lng": -0.0747335617633967, "labeledLatLngs": [{"label": "display", "lat": 51.565835385986006, "lng": -0.0747335617633967}], "distance": 268, "postalCode": "N16 5SA", "cc": "GB", "city": "London", "state": "Greater London", "country": "United Kingdom", "formattedAddress": ["6-8 Manor Rd", "London", "Greater London", "N16 5SA", "United Kingdom"]}, "categories": [{"id": "4bf58dd8d48988d1f2931735", "name": "Performing Arts Venue", "pluralName": "Performing Arts Venues", "shortName": "Performing Arts", "icon": {"prefix": "https://ss3.4sqi.net/img/categories_v2/arts_entertainment/performingarts_", "suffix": ".png"}, "primary": true}], "photos": {"count": 0, "groups": []}}, "referralId": "e-0-4b7ef7b5f964a5200d0d30e3-0"}, {"reasons": {"count": 0, "items": [{"summary": "This spot is popular", "type": "general", "reasonName": "globalInteractionReason"}]}, "venue": {"id": "4c5eb31d6147be9a69729509", "name": "Audio Underground", "location": {"lat": 51.56293040076679, "lng": -0.07219086062110562, "labeledLatLngs": [{"label": "display", "lat": 51.56293040076679, "lng": -0.07219086062110562}], "distance": 124, "cc": "GB", "country": "United Kingdom", "formattedAddress": ["United Kingdom"]}, "categories": [{"id": "4bf58dd8d48988d1e9931735", "name": "Rock Club", "pluralName": "Rock Clubs", "shortName": "Rock Club", "icon": {"prefix": "https://ss3.4sqi.net/img/categories_v2/arts_entertainment/musicvenue_rockclub_", "suffix": ".png"}, "primary": true}], "photos": {"count": 0, "groups": []}}, "referralId": "e-0-4c5eb31d6147be9a69729509-1"}, {"reasons": {"count": 0, "items": [{"summary": "This spot is popular", "type": "general", "reasonName": "globalInteractionReason"}]}, "venue": {"id": "5ae36ceeb8fd9d002c75ab8e", "name": "Tower Theatre", "location": {"address": "16 Northwold Road", "lat": 51.562882, "lng": -0.071905, "labeledLatLngs": [{"label": "display", "lat": 51.562882, "lng": -0.071905}], "distance": 144, "postalCode": "N16 7HR", "cc": "GB", "city": "London", "state": "Greater London", "country": "United Kingdom", "formattedAddress": ["16 Northwold Road", "London", "Greater London", "N16 7HR", "United Kingdom"]}, "categories": [{"id": "4bf58dd8d48988d137941735", "name": "Theater", "pluralName": "Theaters", "shortName": "Theater", "icon": {"prefix": "https://ss3.4sqi.net/img/categories_v2/arts_entertainment/performingarts_theater_", "suffix": ".png"}, "primary": true}], "photos": {"count": 0, "groups": []}}, "referralId": "e-0-5ae36ceeb8fd9d002c75ab8e-2"}, {"reasons": {"count": 0, "items": [{"summary": "This spot is popular", "type": "general", "reasonName": "globalInteractionReason"}]}, "venue": {"id": "4e78ea7d22714e6e5f39e355", "name": "The Canadian Hut", "location": {"address": "36 Windus Road", "lat": 51.565877610164364, "lng": -0.07308597890943311, "labeledLatLngs": [{"label": "display", "lat": 51.565877610164364, "lng": -0.07308597890943311}], "distance": 268, "cc": "GB", "city": "London", "state": "Greater London", "country": "United Kingdom", "formattedAddress": ["36 Windus Road", "London", "Greater London", "United Kingdom"]}, "categories": [{"id": "58daa1558bbb0b01f18ec1fd", "name": "Zoo Exhibit", "pluralName": "Zoo Exhibits", "shortName": "Zoo Exhibit", "icon": {"prefix": "https://ss3.4sqi.net/img/categories_v2/arts_entertainment/zoo_", "suffix": ".png"}, "primary": true}], "photos": {"count": 0, "groups": []}}, "referralId": "e-0-4e78ea7d22714e6e5f39e355-3"}]}]}}