{"meta": {"code": 200, "requestId": "5feddb45d5239e00e202689c"}, "response": {"suggestedFilters": {"header": "Tap to show:", "filters": [{"name": "Open now", "key": "openNow"}]}, "headerLocation": "Hackney", "headerFullLocation": "Hackney, London", "headerLocationGranularity": "neighborhood", "query": "arts entertainment", "totalResults": 6, "suggestedBounds": {"ne": {"lat": 51.53455400360001, "lng": -0.06681587127713783}, "sw": {"lat": 51.527353996399995, "lng": -0.07836812872286218}}, "groups": [{"type": "Recommended Places", "name": "recommended", "items": [{"reasons": {"count": 0, "items": [{"summary": "This spot is popular", "type": "general", "reasonName": "globalInteractionReason"}]}, "venue": {"id": "4ad046f3f964a520cbd720e3", "name": "theprintspace", "location": {"address": "74 Kingsland Road", "lat": 51.52940473953908, "lng": -0.07754408999996312, "labeledLatLngs": [{"label": "display", "lat": 51.52940473953908, "lng": -0.07754408999996312}], "distance": 383, "postalCode": "E2 8DL", "cc": "GB", "city": "London", "state": "Greater London", "country": "United Kingdom", "formattedAddress": ["74 Kingsland Road", "London", "Greater London", "E2 8DL", "United Kingdom"]}, "categories": [{"id": "4bf58dd8d48988d1e2931735", "name": "Art Gallery", "pluralName": "Art Galleries", "shortName": "Art Gallery", "icon": {"prefix": "https://ss3.4sqi.net/img/categories_v2/arts_entertainment/artgallery_", "suffix": ".png"}, "primary": true}], "photos": {"count": 0, "groups": []}, "venuePage": {"id": "38734595"}}, "referralId": "e-0-4ad046f3f964a520cbd720e3-0"}, {"reasons": {"count": 0, "items": [{"summary": "This spot is popular", "type": "general", "reasonName": "globalInteractionReason"}]}, "venue": {"id": "4cc2ce39bde8f04d90a7a04b", "name": "Flowers", "location": {"address": "82 Kingsland Road", "lat": 51.52970533709714, "lng": -0.07731842627016952, "labeledLatLngs": [{"label": "display", "lat": 51.52970533709714, "lng": -0.07731842627016952}], "distance": 355, "postalCode": "E2 8DP", "cc": "GB", "city": "Hackney", "state": "Greater London", "country": "United Kingdom", "formattedAddress": ["82 Kingsland Road", "Hackney", "Greater London", "E2 8DP", "United Kingdom"]}, "categories": [{"id": "4bf58dd8d48988d1e2931735", "name": "Art Gallery", "pluralName": "Art Galleries", "shortName": "Art Gallery", "icon": {"prefix": "https://ss3.4sqi.net/img/categories_v2/arts_entertainment/artgallery_", "suffix": ".png"}, "primary": true}], "photos": {"count": 0, "groups": []}}, "referralId": "e-0-4cc2ce39bde8f04d90a7a04b-1"}, {"reasons": {"count": 0, "items": [{"summary": "This spot is popular", "type": "general", "reasonName": "globalInteractionReason"}]}, "venue": {"id": "5529b73c498effc3907667d4", "name": "the premises music studio", "location": {"address": "200 Hackney Road", "lat": 51.53113001009331, "lng": -0.07150135220084812, "labeledLatLngs": [{"label": "display", "lat": 51.53113001009331, "lng": -0.07150135220084812}], "distance": 78, "postalCode": "E2 8JL", "cc": "GB", "city": "London", "state": "Greater London", "country": "United Kingdom", "formattedAddress": ["200 Hackney Road", "London", "Greater London", "E2 8JL", "United Kingdom"]}, "categories": [{"id": "4bf58dd8d48988d1e5931735", "name": "Music Venue", "pluralName": "Music Venues", "shortName": "Music Venue", "icon": {"prefix": "https://ss3.4sqi.net/img/categories_v2/arts_entertainment/musicvenue_", "suffix": ".png"}, "primary": true}], "photos": {"count": 0, "groups": []}}, "referralId": "e-0-5529b73c498effc3907667d4-2"}, {"reasons": {"count": 0, "items": [{"summary": "This spot is popular", "type": "general", "reasonName": "globalInteractionReason"}]}, "venue": {"id": "4ead83686da1a0e3a4833851", "name": "Arch 402 Gallery", "location": {"address": "37 Cremer St.", "lat": 51.53067758972827, "lng": -0.07596972548821296, "labeledLatLngs": [{"label": "display", "lat": 51.53067758972827, "lng": -0.07596972548821296}], "distance": 235, "postalCode": "E2 8HD", "cc": "GB", "city": "Hackney", "state": "Greater London", "country": "United Kingdom", "formattedAddress": ["37 Cremer St.", "Hackney", "Greater London", "E2 8HD", "United Kingdom"]}, "categories": [{"id": "4bf58dd8d48988d1e2931735", "name": "Art Gallery", "pluralName": "Art Galleries", "shortName": "Art Gallery", "icon": {"prefix": "https://ss3.4sqi.net/img/categories_v2/arts_entertainment/artgallery_", "suffix": ".png"}, "primary": true}], "photos": {"count": 0, "groups": []}}, "referralId": "e-0-4ead83686da1a0e3a4833851-3"}, {"reasons": {"count": 0, "items": [{"summary": "This spot is popular", "type": "general", "reasonName": "globalInteractionReason"}]}, "venue": {"id": "538e7e43498ecf4f981a9e33", "name": "Hoxton Arches", "location": {"lat": 51.53063801669472, "lng": -0.076012543472897, "labeledLatLngs": [{"label": "display", "lat": 51.53063801669472, "lng": -0.076012543472897}], "distance": 239, "cc": "GB", "city": "London", "state": "Greater London", "country": "United Kingdom", "formattedAddress": ["London", "Greater London", "United Kingdom"]}, "categories": [{"id": "4bf58dd8d48988d1e2931735", "name": "Art Gallery", "pluralName": "Art Galleries", "shortName": "Art Gallery", "icon": {"prefix": "https://ss3.4sqi.net/img/categories_v2/arts_entertainment/artgallery_", "suffix": ".png"}, "primary": true}], "photos": {"count": 0, "groups": []}}, "referralId": "e-0-538e7e43498ecf4f981a9e33-4"}, {"reasons": {"count": 0, "items": [{"summary": "This spot is popular", "type": "general", "reasonName": "globalInteractionReason"}]}, "venue": {"id": "58bb22fe13c223126f6dfc0f", "name": "Unit 5 Gallery", "location": {"address": "Yorkton St", "crossStreet": "at Dunloe St", "lat": 51.53176092431681, "lng": -0.06911516189575195, "labeledLatLngs": [{"label": "display", "lat": 51.53176092431681, "lng": -0.06911516189575195}], "distance": 256, "postalCode": "E2 8NH", "cc": "GB", "city": "London", "state": "Greater London", "country": "United Kingdom", "formattedAddress": ["Yorkton St (at Dunloe St)", "London", "Greater London", "E2 8NH", "United Kingdom"]}, "categories": [{"id": "4bf58dd8d48988d1e2931735", "name": "Art Gallery", "pluralName": "Art Galleries", "shortName": "Art Gallery", "icon": {"prefix": "https://ss3.4sqi.net/img/categories_v2/arts_entertainment/artgallery_", "suffix": ".png"}, "primary": true}], "photos": {"count": 0, "groups": []}}, "referralId": "e-0-58bb22fe13c223126f6dfc0f-5"}]}]}}