{"meta": {"code": 200, "requestId": "5fedda7bb1fef738c4b0815f"}, "response": {"suggestedFilters": {"header": "Tap to show:", "filters": [{"name": "Open now", "key": "openNow"}]}, "headerLocation": "Golders Green", "headerFullLocation": "Golders Green, London", "headerLocationGranularity": "neighborhood", "query": "college education", "totalResults": 20, "suggestedBounds": {"ne": {"lat": 51.57326700360001, "lng": -0.18987195389887682}, "sw": {"lat": 51.5660669964, "lng": -0.20143404610112317}}, "groups": [{"type": "Recommended Places", "name": "recommended", "items": [{"reasons": {"count": 0, "items": [{"summary": "This spot is popular", "type": "general", "reasonName": "globalInteractionReason"}]}, "venue": {"id": "4ec7d12db8f758db74981fae", "name": "Seoul Plaza", "location": {"address": "15A Golders Green Rd", "lat": 51.571946490603985, "lng": -0.19623802454722392, "labeledLatLngs": [{"label": "display", "lat": 51.571946490603985, "lng": -0.19623802454722392}], "distance": 256, "postalCode": "NW11 8DY", "cc": "GB", "city": "London", "state": "Greater London", "country": "United Kingdom", "formattedAddress": ["15A Golders Green Rd", "London", "Greater London", "NW11 8DY", "United Kingdom"]}, "categories": [{"id": "4bf58dd8d48988d118951735", "name": "Grocery Store", "pluralName": "Grocery Stores", "shortName": "Grocery Store", "icon": {"prefix": "https://ss3.4sqi.net/img/categories_v2/shops/food_grocery_", "suffix": ".png"}, "primary": true}], "photos": {"count": 0, "groups": []}}, "referralId": "e-0-4ec7d12db8f758db74981fae-0"}, {"reasons": {"count": 0, "items": [{"summary": "This spot is popular", "type": "general", "reasonName": "globalInteractionReason"}]}, "venue": {"id": "4cd995352a87a143fa90b309", "name": "Sainsbury's Local", "location": {"address": "29-37 Golders Green Road", "crossStreet": "Accommodation Rd", "lat": 51.57200074665935, "lng": -0.19715676843268692, "labeledLatLngs": [{"label": "display", "lat": 51.57200074665935, "lng": -0.19715676843268692}], "distance": 279, "postalCode": "NW11 8EE", "cc": "GB", "city": "London", "state": "Greater London", "country": "United Kingdom", "formattedAddress": ["29-37 Golders Green Road (Accommodation Rd)", "London", "Greater London", "NW11 8EE", "United Kingdom"]}, "categories": [{"id": "4bf58dd8d48988d118951735", "name": "Grocery Store", "pluralName": "Grocery Stores", "shortName": "Grocery Store", "icon": {"prefix": "https://ss3.4sqi.net/img/categories_v2/shops/food_grocery_", "suffix": ".png"}, "primary": true}], "photos": {"count": 0, "groups": []}}, "referralId": "e-0-4cd995352a87a143fa90b309-1"}, {"reasons": {"count": 0, "items": [{"summary": "This spot is popular", "type": "general", "reasonName": "globalInteractionReason"}]}, "venue": {"id": "570224ed498e45984e09e7e6", "name": "Paddy Power", "location": {"address": "634 Finchley Road", "lat": 51.57144177055792, "lng": -0.19517898559570312, "labeledLatLngs": [{"label": "display", "lat": 51.57144177055792, "lng": -0.19517898559570312}], "distance": 200, "postalCode": "NW11 7RR", "cc": "GB", "city": "London", "state": "Greater London", "country": "United Kingdom", "formattedAddress": ["634 Finchley Road", "London", "Greater London", "NW11 7RR", "United Kingdom"]}, "categories": [{"id": "52f2ab2ebcbc57f1066b8b40", "name": "Betting Shop", "pluralName": "Betting Shops", "shortName": "Betting Shop", "icon": {"prefix": "https://ss3.4sqi.net/img/categories_v2/shops/financial_", "suffix": ".png"}, "primary": true}], "photos": {"count": 0, "groups": []}, "venuePage": {"id": "543359806"}}, "referralId": "e-0-570224ed498e45984e09e7e6-2"}, {"reasons": {"count": 0, "items": [{"summary": "This spot is popular", "type": "general", "reasonName": "globalInteractionReason"}]}, "venue": {"id": "57f6695d498ebf055f58a2ee", "name": "Phone Repairs Centre", "location": {"address": "873 Finchley Road", "lat": 51.5710673, "lng": -0.19558019999999487, "labeledLatLngs": [{"label": "display", "lat": 51.5710673, "lng": -0.19558019999999487}], "distance": 155, "postalCode": "NW11 8RR", "cc": "GB", "city": "London", "state": "Greater London", "country": "United Kingdom", "formattedAddress": ["873 Finchley Road", "London", "Greater London", "NW11 8RR", "United Kingdom"]}, "categories": [{"id": "4f04afc02fb6e1c99f3db0bc", "name": "Mobile Phone Shop", "pluralName": "Mobile Phone Shops", "shortName": "Mobile Phones", "icon": {"prefix": "https://ss3.4sqi.net/img/categories_v2/shops/mobilephoneshop_", "suffix": ".png"}, "primary": true}], "photos": {"count": 0, "groups": []}, "venuePage": {"id": "352799354"}}, "referralId": "e-0-57f6695d498ebf055f58a2ee-3"}, {"reasons": {"count": 0, "items": [{"summary": "This spot is popular", "type": "general", "reasonName": "globalInteractionReason"}]}, "venue": {"id": "505a4591e4b080fca896e594", "name": "Price Chopper", "location": {"address": "15 Golders Green Rd", "lat": 51.57146576975211, "lng": -0.19599150465910456, "labeledLatLngs": [{"label": "display", "lat": 51.57146576975211, "lng": -0.19599150465910456}], "distance": 201, "postalCode": "NW11 8DY", "cc": "GB", "city": "London", "state": "Greater London", "country": "United Kingdom", "formattedAddress": ["15 Golders Green Rd", "London", "Greater London", "NW11 8DY", "United Kingdom"]}, "categories": [{"id": "4d954b0ea243a5684a65b473", "name": "Convenience Store", "pluralName": "Convenience Stores", "shortName": "Convenience Store", "icon": {"prefix": "https://ss3.4sqi.net/img/categories_v2/shops/conveniencestore_", "suffix": ".png"}, "primary": true}], "photos": {"count": 0, "groups": []}}, "referralId": "e-0-505a4591e4b080fca896e594-4"}, {"reasons": {"count": 0, "items": [{"summary": "This spot is popular", "type": "general", "reasonName": "globalInteractionReason"}]}, "venue": {"id": "5d6fe883962c9e0008e36505", "name": "Nisa Local", "location": {"address": "638 Finchley Rd", "lat": 51.571450411148206, "lng": -0.19504118695442685, "labeledLatLngs": [{"label": "display", "lat": 51.571450411148206, "lng": -0.19504118695442685}], "distance": 202, "postalCode": "NW11 7RR", "cc": "GB", "city": "London", "state": "Greater London", "country": "United Kingdom", "formattedAddress": ["638 Finchley Rd", "London", "Greater London", "NW11 7RR", "United Kingdom"]}, "categories": [{"id": "4d954b0ea243a5684a65b473", "name": "Convenience Store", "pluralName": "Convenience Stores", "shortName": "Convenience Store", "icon": {"prefix": "https://ss3.4sqi.net/img/categories_v2/shops/conveniencestore_", "suffix": ".png"}, "primary": true}], "photos": {"count": 0, "groups": []}}, "referralId": "e-0-5d6fe883962c9e0008e36505-5"}, {"reasons": {"count": 0, "items": [{"summary": "This spot is popular", "type": "general", "reasonName": "globalInteractionReason"}]}, "venue": {"id": "4cce836cb571b60c2dc5de65", "name": "Boots", "location": {"address": "58-60 Golders Green Rd.", "lat": 51.57267870192017, "lng": -0.19852076842408167, "labeledLatLngs": [{"label": "display", "lat": 51.57267870192017, "lng": -0.19852076842408167}], "distance": 389, "postalCode": "NW11 8LN", "cc": "GB", "city": "London", "state": "Greater London", "country": "United Kingdom", "formattedAddress": ["58-60 Golders Green Rd.", "London", "Greater London", "NW11 8LN", "United Kingdom"]}, "categories": [{"id": "4bf58dd8d48988d10f951735", "name": "Pharmacy", "pluralName": "Pharmacies", "shortName": "Pharmacy", "icon": {"prefix": "https://ss3.4sqi.net/img/categories_v2/shops/pharmacy_", "suffix": ".png"}, "primary": true}], "photos": {"count": 0, "groups": []}}, "referralId": "e-0-4cce836cb571b60c2dc5de65-6"}, {"reasons": {"count": 0, "items": [{"summary": "This spot is popular", "type": "general", "reasonName": "globalInteractionReason"}]}, "venue": {"id": "4d79d4a11623a093e5a27a6e", "name": "hello kitchen", "location": {"lat": 51.57140108281967, "lng": -0.1943940781646869, "labeledLatLngs": [{"label": "display", "lat": 51.57140108281967, "lng": -0.1943940781646869}], "distance": 211, "cc": "GB", "country": "United Kingdom", "formattedAddress": ["United Kingdom"]}, "categories": [{"id": "4bf58dd8d48988d118951735", "name": "Grocery Store", "pluralName": "Grocery Stores", "shortName": "Grocery Store", "icon": {"prefix": "https://ss3.4sqi.net/img/categories_v2/shops/food_grocery_", "suffix": ".png"}, "primary": true}], "photos": {"count": 0, "groups": []}}, "referralId": "e-0-4d79d4a11623a093e5a27a6e-7"}, {"reasons": {"count": 0, "items": [{"summary": "This spot is popular", "type": "general", "reasonName": "globalInteractionReason"}]}, "venue": {"id": "4b54647cf964a520a7b927e3", "name": "Sainsbury's", "location": {"address": "614 Finchley Road", "lat": 51.5707438206995, "lng": -0.19454403088467354, "labeledLatLngs": [{"label": "display", "lat": 51.5707438206995, "lng": -0.19454403088467354}], "distance": 142, "postalCode": "NW11 7RX", "cc": "GB", "city": "London", "state": "Greater London", "country": "United Kingdom", "formattedAddress": ["614 Finchley Road", "London", "Greater London", "NW11 7RX", "United Kingdom"]}, "categories": [{"id": "52f2ab2ebcbc57f1066b8b46", "name": "Supermarket", "pluralName": "Supermarkets", "shortName": "Supermarket", "icon": {"prefix": "https://ss3.4sqi.net/img/categories_v2/shops/food_grocery_", "suffix": ".png"}, "primary": true}], "photos": {"count": 0, "groups": []}}, "referralId": "e-0-4b54647cf964a520a7b927e3-8"}, {"reasons": {"count": 0, "items": [{"summary": "This spot is popular", "type": "general", "reasonName": "globalInteractionReason"}]}, "venue": {"id": "4d80988a1013236add898a35", "name": "Ryman Stationery", "location": {"address": "27 Golders Green Road", "lat": 51.5719195, "lng": -0.1969558, "labeledLatLngs": [{"label": "display", "lat": 51.5719195, "lng": -0.1969558}], "distance": 266, "postalCode": "NW11 8EE", "cc": "GB", "city": "London", "state": "Greater London", "country": "United Kingdom", "formattedAddress": ["27 Golders Green Road", "London", "Greater London", "NW11 8EE", "United Kingdom"]}, "categories": [{"id": "52f2ab2ebcbc57f1066b8b21", "name": "Stationery Store", "pluralName": "Stationery Stores", "shortName": "Stationery Store", "icon": {"prefix": "https://ss3.4sqi.net/img/categories_v2/shops/default_", "suffix": ".png"}, "primary": true}], "photos": {"count": 0, "groups": []}}, "referralId": "e-0-4d80988a1013236add898a35-9"}, {"reasons": {"count": 0, "items": [{"summary": "This spot is popular", "type": "general", "reasonName": "globalInteractionReason"}]}, "venue": {"id": "4dcd6d17d164679b8ce5f591", "name": "Candy Box", "location": {"address": "11 Broadway Parade", "lat": 51.57120170814407, "lng": -0.19260406494140625, "labeledLatLngs": [{"label": "display", "lat": 51.57120170814407, "lng": -0.19260406494140625}], "distance": 271, "postalCode": "N8 9DE", "cc": "GB", "city": "London", "state": "Greater London", "country": "United Kingdom", "formattedAddress": ["11 Broadway Parade", "London", "Greater London", "N8 9DE", "United Kingdom"]}, "categories": [{"id": "4bf58dd8d48988d117951735", "name": "Candy Store", "pluralName": "Candy Stores", "shortName": "Candy Store", "icon": {"prefix": "https://ss3.4sqi.net/img/categories_v2/shops/candystore_", "suffix": ".png"}, "primary": true}], "photos": {"count": 0, "groups": []}}, "referralId": "e-0-4dcd6d17d164679b8ce5f591-10"}, {"reasons": {"count": 0, "items": [{"summary": "This spot is popular", "type": "general", "reasonName": "globalInteractionReason"}]}, "venue": {"id": "4d10ec5ae236548115c37aea", "name": "Space NK", "location": {"address": "62 Hampstead High Street", "lat": 51.572070768685876, "lng": -0.19452368264757486, "labeledLatLngs": [{"label": "display", "lat": 51.572070768685876, "lng": -0.19452368264757486}], "distance": 278, "postalCode": "NW3 1QH", "cc": "GB", "city": "London", "state": "Greater London", "country": "United Kingdom", "formattedAddress": ["62 Hampstead High Street", "London", "Greater London", "NW3 1QH", "United Kingdom"]}, "categories": [{"id": "4bf58dd8d48988d10c951735", "name": "Cosmetics Shop", "pluralName": "Cosmetics Shops", "shortName": "Cosmetics", "icon": {"prefix": "https://ss3.4sqi.net/img/categories_v2/shops/beauty_cosmetic_", "suffix": ".png"}, "primary": true}], "photos": {"count": 0, "groups": []}}, "referralId": "e-0-4d10ec5ae236548115c37aea-11"}, {"reasons": {"count": 0, "items": [{"summary": "This spot is popular", "type": "general", "reasonName": "globalInteractionReason"}]}, "venue": {"id": "4f12fcfbe4b0d3f8a6ff0176", "name": "Specsavers", "location": {"address": "29 Golders Green Road", "lat": 51.572116872655094, "lng": -0.19654324804757373, "labeledLatLngs": [{"label": "display", "lat": 51.572116872655094, "lng": -0.19654324804757373}], "distance": 279, "postalCode": "NW11 8EE", "cc": "GB", "city": "Golders Green", "state": "Greater London", "country": "United Kingdom", "formattedAddress": ["29 Golders Green Road", "Golders Green", "Greater London", "NW11 8EE", "United Kingdom"]}, "categories": [{"id": "4d954afda243a5684865b473", "name": "Optical Shop", "pluralName": "Optical Shops", "shortName": "Optical", "icon": {"prefix": "https://ss3.4sqi.net/img/categories_v2/building/medical_opticalshop_", "suffix": ".png"}, "primary": true}], "photos": {"count": 0, "groups": []}}, "referralId": "e-0-4f12fcfbe4b0d3f8a6ff0176-12"}, {"reasons": {"count": 0, "items": [{"summary": "This spot is popular", "type": "general", "reasonName": "globalInteractionReason"}]}, "venue": {"id": "5ed6d73701648d00080e9fae", "name": "HandT Pawnbrokers", "location": {"address": "16 Golders Green Road", "lat": 51.57218798, "lng": -0.19678006, "labeledLatLngs": [{"label": "display", "lat": 51.57218798, "lng": -0.19678006}], "distance": 291, "postalCode": "NW11 8LL", "cc": "GB", "city": "London", "state": "Greater London", "country": "United Kingdom", "formattedAddress": ["16 Golders Green Road", "London", "Greater London", "NW11 8LL", "United Kingdom"]}, "categories": [{"id": "52f2ab2ebcbc57f1066b8b34", "name": "Pawn Shop", "pluralName": "Pawn Shops", "shortName": "Pawn Shop", "icon": {"prefix": "https://ss3.4sqi.net/img/categories_v2/shops/default_", "suffix": ".png"}, "primary": true}], "photos": {"count": 0, "groups": []}, "venuePage": {"id": "586029896"}}, "referralId": "e-0-5ed6d73701648d00080e9fae-13"}, {"reasons": {"count": 0, "items": [{"summary": "This spot is popular", "type": "general", "reasonName": "globalInteractionReason"}]}, "venue": {"id": "5307997f498e7771039d5e47", "name": "Buy2Save International Supermarket", "location": {"address": "Golders Green Road", "lat": 51.5722237219027, "lng": -0.1972945776147756, "labeledLatLngs": [{"label": "display", "lat": 51.5722237219027, "lng": -0.1972945776147756}], "distance": 306, "cc": "GB", "country": "United Kingdom", "formattedAddress": ["Golders Green Road", "United Kingdom"]}, "categories": [{"id": "52f2ab2ebcbc57f1066b8b1c", "name": "Fruit & Vegetable Store", "pluralName": "Fruit & Vegetable Stores", "shortName": "Fruit & Vegetable Store", "icon": {"prefix": "https://ss3.4sqi.net/img/categories_v2/shops/food_grocery_", "suffix": ".png"}, "primary": true}], "photos": {"count": 0, "groups": []}}, "referralId": "e-0-5307997f498e7771039d5e47-14"}, {"reasons": {"count": 0, "items": [{"summary": "This spot is popular", "type": "general", "reasonName": "globalInteractionReason"}]}, "venue": {"id": "4ec2e2366c25adc5b2df5536", "name": "Warman-Freed Pharmacy", "location": {"address": "45 Golders Green Road", "lat": 51.572351409071885, "lng": -0.19757615495405415, "labeledLatLngs": [{"label": "display", "lat": 51.572351409071885, "lng": -0.19757615495405415}], "distance": 327, "postalCode": "NW11 8EL", "cc": "GB", "city": "Barnet", "state": "Greater London", "country": "United Kingdom", "formattedAddress": ["45 Golders Green Road", "Barnet", "Greater London", "NW11 8EL", "United Kingdom"]}, "categories": [{"id": "4bf58dd8d48988d10f951735", "name": "Pharmacy", "pluralName": "Pharmacies", "shortName": "Pharmacy", "icon": {"prefix": "https://ss3.4sqi.net/img/categories_v2/shops/pharmacy_", "suffix": ".png"}, "primary": true}], "photos": {"count": 0, "groups": []}}, "referralId": "e-0-4ec2e2366c25adc5b2df5536-15"}, {"reasons": {"count": 0, "items": [{"summary": "This spot is popular", "type": "general", "reasonName": "globalInteractionReason"}]}, "venue": {"id": "5732a290498eb0e360cb7ac4", "name": "mehri swing", "location": {"address": "Golders Green Crescent", "lat": 51.5727602, "lng": -0.19635700000003453, "labeledLatLngs": [{"label": "display", "lat": 51.5727602, "lng": -0.19635700000003453}], "distance": 347, "postalCode": "NW11 8LE", "cc": "GB", "city": "London", "state": "Greater London", "country": "United Kingdom", "formattedAddress": ["Golders Green Crescent", "London", "Greater London", "NW11 8LE", "United Kingdom"]}, "categories": [{"id": "4bf58dd8d48988d103951735", "name": "Clothing Store", "pluralName": "Clothing Stores", "shortName": "Apparel", "icon": {"prefix": "https://ss3.4sqi.net/img/categories_v2/shops/apparel_", "suffix": ".png"}, "primary": true}], "photos": {"count": 0, "groups": []}, "venuePage": {"id": "187852101"}}, "referralId": "e-0-5732a290498eb0e360cb7ac4-16"}, {"reasons": {"count": 0, "items": [{"summary": "This spot is popular", "type": "general", "reasonName": "globalInteractionReason"}]}, "venue": {"id": "58c239f7fda3d80f59226a2d", "name": "Robert Benson", "location": {"address": "26 Golders Green Crescent", "lat": 51.5727737, "lng": -0.19648289999997814, "labeledLatLngs": [{"label": "display", "lat": 51.5727737, "lng": -0.19648289999997814}], "distance": 350, "postalCode": "NW11 8LE", "cc": "GB", "city": "London", "state": "Greater London", "country": "United Kingdom", "formattedAddress": ["26 Golders Green Crescent", "London", "Greater London", "NW11 8LE", "United Kingdom"]}, "categories": [{"id": "4bf58dd8d48988d10f951735", "name": "Pharmacy", "pluralName": "Pharmacies", "shortName": "Pharmacy", "icon": {"prefix": "https://ss3.4sqi.net/img/categories_v2/shops/pharmacy_", "suffix": ".png"}, "primary": true}], "photos": {"count": 0, "groups": []}, "venuePage": {"id": "408453743"}}, "referralId": "e-0-58c239f7fda3d80f59226a2d-17"}, {"reasons": {"count": 0, "items": [{"summary": "This spot is popular", "type": "general", "reasonName": "globalInteractionReason"}]}, "venue": {"id": "4e8d7b302c5b1c1d211023ec", "name": "Banham Group", "location": {"address": "51 Golders Green Road", "lat": 51.572482, "lng": -0.198076, "labeledLatLngs": [{"label": "display", "lat": 51.572482, "lng": -0.198076}], "distance": 355, "postalCode": "NW11 8EL", "cc": "GB", "city": "Golders Green", "state": "Greater London", "country": "United Kingdom", "formattedAddress": ["51 Golders Green Road", "Golders Green", "Greater London", "NW11 8EL", "United Kingdom"]}, "categories": [{"id": "52f2ab2ebcbc57f1066b8b1e", "name": "Locksmith", "pluralName": "Locksmiths", "shortName": "Locksmith", "icon": {"prefix": "https://ss3.4sqi.net/img/categories_v2/shops/default_", "suffix": ".png"}, "primary": true}], "photos": {"count": 0, "groups": []}}, "referralId": "e-0-4e8d7b302c5b1c1d211023ec-18"}, {"reasons": {"count": 0, "items": [{"summary": "This spot is popular", "type": "general", "reasonName": "globalInteractionReason"}]}, "venue": {"id": "59e5f7c50fe7a053f35bef82", "name": "Golden Stitch", "location": {"address": "62 Golders Green Rd", "lat": 51.5726989, "lng": -0.1985275, "labeledLatLngs": [{"label": "display", "lat": 51.5726989, "lng": -0.1985275}], "distance": 391, "postalCode": "NW11 8LN", "cc": "GB", "city": "London", "state": "Greater London", "country": "United Kingdom", "formattedAddress": ["62 Golders Green Rd", "London", "Greater London", "NW11 8LN", "United Kingdom"]}, "categories": [{"id": "5032781d91d4c4b30a586d5b", "name": "Tailor Shop", "pluralName": "Tailor Shops", "shortName": "Tailor", "icon": {"prefix": "https://ss3.4sqi.net/img/categories_v2/shops/apparel_", "suffix": ".png"}, "primary": true}], "photos": {"count": 0, "groups": []}, "venuePage": {"id": "463717248"}}, "referralId": "e-0-59e5f7c50fe7a053f35bef82-19"}]}]}}