{"meta": {"code": 200, "requestId": "5feddc2b6ef73c60c6473ef2"}, "response": {"headerLocation": "Islington", "headerFullLocation": "Islington, London", "headerLocationGranularity": "neighborhood", "query": "travel", "totalResults": 11, "suggestedBounds": {"ne": {"lat": 51.527210003600004, "lng": -0.08991480288081087}, "sw": {"lat": 51.52000999639999, "lng": -0.10146519711918912}}, "groups": [{"type": "Recommended Places", "name": "recommended", "items": [{"reasons": {"count": 0, "items": [{"summary": "This spot is popular", "type": "general", "reasonName": "globalInteractionReason"}]}, "venue": {"id": "4f802a75108191d6c19e8d0f", "name": "London City Suites", "location": {"address": "42-46 Chiswell St.", "lat": 51.52096894506349, "lng": -0.09188858476550633, "labeledLatLngs": [{"label": "display", "lat": 51.52096894506349, "lng": -0.09188858476550633}], "distance": 394, "postalCode": "EC1Y 4SD", "cc": "GB", "city": "London", "state": "Greater London", "country": "United Kingdom", "formattedAddress": ["42-46 Chiswell St.", "London", "Greater London", "EC1Y 4SD", "United Kingdom"]}, "categories": [{"id": "4bf58dd8d48988d1fa931735", "name": "Hotel", "pluralName": "Hotels", "shortName": "Hotel", "icon": {"prefix": "https://ss3.4sqi.net/img/categories_v2/travel/hotel_", "suffix": ".png"}, "primary": true}], "photos": {"count": 0, "groups": []}}, "referralId": "e-0-4f802a75108191d6c19e8d0f-0"}, {"reasons": {"count": 0, "items": [{"summary": "This spot is popular", "type": "general", "reasonName": "globalInteractionReason"}]}, "venue": {"id": "4b799d36f964a520a8052fe3", "name": "Citadines Barbican", "location": {"address": "7-21 Goswell Rd.", "lat": 51.52200952991183, "lng": -0.09758043144033272, "labeledLatLngs": [{"label": "display", "lat": 51.52200952991183, "lng": -0.09758043144033272}], "distance": 221, "postalCode": "EC1M 7AH", "cc": "GB", "city": "London", "state": "Greater London", "country": "United Kingdom", "formattedAddress": ["7-21 Goswell Rd.", "London", "Greater London", "EC1M 7AH", "United Kingdom"]}, "categories": [{"id": "4bf58dd8d48988d1fa931735", "name": "Hotel", "pluralName": "Hotels", "shortName": "Hotel", "icon": {"prefix": "https://ss3.4sqi.net/img/categories_v2/travel/hotel_", "suffix": ".png"}, "primary": true}], "photos": {"count": 0, "groups": []}}, "referralId": "e-0-4b799d36f964a520a8052fe3-1"}, {"reasons": {"count": 0, "items": [{"summary": "This spot is popular", "type": "general", "reasonName": "globalInteractionReason"}]}, "venue": {"id": "4dc9853cd4c0abe9b631f21b", "name": "Baltic Street West Bus Stop BP", "location": {"lat": 51.522132, "lng": -0.097763, "labeledLatLngs": [{"label": "display", "lat": 51.522132, "lng": -0.097763}], "distance": 218, "cc": "GB", "neighborhood": "Islington", "city": "Islington", "state": "Greater London", "country": "United Kingdom", "formattedAddress": ["Islington", "Greater London", "United Kingdom"]}, "categories": [{"id": "52f2ab2ebcbc57f1066b8b4f", "name": "Bus Stop", "pluralName": "Bus Stops", "shortName": "Bus Stop", "icon": {"prefix": "https://ss3.4sqi.net/img/categories_v2/travel/busstation_", "suffix": ".png"}, "primary": true}], "photos": {"count": 0, "groups": []}}, "referralId": "e-0-4dc9853cd4c0abe9b631f21b-2"}, {"reasons": {"count": 0, "items": [{"summary": "This spot is popular", "type": "general", "reasonName": "globalInteractionReason"}]}, "venue": {"id": "4d41e532aed776eb6a626897", "name": "Waytostay", "location": {"address": "Glasshouse Yard, Islington", "lat": 51.5217, "lng": -0.0976, "labeledLatLngs": [{"label": "display", "lat": 51.5217, "lng": -0.0976}], "distance": 250, "postalCode": "EC1A 4JN", "cc": "GB", "city": "London", "state": "Greater London", "country": "United Kingdom", "formattedAddress": ["Glasshouse Yard, Islington", "London", "Greater London", "EC1A 4JN", "United Kingdom"]}, "categories": [{"id": "4bf58dd8d48988d1fa931735", "name": "Hotel", "pluralName": "Hotels", "shortName": "Hotel", "icon": {"prefix": "https://ss3.4sqi.net/img/categories_v2/travel/hotel_", "suffix": ".png"}, "primary": true}], "photos": {"count": 0, "groups": []}}, "referralId": "e-0-4d41e532aed776eb6a626897-3"}, {"reasons": {"count": 0, "items": [{"summary": "This spot is popular", "type": "general", "reasonName": "globalInteractionReason"}]}, "venue": {"id": "4d07cee2b26ea143a9e4c3e7", "name": "TfL Santander Cycle Hire", "location": {"address": "Golden Ln", "lat": 51.52139270147069, "lng": -0.09433721602122123, "labeledLatLngs": [{"label": "display", "lat": 51.52139270147069, "lng": -0.09433721602122123}], "distance": 264, "postalCode": "EC1Y 0SH", "cc": "GB", "city": "Barbican", "state": "Greater London", "country": "United Kingdom", "formattedAddress": ["Golden Ln", "Barbican", "Greater London", "EC1Y 0SH", "United Kingdom"]}, "categories": [{"id": "4e4c9077bd41f78e849722f9", "name": "Bike Rental / Bike Share", "pluralName": "Bike Rentals / Bike Shares", "shortName": "Bike", "icon": {"prefix": "https://ss3.4sqi.net/img/categories_v2/shops/bikeshop_", "suffix": ".png"}, "primary": true}], "photos": {"count": 0, "groups": []}}, "referralId": "e-0-4d07cee2b26ea143a9e4c3e7-4"}, {"reasons": {"count": 0, "items": [{"summary": "This spot is popular", "type": "general", "reasonName": "globalInteractionReason"}]}, "venue": {"id": "4edbc7794901c8be1f38168d", "name": "Bus Stop BS", "location": {"address": "Goswell Road", "lat": 51.523044, "lng": -0.099553, "labeledLatLngs": [{"label": "display", "lat": 51.523044, "lng": -0.099553}], "distance": 274, "cc": "GB", "country": "United Kingdom", "formattedAddress": ["Goswell Road", "United Kingdom"]}, "categories": [{"id": "52f2ab2ebcbc57f1066b8b4f", "name": "Bus Stop", "pluralName": "Bus Stops", "shortName": "Bus Stop", "icon": {"prefix": "https://ss3.4sqi.net/img/categories_v2/travel/busstation_", "suffix": ".png"}, "primary": true}], "photos": {"count": 0, "groups": []}}, "referralId": "e-0-4edbc7794901c8be1f38168d-5"}, {"reasons": {"count": 0, "items": [{"summary": "This spot is popular", "type": "general", "reasonName": "globalInteractionReason"}]}, "venue": {"id": "4c517be39426c928dd92d473", "name": "TfL Santander Cycle Hire", "location": {"address": "Clerkenwell Rd", "crossStreet": "Berry St", "lat": 51.52290673442981, "lng": -0.09993910789489746, "labeledLatLngs": [{"label": "display", "lat": 51.52290673442981, "lng": -0.09993910789489746}], "distance": 304, "postalCode": "EC1V 0AA", "cc": "GB", "city": "Clerkenwell", "state": "Greater London", "country": "United Kingdom", "formattedAddress": ["Clerkenwell Rd (Berry St)", "Clerkenwell", "Greater London", "EC1V 0AA", "United Kingdom"]}, "categories": [{"id": "4e4c9077bd41f78e849722f9", "name": "Bike Rental / Bike Share", "pluralName": "Bike Rentals / Bike Shares", "shortName": "Bike", "icon": {"prefix": "https://ss3.4sqi.net/img/categories_v2/shops/bikeshop_", "suffix": ".png"}, "primary": true}], "photos": {"count": 0, "groups": []}}, "referralId": "e-0-4c517be39426c928dd92d473-6"}, {"reasons": {"count": 0, "items": [{"summary": "This spot is popular", "type": "general", "reasonName": "globalInteractionReason"}]}, "venue": {"id": "4f1e8bf3e4b06f7f31dd9202", "name": "TfL Santander Cycle Hire", "location": {"address": "Aldersgate St", "lat": 51.520863135132366, "lng": -0.09745039826045504, "labeledLatLngs": [{"label": "display", "lat": 51.520863135132366, "lng": -0.09745039826045504}], "distance": 329, "postalCode": "EC1A 4JP", "cc": "GB", "city": "Barbican", "state": "Greater London", "country": "United Kingdom", "formattedAddress": ["Aldersgate St", "Barbican", "Greater London", "EC1A 4JP", "United Kingdom"]}, "categories": [{"id": "4e4c9077bd41f78e849722f9", "name": "Bike Rental / Bike Share", "pluralName": "Bike Rentals / Bike Shares", "shortName": "Bike", "icon": {"prefix": "https://ss3.4sqi.net/img/categories_v2/shops/bikeshop_", "suffix": ".png"}, "primary": true}], "photos": {"count": 0, "groups": []}}, "referralId": "e-0-4f1e8bf3e4b06f7f31dd9202-7"}, {"reasons": {"count": 0, "items": [{"summary": "This spot is popular", "type": "general", "reasonName": "globalInteractionReason"}]}, "venue": {"id": "4c0d39c8d64c0f472c64265d", "name": "Beech Street Tunnel", "location": {"address": "Beech St", "lat": 51.52059976803523, "lng": -0.09483577193600468, "labeledLatLngs": [{"label": "display", "lat": 51.52059976803523, "lng": -0.09483577193600468}], "distance": 340, "cc": "GB", "city": "Barbican", "state": "Greater London", "country": "United Kingdom", "formattedAddress": ["Beech St", "Barbican", "Greater London", "United Kingdom"]}, "categories": [{"id": "52f2ab2ebcbc57f1066b8b4a", "name": "Tunnel", "pluralName": "Tunnels", "shortName": "Tunnel", "icon": {"prefix": "https://ss3.4sqi.net/img/categories_v2/travel/default_", "suffix": ".png"}, "primary": true}], "photos": {"count": 0, "groups": []}}, "referralId": "e-0-4c0d39c8d64c0f472c64265d-8"}, {"reasons": {"count": 0, "items": [{"summary": "This spot is popular", "type": "general", "reasonName": "globalInteractionReason"}]}, "venue": {"id": "4d32d2cfb6093704263bfbdf", "name": "Barbican Station Bus Stop BA", "location": {"lat": 51.52028312094085, "lng": -0.09735691319153277, "labeledLatLngs": [{"label": "display", "lat": 51.52028312094085, "lng": -0.09735691319153277}], "distance": 387, "cc": "GB", "neighborhood": "City of London", "country": "United Kingdom", "formattedAddress": ["United Kingdom"]}, "categories": [{"id": "52f2ab2ebcbc57f1066b8b4f", "name": "Bus Stop", "pluralName": "Bus Stops", "shortName": "Bus Stop", "icon": {"prefix": "https://ss3.4sqi.net/img/categories_v2/travel/busstation_", "suffix": ".png"}, "primary": true}], "photos": {"count": 0, "groups": []}}, "referralId": "e-0-4d32d2cfb6093704263bfbdf-9"}, {"reasons": {"count": 0, "items": [{"summary": "This spot is popular", "type": "general", "reasonName": "globalInteractionReason"}]}, "venue": {"id": "4fe26588e4b07b4ba7de4c8b", "name": "easyHotel London Old Street", "location": {"address": "80 Old St", "lat": 51.524242923079136, "lng": -0.09473526831951888, "labeledLatLngs": [{"label": "display", "lat": 51.524242923079136, "lng": -0.09473526831951888}], "distance": 96, "postalCode": "EC1V 9AZ", "cc": "GB", "city": "London", "state": "Greater London", "country": "United Kingdom", "formattedAddress": ["80 Old St", "London", "Greater London", "EC1V 9AZ", "United Kingdom"]}, "categories": [{"id": "4bf58dd8d48988d1fa931735", "name": "Hotel", "pluralName": "Hotels", "shortName": "Hotel", "icon": {"prefix": "https://ss3.4sqi.net/img/categories_v2/travel/hotel_", "suffix": ".png"}, "primary": true}], "photos": {"count": 0, "groups": []}}, "referralId": "e-0-4fe26588e4b07b4ba7de4c8b-10"}]}]}}