{"meta": {"code": 200, "requestId": "5feddc9091aecb7c6e1e55b3"}, "response": {"warning": {"text": "There aren't a lot of results near you. Try something more general, reset your filters, or expand the search area."}, "headerLocation": "Royal Docks", "headerFullLocation": "Royal Docks, London", "headerLocationGranularity": "neighborhood", "query": "travel", "totalResults": 3, "suggestedBounds": {"ne": {"lat": 51.503786003600005, "lng": 0.03178222836983223}, "sw": {"lat": 51.49658599639999, "lng": 0.020237771630167767}}, "groups": [{"type": "Recommended Places", "name": "recommended", "items": [{"reasons": {"count": 0, "items": [{"summary": "This spot is popular", "type": "general", "reasonName": "globalInteractionReason"}]}, "venue": {"id": "5db4181c3a8ef10008e035f1", "name": "Royal Wharf Pier", "location": {"address": "Royal wharf", "lat": 51.497408, "lng": 0.025022, "labeledLatLngs": [{"label": "display", "lat": 51.497408, "lng": 0.025022}], "distance": 316, "postalCode": "SE7", "cc": "GB", "city": "London", "state": "Greater London", "country": "United Kingdom", "formattedAddress": ["Royal wharf", "London", "Greater London", "SE7", "United Kingdom"]}, "categories": [{"id": "4e74f6cabd41c4836eac4c31", "name": "Pier", "pluralName": "Piers", "shortName": "Piers", "icon": {"prefix": "https://ss3.4sqi.net/img/categories_v2/travel/ferry_pier_", "suffix": ".png"}, "primary": true}], "photos": {"count": 0, "groups": []}}, "referralId": "e-0-5db4181c3a8ef10008e035f1-0"}, {"reasons": {"count": 0, "items": [{"summary": "This spot is popular", "type": "general", "reasonName": "globalInteractionReason"}]}, "venue": {"id": "563dedb4cd10d22145ce57c1", "name": "Platform 1", "location": {"address": "West Silvertown DLR", "lat": 51.50272014200392, "lng": 0.023171966363423602, "labeledLatLngs": [{"label": "display", "lat": 51.50272014200392, "lng": 0.023171966363423602}], "distance": 343, "cc": "GB", "city": "Silvertown", "state": "Greater London", "country": "United Kingdom", "formattedAddress": ["West Silvertown DLR", "Silvertown", "Greater London", "United Kingdom"]}, "categories": [{"id": "4f4531504b9074f6e4fb0102", "name": "Platform", "pluralName": "Platforms", "shortName": "Platform", "icon": {"prefix": "https://ss3.4sqi.net/img/categories_v2/travel/trainstation_", "suffix": ".png"}, "primary": true}], "photos": {"count": 0, "groups": []}}, "referralId": "e-0-563dedb4cd10d22145ce57c1-1"}, {"reasons": {"count": 0, "items": [{"summary": "This spot is popular", "type": "general", "reasonName": "globalInteractionReason"}]}, "venue": {"id": "5cfb78a097e16900251298e6", "name": "Platform 2", "location": {"address": "West Silvertown Station", "lat": 51.502712, "lng": 0.022752509, "labeledLatLngs": [{"label": "display", "lat": 51.502712, "lng": 0.022752509}], "distance": 360, "cc": "GB", "country": "United Kingdom", "formattedAddress": ["West Silvertown Station", "United Kingdom"]}, "categories": [{"id": "4f4531504b9074f6e4fb0102", "name": "Platform", "pluralName": "Platforms", "shortName": "Platform", "icon": {"prefix": "https://ss3.4sqi.net/img/categories_v2/travel/trainstation_", "suffix": ".png"}, "primary": true}], "photos": {"count": 0, "groups": []}}, "referralId": "e-0-5cfb78a097e16900251298e6-2"}]}]}}