{"meta": {"code": 200, "requestId": "5feddbcc20e8e966758936c2"}, "response": {"suggestedFilters": {"header": "Tap to show:", "filters": [{"name": "Open now", "key": "openNow"}]}, "headerLocation": "Islington", "headerFullLocation": "Islington, London", "headerLocationGranularity": "neighborhood", "query": "food", "totalResults": 33, "suggestedBounds": {"ne": {"lat": 51.525600003600005, "lng": -0.07960500706025912}, "sw": {"lat": 51.51839999639999, "lng": -0.09115499293974087}}, "groups": [{"type": "Recommended Places", "name": "recommended", "items": [{"reasons": {"count": 0, "items": [{"summary": "This spot is popular", "type": "general", "reasonName": "globalInteractionReason"}]}, "venue": {"id": "53bbdefe498e97b80789e930", "name": "Banh-Mi & Son", "location": {"address": "40 Clifton St", "lat": 51.521577215556746, "lng": -0.08345952650700401, "labeledLatLngs": [{"label": "display", "lat": 51.521577215556746, "lng": -0.08345952650700401}], "distance": 141, "cc": "GB", "country": "United Kingdom", "formattedAddress": ["40 Clifton St", "United Kingdom"]}, "categories": [{"id": "4bf58dd8d48988d1cb941735", "name": "Food Truck", "pluralName": "Food Trucks", "shortName": "Food Truck", "icon": {"prefix": "https://ss3.4sqi.net/img/categories_v2/food/streetfood_", "suffix": ".png"}, "primary": true}], "photos": {"count": 0, "groups": []}}, "referralId": "e-0-53bbdefe498e97b80789e930-0"}, {"reasons": {"count": 0, "items": [{"summary": "This spot is popular", "type": "general", "reasonName": "globalInteractionReason"}]}, "venue": {"id": "53ac0026498ee596ef17218b", "name": "The Backstreet Diner", "location": {"address": "Clifton St", "crossStreet": "Dysart St", "lat": 51.52161318437401, "lng": -0.08341372317798512, "labeledLatLngs": [{"label": "display", "lat": 51.52161318437401, "lng": -0.08341372317798512}], "distance": 142, "postalCode": "EC2A 4EX", "cc": "GB", "country": "United Kingdom", "formattedAddress": ["Clifton St (Dysart St)", "EC2A 4EX", "United Kingdom"]}, "categories": [{"id": "4bf58dd8d48988d1cb941735", "name": "Food Truck", "pluralName": "Food Trucks", "shortName": "Food Truck", "icon": {"prefix": "https://ss3.4sqi.net/img/categories_v2/food/streetfood_", "suffix": ".png"}, "primary": true}], "photos": {"count": 0, "groups": []}}, "referralId": "e-0-53ac0026498ee596ef17218b-1"}, {"reasons": {"count": 0, "items": [{"summary": "This spot is popular", "type": "general", "reasonName": "globalInteractionReason"}]}, "venue": {"id": "5e4547254f10a40008fb2240", "name": "Padella", "location": {"address": "1 Phipp St", "lat": 51.523371670204625, "lng": -0.0816759467124939, "labeledLatLngs": [{"label": "display", "lat": 51.523371670204625, "lng": -0.0816759467124939}], "distance": 298, "postalCode": "EC2A 4PS", "cc": "GB", "city": "Shoreditch", "state": "Greater London", "country": "United Kingdom", "formattedAddress": ["1 Phipp St", "Shoreditch", "Greater London", "EC2A 4PS", "United Kingdom"]}, "categories": [{"id": "4bf58dd8d48988d110941735", "name": "Italian Restaurant", "pluralName": "Italian Restaurants", "shortName": "Italian", "icon": {"prefix": "https://ss3.4sqi.net/img/categories_v2/food/italian_", "suffix": ".png"}, "primary": true}], "photos": {"count": 0, "groups": []}}, "referralId": "e-0-5e4547254f10a40008fb2240-2"}, {"reasons": {"count": 0, "items": [{"summary": "This spot is popular", "type": "general", "reasonName": "globalInteractionReason"}]}, "venue": {"id": "5840778e18384c5356681695", "name": "Aviary", "location": {"address": "22-25 Finsbury Sq", "crossStreet": "The Montcalm Royal", "lat": 51.52179539298163, "lng": -0.08559013006519264, "labeledLatLngs": [{"label": "display", "lat": 51.52179539298163, "lng": -0.08559013006519264}], "distance": 27, "postalCode": "EC2A 1DX", "cc": "GB", "city": "London", "state": "Greater London", "country": "United Kingdom", "formattedAddress": ["22-25 Finsbury Sq (The Montcalm Royal)", "London", "Greater London", "EC2A 1DX", "United Kingdom"]}, "categories": [{"id": "52e81612bcbc57f1066b7a05", "name": "English Restaurant", "pluralName": "English Restaurants", "shortName": "English", "icon": {"prefix": "https://ss3.4sqi.net/img/categories_v2/food/default_", "suffix": ".png"}, "primary": true}], "photos": {"count": 0, "groups": []}}, "referralId": "e-0-5840778e18384c5356681695-3"}, {"reasons": {"count": 0, "items": [{"summary": "This spot is popular", "type": "general", "reasonName": "globalInteractionReason"}]}, "venue": {"id": "59e1ffe1dd70c5577e27507f", "name": "Dumpling Shack", "location": {"address": "Old Spitalfields Market", "crossStreet": "The Kitchen", "lat": 51.5223695110415, "lng": -0.08104009042166695, "labeledLatLngs": [{"label": "display", "lat": 51.5223695110415, "lng": -0.08104009042166695}], "distance": 303, "postalCode": "E1 6EW", "cc": "GB", "city": "London", "state": "Greater London", "country": "United Kingdom", "formattedAddress": ["Old Spitalfields Market (The Kitchen)", "London", "Greater London", "E1 6EW", "United Kingdom"]}, "categories": [{"id": "4bf58dd8d48988d1cb941735", "name": "Food Truck", "pluralName": "Food Trucks", "shortName": "Food Truck", "icon": {"prefix": "https://ss3.4sqi.net/img/categories_v2/food/streetfood_", "suffix": ".png"}, "primary": true}], "photos": {"count": 0, "groups": []}}, "referralId": "e-0-59e1ffe1dd70c5577e27507f-4"}, {"reasons": {"count": 0, "items": [{"summary": "This spot is popular", "type": "general", "reasonName": "globalInteractionReason"}]}, "venue": {"id": "4bbb37f87421a593408ac440", "name": "Riccardo's", "location": {"address": "9 Paul St", "crossStreet": "Bonhill Street", "lat": 51.52255890972233, "lng": -0.08450359380734898, "labeledLatLngs": [{"label": "display", "lat": 51.52255890972233, "lng": -0.08450359380734898}], "distance": 86, "postalCode": "EC2A 4JJ", "cc": "GB", "city": "London", "state": "Greater London", "country": "United Kingdom", "formattedAddress": ["9 Paul St (Bonhill Street)", "London", "Greater London", "EC2A 4JJ", "United Kingdom"]}, "categories": [{"id": "4bf58dd8d48988d16d941735", "name": "Caf\u00e9", "pluralName": "Caf\u00e9s", "shortName": "Caf\u00e9", "icon": {"prefix": "https://ss3.4sqi.net/img/categories_v2/food/cafe_", "suffix": ".png"}, "primary": true}], "photos": {"count": 0, "groups": []}}, "referralId": "e-0-4bbb37f87421a593408ac440-5"}, {"reasons": {"count": 0, "items": [{"summary": "This spot is popular", "type": "general", "reasonName": "globalInteractionReason"}]}, "venue": {"id": "4f7ddc0fe4b062316b24a77b", "name": "Lantana Cafe", "location": {"address": "2, Oliver\u2019s Yard, 55 City Rd", "lat": 51.52432692929157, "lng": -0.08739218218527553, "labeledLatLngs": [{"label": "display", "lat": 51.52432692929157, "lng": -0.08739218218527553}], "distance": 294, "postalCode": "EC1Y 1HQ", "cc": "GB", "neighborhood": "Shoreditch, London, Greater London", "city": "London", "state": "Greater London", "country": "United Kingdom", "formattedAddress": ["2, Oliver\u2019s Yard, 55 City Rd", "London", "Greater London", "EC1Y 1HQ", "United Kingdom"]}, "categories": [{"id": "4bf58dd8d48988d16d941735", "name": "Caf\u00e9", "pluralName": "Caf\u00e9s", "shortName": "Caf\u00e9", "icon": {"prefix": "https://ss3.4sqi.net/img/categories_v2/food/cafe_", "suffix": ".png"}, "primary": true}], "photos": {"count": 0, "groups": []}}, "referralId": "e-0-4f7ddc0fe4b062316b24a77b-6"}, {"reasons": {"count": 0, "items": [{"summary": "This spot is popular", "type": "general", "reasonName": "globalInteractionReason"}]}, "venue": {"id": "55537b80498eca9bfce36370", "name": "Yauatcha", "location": {"address": "Broadgate Circle", "lat": 51.51882820696518, "lng": -0.08349768631963068, "labeledLatLngs": [{"label": "display", "lat": 51.51882820696518, "lng": -0.08349768631963068}], "distance": 376, "postalCode": "EC2M 2QS", "cc": "GB", "neighborhood": "Bishopsgate", "city": "London", "state": "Greater London", "country": "United Kingdom", "formattedAddress": ["Broadgate Circle", "London", "Greater London", "EC2M 2QS", "United Kingdom"]}, "categories": [{"id": "4bf58dd8d48988d145941735", "name": "Chinese Restaurant", "pluralName": "Chinese Restaurants", "shortName": "Chinese", "icon": {"prefix": "https://ss3.4sqi.net/img/categories_v2/food/asian_", "suffix": ".png"}, "primary": true}], "photos": {"count": 0, "groups": []}}, "referralId": "e-0-55537b80498eca9bfce36370-7"}, {"reasons": {"count": 0, "items": [{"summary": "This spot is popular", "type": "general", "reasonName": "globalInteractionReason"}]}, "venue": {"id": "5ab43df0f5e9d758514a0f06", "name": "Leroy", "location": {"address": "18 Phipp St", "lat": 51.52404359679944, "lng": -0.08164577815337824, "labeledLatLngs": [{"label": "display", "lat": 51.52404359679944, "lng": -0.08164577815337824}], "distance": 344, "postalCode": "EC2A 4NU", "cc": "GB", "city": "Shoreditch", "state": "Greater London", "country": "United Kingdom", "formattedAddress": ["18 Phipp St", "Shoreditch", "Greater London", "EC2A 4NU", "United Kingdom"]}, "categories": [{"id": "4bf58dd8d48988d1c4941735", "name": "Restaurant", "pluralName": "Restaurants", "shortName": "Restaurant", "icon": {"prefix": "https://ss3.4sqi.net/img/categories_v2/food/default_", "suffix": ".png"}, "primary": true}], "photos": {"count": 0, "groups": []}}, "referralId": "e-0-5ab43df0f5e9d758514a0f06-8"}, {"reasons": {"count": 0, "items": [{"summary": "This spot is popular", "type": "general", "reasonName": "globalInteractionReason"}]}, "venue": {"id": "5698f64c498e6a3be418ab85", "name": "The Sichuan", "location": {"address": "14 City Rd", "lat": 51.522159812186, "lng": -0.08702817994493915, "labeledLatLngs": [{"label": "display", "lat": 51.522159812186, "lng": -0.08702817994493915}], "distance": 115, "postalCode": "EC1Y 2AA", "cc": "GB", "neighborhood": "Islington", "city": "London", "state": "Greater London", "country": "United Kingdom", "formattedAddress": ["14 City Rd", "London", "Greater London", "EC1Y 2AA", "United Kingdom"]}, "categories": [{"id": "52af3b773cf9994f4e043c03", "name": "Szechuan Restaurant", "pluralName": "Szechuan Restaurants", "shortName": "Szechuan", "icon": {"prefix": "https://ss3.4sqi.net/img/categories_v2/food/asian_", "suffix": ".png"}, "primary": true}], "photos": {"count": 0, "groups": []}}, "referralId": "e-0-5698f64c498e6a3be418ab85-9"}, {"reasons": {"count": 0, "items": [{"summary": "This spot is popular", "type": "general", "reasonName": "globalInteractionReason"}]}, "venue": {"id": "552fee6c498e17137c118b88", "name": "Franco Manca", "location": {"address": "Unit T2, Broadgate Circle", "lat": 51.51877998751915, "lng": -0.08344802055426549, "labeledLatLngs": [{"label": "display", "lat": 51.51877998751915, "lng": -0.08344802055426549}], "distance": 382, "postalCode": "EC2M 2QS", "cc": "GB", "neighborhood": "Bishopsgate, London, Greater London", "city": "Bishopsgate", "state": "Greater London", "country": "United Kingdom", "formattedAddress": ["Unit T2, Broadgate Circle", "Bishopsgate", "Greater London", "EC2M 2QS", "United Kingdom"]}, "categories": [{"id": "4bf58dd8d48988d1ca941735", "name": "Pizza Place", "pluralName": "Pizza Places", "shortName": "Pizza", "icon": {"prefix": "https://ss3.4sqi.net/img/categories_v2/food/pizza_", "suffix": ".png"}, "primary": true}], "photos": {"count": 0, "groups": []}}, "referralId": "e-0-552fee6c498e17137c118b88-10"}, {"reasons": {"count": 0, "items": [{"summary": "This spot is popular", "type": "general", "reasonName": "globalInteractionReason"}]}, "venue": {"id": "5729f951498e677fbce4d17b", "name": "Karims Stoop Zeyoona", "location": {"address": "77 Paul St", "crossStreet": "Leonard St", "lat": 51.52472577186193, "lng": -0.08414089679718018, "labeledLatLngs": [{"label": "display", "lat": 51.52472577186193, "lng": -0.08414089679718018}], "distance": 315, "postalCode": "EC2A 4PN", "cc": "GB", "neighborhood": "Hackney", "city": "London", "state": "Greater London", "country": "United Kingdom", "formattedAddress": ["77 Paul St (Leonard St)", "London", "Greater London", "EC2A 4PN", "United Kingdom"]}, "categories": [{"id": "56aa371be4b08b9a8d57350b", "name": "Food Stand", "pluralName": "Food Stands", "shortName": "Food Stand", "icon": {"prefix": "https://ss3.4sqi.net/img/categories_v2/travel/movingtarget_", "suffix": ".png"}, "primary": true}], "photos": {"count": 0, "groups": []}}, "referralId": "e-0-5729f951498e677fbce4d17b-11"}, {"reasons": {"count": 0, "items": [{"summary": "This spot is popular", "type": "general", "reasonName": "globalInteractionReason"}]}, "venue": {"id": "5647a906498ea0ff8a76180f", "name": "Oklava", "location": {"address": "74 Luke St", "lat": 51.524132380271276, "lng": -0.08149213291266207, "labeledLatLngs": [{"label": "display", "lat": 51.524132380271276, "lng": -0.08149213291266207}], "distance": 358, "postalCode": "EC2A 4PY", "cc": "GB", "city": "Shoreditch", "state": "Greater London", "country": "United Kingdom", "formattedAddress": ["74 Luke St", "Shoreditch", "Greater London", "EC2A 4PY", "United Kingdom"]}, "categories": [{"id": "4f04af1f2fb6e1c99f3db0bb", "name": "Turkish Restaurant", "pluralName": "Turkish Restaurants", "shortName": "Turkish", "icon": {"prefix": "https://ss3.4sqi.net/img/categories_v2/food/turkish_", "suffix": ".png"}, "primary": true}], "photos": {"count": 0, "groups": []}}, "referralId": "e-0-5647a906498ea0ff8a76180f-12"}, {"reasons": {"count": 0, "items": [{"summary": "This spot is popular", "type": "general", "reasonName": "globalInteractionReason"}]}, "venue": {"id": "4ad0adf5f964a5200bd920e3", "name": "The Princess of Shoreditch", "location": {"address": "76 Paul St", "lat": 51.5253930243815, "lng": -0.08389457472327243, "labeledLatLngs": [{"label": "display", "lat": 51.5253930243815, "lng": -0.08389457472327243}], "distance": 391, "postalCode": "EC2A 4NE", "cc": "GB", "city": "London", "state": "Greater London", "country": "United Kingdom", "formattedAddress": ["76 Paul St", "London", "Greater London", "EC2A 4NE", "United Kingdom"]}, "categories": [{"id": "4bf58dd8d48988d155941735", "name": "Gastropub", "pluralName": "Gastropubs", "shortName": "Gastropub", "icon": {"prefix": "https://ss3.4sqi.net/img/categories_v2/food/gastropub_", "suffix": ".png"}, "primary": true}], "photos": {"count": 0, "groups": []}}, "referralId": "e-0-4ad0adf5f964a5200bd920e3-13"}, {"reasons": {"count": 0, "items": [{"summary": "This spot is popular", "type": "general", "reasonName": "globalInteractionReason"}]}, "venue": {"id": "59807212c0f1634fedb6cb80", "name": "Island Pok\u00e9", "location": {"address": "42 Broadgate Circle", "lat": 51.51877607239353, "lng": -0.0835295466952923, "labeledLatLngs": [{"label": "display", "lat": 51.51877607239353, "lng": -0.0835295466952923}], "distance": 381, "postalCode": "EC2M 2QS", "cc": "GB", "neighborhood": "Bishopsgate", "city": "London", "state": "Greater London", "country": "United Kingdom", "formattedAddress": ["42 Broadgate Circle", "London", "Greater London", "EC2M 2QS", "United Kingdom"]}, "categories": [{"id": "5bae9231bedf3950379f89d4", "name": "Poke Place", "pluralName": "Poke Places", "shortName": "Poke Place", "icon": {"prefix": "https://ss3.4sqi.net/img/categories_v2/food/default_", "suffix": ".png"}, "primary": true}], "photos": {"count": 0, "groups": []}}, "referralId": "e-0-59807212c0f1634fedb6cb80-14"}, {"reasons": {"count": 0, "items": [{"summary": "This spot is popular", "type": "general", "reasonName": "globalInteractionReason"}]}, "venue": {"id": "4bc9c461b6c49c747ee68e91", "name": "Pret A Manger", "location": {"address": "2/3 Whitecross Pl, 1 Finsbury Avenue", "lat": 51.519861379568475, "lng": -0.08487297480692127, "labeledLatLngs": [{"label": "display", "lat": 51.519861379568475, "lng": -0.08487297480692127}], "distance": 240, "postalCode": "EC2M 2PB", "cc": "GB", "city": "Whitecross Place, London", "country": "United Kingdom", "formattedAddress": ["2/3 Whitecross Pl, 1 Finsbury Avenue", "Whitecross Place, London", "EC2M 2PB", "United Kingdom"]}, "categories": [{"id": "4bf58dd8d48988d1c5941735", "name": "Sandwich Place", "pluralName": "Sandwich Places", "shortName": "Sandwiches", "icon": {"prefix": "https://ss3.4sqi.net/img/categories_v2/food/deli_", "suffix": ".png"}, "primary": true}], "photos": {"count": 0, "groups": []}}, "referralId": "e-0-4bc9c461b6c49c747ee68e91-15"}, {"reasons": {"count": 0, "items": [{"summary": "This spot is popular", "type": "general", "reasonName": "globalInteractionReason"}]}, "venue": {"id": "5452425a498e175ca17ab0e3", "name": "Persian Kebab", "location": {"lat": 51.524714935729435, "lng": -0.08215458228130076, "labeledLatLngs": [{"label": "display", "lat": 51.524714935729435, "lng": -0.08215458228130076}], "distance": 375, "cc": "GB", "city": "London", "state": "Greater London", "country": "United Kingdom", "formattedAddress": ["London", "Greater London", "United Kingdom"]}, "categories": [{"id": "4bf58dd8d48988d1cb941735", "name": "Food Truck", "pluralName": "Food Trucks", "shortName": "Food Truck", "icon": {"prefix": "https://ss3.4sqi.net/img/categories_v2/food/streetfood_", "suffix": ".png"}, "primary": true}], "photos": {"count": 0, "groups": []}}, "referralId": "e-0-5452425a498e175ca17ab0e3-16"}, {"reasons": {"count": 0, "items": [{"summary": "This spot is popular", "type": "general", "reasonName": "globalInteractionReason"}]}, "venue": {"id": "54c8e951498e51274c49062e", "name": "Beer & Buns", "location": {"address": "3 Appold St", "lat": 51.520460662511994, "lng": -0.08213501463345822, "labeledLatLngs": [{"label": "display", "lat": 51.520460662511994, "lng": -0.08213501463345822}], "distance": 282, "postalCode": "EC2A 2AF", "cc": "GB", "city": "London", "state": "Greater London", "country": "United Kingdom", "formattedAddress": ["3 Appold St", "London", "Greater London", "EC2A 2AF", "United Kingdom"]}, "categories": [{"id": "4bf58dd8d48988d111941735", "name": "Japanese Restaurant", "pluralName": "Japanese Restaurants", "shortName": "Japanese", "icon": {"prefix": "https://ss3.4sqi.net/img/categories_v2/food/japanese_", "suffix": ".png"}, "primary": true}], "photos": {"count": 0, "groups": []}}, "referralId": "e-0-54c8e951498e51274c49062e-17"}, {"reasons": {"count": 0, "items": [{"summary": "This spot is popular", "type": "general", "reasonName": "globalInteractionReason"}]}, "venue": {"id": "552e642f498e32a2343f162d", "name": "Shoryu Ramen", "location": {"address": "33 Broadgate Circle", "lat": 51.51878158401482, "lng": -0.08370369672775269, "labeledLatLngs": [{"label": "display", "lat": 51.51878158401482, "lng": -0.08370369672775269}], "distance": 376, "postalCode": "EC2M 2QS", "cc": "GB", "city": "London", "state": "Greater London", "country": "United Kingdom", "formattedAddress": ["33 Broadgate Circle", "London", "Greater London", "EC2M 2QS", "United Kingdom"]}, "categories": [{"id": "55a59bace4b013909087cb24", "name": "Ramen Restaurant", "pluralName": "Ramen Restaurants", "shortName": "Ramen", "icon": {"prefix": "https://ss3.4sqi.net/img/categories_v2/food/ramen_", "suffix": ".png"}, "primary": true}], "photos": {"count": 0, "groups": []}}, "referralId": "e-0-552e642f498e32a2343f162d-18"}, {"reasons": {"count": 0, "items": [{"summary": "This spot is popular", "type": "general", "reasonName": "globalInteractionReason"}]}, "venue": {"id": "554e6bb7498e71de5e1c123e", "name": "Jos\u00e9 Pizarro Broadgate", "location": {"address": "36 Broadgate Circle", "lat": 51.51881879943959, "lng": -0.08346429811699384, "labeledLatLngs": [{"label": "display", "lat": 51.51881879943959, "lng": -0.08346429811699384}], "distance": 378, "postalCode": "EC2M 1QS", "cc": "GB", "city": "London", "state": "Greater London", "country": "United Kingdom", "formattedAddress": ["36 Broadgate Circle", "London", "Greater London", "EC2M 1QS", "United Kingdom"]}, "categories": [{"id": "4bf58dd8d48988d150941735", "name": "Spanish Restaurant", "pluralName": "Spanish Restaurants", "shortName": "Spanish", "icon": {"prefix": "https://ss3.4sqi.net/img/categories_v2/food/spanish_", "suffix": ".png"}, "primary": true}], "photos": {"count": 0, "groups": []}}, "referralId": "e-0-554e6bb7498e71de5e1c123e-19"}, {"reasons": {"count": 0, "items": [{"summary": "This spot is popular", "type": "general", "reasonName": "globalInteractionReason"}]}, "venue": {"id": "5a0cb08767e5f2046ad3e8c0", "name": "Passo", "location": {"address": "80 City Rd", "lat": 51.52493191921503, "lng": -0.08771525803669257, "labeledLatLngs": [{"label": "display", "lat": 51.52493191921503, "lng": -0.08771525803669257}], "distance": 364, "postalCode": "EC1Y 2AS", "cc": "GB", "city": "London", "state": "Greater London", "country": "United Kingdom", "formattedAddress": ["80 City Rd", "London", "Greater London", "EC1Y 2AS", "United Kingdom"]}, "categories": [{"id": "4bf58dd8d48988d110941735", "name": "Italian Restaurant", "pluralName": "Italian Restaurants", "shortName": "Italian", "icon": {"prefix": "https://ss3.4sqi.net/img/categories_v2/food/italian_", "suffix": ".png"}, "primary": true}], "photos": {"count": 0, "groups": []}}, "referralId": "e-0-5a0cb08767e5f2046ad3e8c0-20"}, {"reasons": {"count": 0, "items": [{"summary": "This spot is popular", "type": "general", "reasonName": "globalInteractionReason"}]}, "venue": {"id": "4b58a4a8f964a5203e6328e3", "name": "Gaucho", "location": {"address": "5 Finsbury Ave", "lat": 51.51932812558569, "lng": -0.08416869136455682, "labeledLatLngs": [{"label": "display", "lat": 51.51932812558569, "lng": -0.08416869136455682}], "distance": 309, "postalCode": "EC2M 2PG", "cc": "GB", "city": "London", "state": "Greater London", "country": "United Kingdom", "formattedAddress": ["5 Finsbury Ave", "London", "Greater London", "EC2M 2PG", "United Kingdom"]}, "categories": [{"id": "4bf58dd8d48988d107941735", "name": "Argentinian Restaurant", "pluralName": "Argentinian Restaurants", "shortName": "Argentinian", "icon": {"prefix": "https://ss3.4sqi.net/img/categories_v2/food/argentinian_", "suffix": ".png"}, "primary": true}], "photos": {"count": 0, "groups": []}}, "referralId": "e-0-4b58a4a8f964a5203e6328e3-21"}, {"reasons": {"count": 0, "items": [{"summary": "This spot is popular", "type": "general", "reasonName": "globalInteractionReason"}]}, "venue": {"id": "50237f538055249578a0f772", "name": "Angler Rooftop Restaurant and Terrace", "location": {"address": "South Place Hotel", "crossStreet": "at 3 South Pl", "lat": 51.51910998709554, "lng": -0.08672874544646893, "labeledLatLngs": [{"label": "display", "lat": 51.51910998709554, "lng": -0.08672874544646893}], "distance": 335, "postalCode": "EC2M 2AF", "cc": "GB", "city": "London", "state": "Greater London", "country": "United Kingdom", "formattedAddress": ["South Place Hotel (at 3 South Pl)", "London", "Greater London", "EC2M 2AF", "United Kingdom"]}, "categories": [{"id": "4bf58dd8d48988d1ce941735", "name": "Seafood Restaurant", "pluralName": "Seafood Restaurants", "shortName": "Seafood", "icon": {"prefix": "https://ss3.4sqi.net/img/categories_v2/food/seafood_", "suffix": ".png"}, "primary": true}], "photos": {"count": 0, "groups": []}, "venuePage": {"id": "34408636"}}, "referralId": "e-0-50237f538055249578a0f772-22"}, {"reasons": {"count": 0, "items": [{"summary": "This spot is popular", "type": "general", "reasonName": "globalInteractionReason"}]}, "venue": {"id": "549063d9498ec33f03d90121", "name": "Chop'd", "location": {"address": "1 Ropemaker St", "lat": 51.51969679214864, "lng": -0.08948389739322493, "labeledLatLngs": [{"label": "display", "lat": 51.51969679214864, "lng": -0.08948389739322493}], "distance": 382, "postalCode": "EC2Y 9AW", "cc": "GB", "city": "London", "state": "Greater London", "country": "United Kingdom", "formattedAddress": ["1 Ropemaker St", "London", "Greater London", "EC2Y 9AW", "United Kingdom"]}, "categories": [{"id": "4bf58dd8d48988d1bd941735", "name": "Salad Place", "pluralName": "Salad Places", "shortName": "Salad", "icon": {"prefix": "https://ss3.4sqi.net/img/categories_v2/food/salad_", "suffix": ".png"}, "primary": true}], "photos": {"count": 0, "groups": []}}, "referralId": "e-0-549063d9498ec33f03d90121-23"}, {"reasons": {"count": 0, "items": [{"summary": "This spot is popular", "type": "general", "reasonName": "globalInteractionReason"}]}, "venue": {"id": "5707a505498e6e5b91e76939", "name": "Leon", "location": {"address": "5-6 Moorgate", "lat": 51.51896647830682, "lng": -0.08782071312706742, "labeledLatLngs": [{"label": "display", "lat": 51.51896647830682, "lng": -0.08782071312706742}], "distance": 377, "postalCode": "EC2M 6XB", "cc": "GB", "city": "London", "state": "Greater London", "country": "United Kingdom", "formattedAddress": ["5-6 Moorgate", "London", "Greater London", "EC2M 6XB", "United Kingdom"]}, "categories": [{"id": "4bf58dd8d48988d16e941735", "name": "Fast Food Restaurant", "pluralName": "Fast Food Restaurants", "shortName": "Fast Food", "icon": {"prefix": "https://ss3.4sqi.net/img/categories_v2/food/fastfood_", "suffix": ".png"}, "primary": true}], "photos": {"count": 0, "groups": []}}, "referralId": "e-0-5707a505498e6e5b91e76939-24"}, {"reasons": {"count": 0, "items": [{"summary": "This spot is popular", "type": "general", "reasonName": "globalInteractionReason"}]}, "venue": {"id": "5a0c32456e46504e23b60b3f", "name": "Pol\u00fa Pok\u00e9", "location": {"address": "115 Worship St", "lat": 51.52169489320002, "lng": -0.08011787886299354, "labeledLatLngs": [{"label": "display", "lat": 51.52169489320002, "lng": -0.08011787886299354}], "distance": 366, "postalCode": "E C2A", "cc": "GB", "city": "London", "state": "Greater London", "country": "United Kingdom", "formattedAddress": ["115 Worship St", "London", "Greater London", "E C2A", "United Kingdom"]}, "categories": [{"id": "5bae9231bedf3950379f89d4", "name": "Poke Place", "pluralName": "Poke Places", "shortName": "Poke Place", "icon": {"prefix": "https://ss3.4sqi.net/img/categories_v2/food/default_", "suffix": ".png"}, "primary": true}], "photos": {"count": 0, "groups": []}}, "referralId": "e-0-5a0c32456e46504e23b60b3f-25"}, {"reasons": {"count": 0, "items": [{"summary": "This spot is popular", "type": "general", "reasonName": "globalInteractionReason"}]}, "venue": {"id": "594532b6061b51682c154c31", "name": "Lido", "location": {"address": "45 Curtain Rd", "lat": 51.52363637800325, "lng": -0.08077797760101021, "labeledLatLngs": [{"label": "display", "lat": 51.52363637800325, "lng": -0.08077797760101021}], "distance": 367, "postalCode": "E C2A", "cc": "GB", "city": "Shoreditch", "state": "Greater London", "country": "United Kingdom", "formattedAddress": ["45 Curtain Rd", "Shoreditch", "Greater London", "E C2A", "United Kingdom"]}, "categories": [{"id": "4bf58dd8d48988d1c0941735", "name": "Mediterranean Restaurant", "pluralName": "Mediterranean Restaurants", "shortName": "Mediterranean", "icon": {"prefix": "https://ss3.4sqi.net/img/categories_v2/food/mediterranean_", "suffix": ".png"}, "primary": true}], "photos": {"count": 0, "groups": []}}, "referralId": "e-0-594532b6061b51682c154c31-26"}, {"reasons": {"count": 0, "items": [{"summary": "This spot is popular", "type": "general", "reasonName": "globalInteractionReason"}]}, "venue": {"id": "4b97a213f964a520bb0c35e3", "name": "Toto's Sandwich Bar", "location": {"address": "39 Scrutton St.", "crossStreet": "New N. Pl.", "lat": 51.523213282856915, "lng": -0.08206696569460648, "labeledLatLngs": [{"label": "display", "lat": 51.523213282856915, "lng": -0.08206696569460648}], "distance": 266, "postalCode": "EC2A 4HU", "cc": "GB", "city": "Shoreditch", "state": "Greater London", "country": "United Kingdom", "formattedAddress": ["39 Scrutton St. (New N. Pl.)", "Shoreditch", "Greater London", "EC2A 4HU", "United Kingdom"]}, "categories": [{"id": "4bf58dd8d48988d1c5941735", "name": "Sandwich Place", "pluralName": "Sandwich Places", "shortName": "Sandwiches", "icon": {"prefix": "https://ss3.4sqi.net/img/categories_v2/food/deli_", "suffix": ".png"}, "primary": true}], "photos": {"count": 0, "groups": []}}, "referralId": "e-0-4b97a213f964a520bb0c35e3-27"}, {"reasons": {"count": 0, "items": [{"summary": "This spot is popular", "type": "general", "reasonName": "globalInteractionReason"}]}, "venue": {"id": "5859295fd8b0ed132ad7679f", "name": "Sanjugo", "location": {"address": "35 Scrutton St", "lat": 51.52325681704436, "lng": -0.08220098807623671, "labeledLatLngs": [{"label": "display", "lat": 51.52325681704436, "lng": -0.08220098807623671}], "distance": 260, "postalCode": "EC2A 4HU", "cc": "GB", "city": "London", "state": "Greater London", "country": "United Kingdom", "formattedAddress": ["35 Scrutton St", "London", "Greater London", "EC2A 4HU", "United Kingdom"]}, "categories": [{"id": "4bf58dd8d48988d1d2941735", "name": "Sushi Restaurant", "pluralName": "Sushi Restaurants", "shortName": "Sushi", "icon": {"prefix": "https://ss3.4sqi.net/img/categories_v2/food/sushi_", "suffix": ".png"}, "primary": true}], "photos": {"count": 0, "groups": []}, "venuePage": {"id": "401587868"}}, "referralId": "e-0-5859295fd8b0ed132ad7679f-28"}, {"reasons": {"count": 0, "items": [{"summary": "This spot is popular", "type": "general", "reasonName": "globalInteractionReason"}]}, "venue": {"id": "4e438a271f6e0a1ba5d260d1", "name": "Paninis Sandwich Bar", "location": {"lat": 51.521992834347785, "lng": -0.08176814028407142, "labeledLatLngs": [{"label": "display", "lat": 51.521992834347785, "lng": -0.08176814028407142}], "distance": 250, "cc": "GB", "city": "Hackney", "state": "Greater London", "country": "United Kingdom", "formattedAddress": ["Hackney", "Greater London", "United Kingdom"]}, "categories": [{"id": "4bf58dd8d48988d1c5941735", "name": "Sandwich Place", "pluralName": "Sandwich Places", "shortName": "Sandwiches", "icon": {"prefix": "https://ss3.4sqi.net/img/categories_v2/food/deli_", "suffix": ".png"}, "primary": true}], "photos": {"count": 0, "groups": []}}, "referralId": "e-0-4e438a271f6e0a1ba5d260d1-29"}, {"reasons": {"count": 0, "items": [{"summary": "This spot is popular", "type": "general", "reasonName": "globalInteractionReason"}]}, "venue": {"id": "5135eaace4b09490b4b86807", "name": "K10", "location": {"address": "Appold Street", "lat": 51.520455, "lng": -0.082113, "labeledLatLngs": [{"label": "display", "lat": 51.520455, "lng": -0.082113}], "distance": 284, "postalCode": "EC2A 2AF", "cc": "GB", "city": "London", "state": "Greater London", "country": "United Kingdom", "formattedAddress": ["Appold Street", "London", "Greater London", "EC2A 2AF", "United Kingdom"]}, "categories": [{"id": "4bf58dd8d48988d111941735", "name": "Japanese Restaurant", "pluralName": "Japanese Restaurants", "shortName": "Japanese", "icon": {"prefix": "https://ss3.4sqi.net/img/categories_v2/food/japanese_", "suffix": ".png"}, "primary": true}], "photos": {"count": 0, "groups": []}}, "referralId": "e-0-5135eaace4b09490b4b86807-30"}, {"reasons": {"count": 0, "items": [{"summary": "This spot is popular", "type": "general", "reasonName": "globalInteractionReason"}]}, "venue": {"id": "5a730d8a4acb1910e67a4a90", "name": "Little Farm", "location": {"address": "115 Worship Street", "lat": 51.52171686209015, "lng": -0.08032735492064617, "labeledLatLngs": [{"label": "display", "lat": 51.52171686209015, "lng": -0.08032735492064617}], "distance": 351, "postalCode": "E C2A 2BA", "cc": "GB", "city": "London", "state": "Greater London", "country": "United Kingdom", "formattedAddress": ["115 Worship Street", "London", "Greater London", "E C2A 2BA", "United Kingdom"]}, "categories": [{"id": "56aa371be4b08b9a8d573538", "name": "Theme Restaurant", "pluralName": "Theme Restaurants", "shortName": "Theme Restaurant", "icon": {"prefix": "https://ss3.4sqi.net/img/categories_v2/food/default_", "suffix": ".png"}, "primary": true}], "photos": {"count": 0, "groups": []}}, "referralId": "e-0-5a730d8a4acb1910e67a4a90-31"}, {"reasons": {"count": 0, "items": [{"summary": "This spot is popular", "type": "general", "reasonName": "globalInteractionReason"}]}, "venue": {"id": "59d7476f419a9e1ec11e4a19", "name": "Camino", "location": {"address": "2 Curtain Rd", "lat": 51.52206593001304, "lng": -0.0808080167106202, "labeledLatLngs": [{"label": "display", "lat": 51.52206593001304, "lng": -0.0808080167106202}], "distance": 316, "postalCode": "EC2A 3BL", "cc": "GB", "neighborhood": "Hackney", "city": "London", "state": "Greater London", "country": "United Kingdom", "formattedAddress": ["2 Curtain Rd", "London", "Greater London", "EC2A 3BL", "United Kingdom"]}, "categories": [{"id": "4bf58dd8d48988d150941735", "name": "Spanish Restaurant", "pluralName": "Spanish Restaurants", "shortName": "Spanish", "icon": {"prefix": "https://ss3.4sqi.net/img/categories_v2/food/spanish_", "suffix": ".png"}, "primary": true}], "photos": {"count": 0, "groups": []}}, "referralId": "e-0-59d7476f419a9e1ec11e4a19-32"}]}]}}