{"meta": {"code": 200, "requestId": "5feddced76a2df29a0928c92"}, "response": {"headerLocation": "Hammersmith and Fulham", "headerFullLocation": "Hammersmith and Fulham, London", "headerLocationGranularity": "neighborhood", "query": "travel", "totalResults": 6, "suggestedBounds": {"ne": {"lat": 51.4908890036, "lng": -0.22041440447724686}, "sw": {"lat": 51.48368899639999, "lng": -0.23195559552275313}}, "groups": [{"type": "Recommended Places", "name": "recommended", "items": [{"reasons": {"count": 0, "items": [{"summary": "This spot is popular", "type": "general", "reasonName": "globalInteractionReason"}]}, "venue": {"id": "5afeea644e8f4300246ae658", "name": "TfL Santander Cycle Hire", "location": {"address": "Crisp Rd", "lat": 51.487975, "lng": -0.226428, "labeledLatLngs": [{"label": "display", "lat": 51.487975, "lng": -0.226428}], "distance": 78, "postalCode": "W6 9RL", "cc": "GB", "city": "Hammersmith", "state": "Greater London", "country": "United Kingdom", "formattedAddress": ["Crisp Rd", "Hammersmith", "Greater London", "W6 9RL", "United Kingdom"]}, "categories": [{"id": "4e4c9077bd41f78e849722f9", "name": "Bike Rental / Bike Share", "pluralName": "Bike Rentals / Bike Shares", "shortName": "Bike", "icon": {"prefix": "https://ss3.4sqi.net/img/categories_v2/shops/bikeshop_", "suffix": ".png"}, "primary": true}], "photos": {"count": 0, "groups": []}}, "referralId": "e-0-5afeea644e8f4300246ae658-0"}, {"reasons": {"count": 0, "items": [{"summary": "This spot is popular", "type": "general", "reasonName": "globalInteractionReason"}]}, "venue": {"id": "56613902498e9cc51d9d8ede", "name": "LHG - Luxury Hotels Group", "location": {"address": "1, Albion Place, Hammersmith", "lat": 51.48918632012956, "lng": -0.22472620010375977, "labeledLatLngs": [{"label": "display", "lat": 51.48918632012956, "lng": -0.22472620010375977}], "distance": 234, "postalCode": "W6 0QT", "cc": "GB", "city": "London", "state": "Greater London", "country": "United Kingdom", "formattedAddress": ["1, Albion Place, Hammersmith", "London", "Greater London", "W6 0QT", "United Kingdom"]}, "categories": [{"id": "4bf58dd8d48988d1fa931735", "name": "Hotel", "pluralName": "Hotels", "shortName": "Hotel", "icon": {"prefix": "https://ss3.4sqi.net/img/categories_v2/travel/hotel_", "suffix": ".png"}, "primary": true}], "photos": {"count": 0, "groups": []}}, "referralId": "e-0-56613902498e9cc51d9d8ede-1"}, {"reasons": {"count": 0, "items": [{"summary": "This spot is popular", "type": "general", "reasonName": "globalInteractionReason"}]}, "venue": {"id": "4f09f304e4b05dd3a4af4275", "name": "Bus Stop HT", "location": {"address": "Charring Cross Hospital", "lat": 51.487876414884894, "lng": -0.22241540683276184, "labeledLatLngs": [{"label": "display", "lat": 51.487876414884894, "lng": -0.22241540683276184}], "distance": 269, "cc": "GB", "country": "United Kingdom", "formattedAddress": ["Charring Cross Hospital", "United Kingdom"]}, "categories": [{"id": "52f2ab2ebcbc57f1066b8b4f", "name": "Bus Stop", "pluralName": "Bus Stops", "shortName": "Bus Stop", "icon": {"prefix": "https://ss3.4sqi.net/img/categories_v2/travel/busstation_", "suffix": ".png"}, "primary": true}], "photos": {"count": 0, "groups": []}}, "referralId": "e-0-4f09f304e4b05dd3a4af4275-2"}, {"reasons": {"count": 0, "items": [{"summary": "This spot is popular", "type": "general", "reasonName": "globalInteractionReason"}]}, "venue": {"id": "52fa13f8498ef585662445e0", "name": "Hammersmith Bridge Bus Stop L", "location": {"lat": 51.490063, "lng": -0.22842698, "labeledLatLngs": [{"label": "display", "lat": 51.490063, "lng": -0.22842698}], "distance": 345, "postalCode": "W6 9DB", "cc": "GB", "neighborhood": "Hammersmith Broadway", "city": "London", "state": "Greater London", "country": "United Kingdom", "formattedAddress": ["London", "Greater London", "W6 9DB", "United Kingdom"]}, "categories": [{"id": "52f2ab2ebcbc57f1066b8b4f", "name": "Bus Stop", "pluralName": "Bus Stops", "shortName": "Bus Stop", "icon": {"prefix": "https://ss3.4sqi.net/img/categories_v2/travel/busstation_", "suffix": ".png"}, "primary": true}], "photos": {"count": 0, "groups": []}}, "referralId": "e-0-52fa13f8498ef585662445e0-3"}, {"reasons": {"count": 0, "items": [{"summary": "This spot is popular", "type": "general", "reasonName": "globalInteractionReason"}]}, "venue": {"id": "5143c714e4b039102bd638e2", "name": "Charing Cross Hospital Bus Stop HA", "location": {"address": "Fulham Palace Rd", "lat": 51.486576, "lng": -0.22078134, "labeledLatLngs": [{"label": "display", "lat": 51.486576, "lng": -0.22078134}], "distance": 382, "postalCode": "W6 8RF", "cc": "GB", "neighborhood": "Fulham Reach", "country": "United Kingdom", "formattedAddress": ["Fulham Palace Rd", "W6 8RF", "United Kingdom"]}, "categories": [{"id": "52f2ab2ebcbc57f1066b8b4f", "name": "Bus Stop", "pluralName": "Bus Stops", "shortName": "Bus Stop", "icon": {"prefix": "https://ss3.4sqi.net/img/categories_v2/travel/busstation_", "suffix": ".png"}, "primary": true}], "photos": {"count": 0, "groups": []}}, "referralId": "e-0-5143c714e4b039102bd638e2-4"}, {"reasons": {"count": 0, "items": [{"summary": "This spot is popular", "type": "general", "reasonName": "globalInteractionReason"}]}, "venue": {"id": "577f6a0ecd10a9dbdf473e90", "name": "Otto Car", "location": {"address": "3 Sussex Place", "lat": 51.4907921, "lng": -0.2259407, "labeledLatLngs": [{"label": "display", "lat": 51.4907921, "lng": -0.2259407}], "distance": 390, "postalCode": "W6 9EA", "cc": "GB", "city": "London", "state": "Greater London", "country": "United Kingdom", "formattedAddress": ["3 Sussex Place", "London", "Greater London", "W6 9EA", "United Kingdom"]}, "categories": [{"id": "4bf58dd8d48988d1ef941735", "name": "Rental Car Location", "pluralName": "Rental Car Locations", "shortName": "Rental Car", "icon": {"prefix": "https://ss3.4sqi.net/img/categories_v2/shops/airport_rentalcar_", "suffix": ".png"}, "primary": true}], "photos": {"count": 0, "groups": []}}, "referralId": "e-0-577f6a0ecd10a9dbdf473e90-5"}]}]}}