{"meta": {"code": 200, "requestId": "5feddc29960a06004f557129"}, "response": {"headerLocation": "Colindale", "headerFullLocation": "Colindale, London", "headerLocationGranularity": "neighborhood", "query": "food", "totalResults": 4, "suggestedBounds": {"ne": {"lat": 51.5989300036, "lng": -0.24341568807568043}, "sw": {"lat": 51.59172999639999, "lng": -0.2549843119243196}}, "groups": [{"type": "Recommended Places", "name": "recommended", "items": [{"reasons": {"count": 0, "items": [{"summary": "This spot is popular", "type": "general", "reasonName": "globalInteractionReason"}]}, "venue": {"id": "551c6584498e435732074fb5", "name": "Spaccanapoli", "location": {"address": "5 Charcot Road", "lat": 51.595570845919646, "lng": -0.2515214681625366, "labeledLatLngs": [{"label": "display", "lat": 51.595570845919646, "lng": -0.2515214681625366}], "distance": 162, "postalCode": "NW9 5HG", "cc": "GB", "city": "London", "state": "Greater London", "country": "United Kingdom", "formattedAddress": ["5 Charcot Road", "London", "Greater London", "NW9 5HG", "United Kingdom"]}, "categories": [{"id": "4bf58dd8d48988d1ca941735", "name": "Pizza Place", "pluralName": "Pizza Places", "shortName": "Pizza", "icon": {"prefix": "https://ss3.4sqi.net/img/categories_v2/food/pizza_", "suffix": ".png"}, "primary": true}], "photos": {"count": 0, "groups": []}}, "referralId": "e-0-551c6584498e435732074fb5-0"}, {"reasons": {"count": 0, "items": [{"summary": "This spot is popular", "type": "general", "reasonName": "globalInteractionReason"}]}, "venue": {"id": "5c66c2c94a1cc0002c64da4b", "name": "Taco Bell", "location": {"address": "130 Colindale Avenue", "lat": 51.59439054, "lng": -0.24995444, "labeledLatLngs": [{"label": "display", "lat": 51.59439054, "lng": -0.24995444}], "distance": 116, "postalCode": "NW9 4AX", "cc": "GB", "city": "London", "state": "Greater London", "country": "United Kingdom", "formattedAddress": ["130 Colindale Avenue", "London", "Greater London", "NW9 4AX", "United Kingdom"]}, "categories": [{"id": "4bf58dd8d48988d16e941735", "name": "Fast Food Restaurant", "pluralName": "Fast Food Restaurants", "shortName": "Fast Food", "icon": {"prefix": "https://ss3.4sqi.net/img/categories_v2/food/fastfood_", "suffix": ".png"}, "primary": true}], "photos": {"count": 0, "groups": []}}, "referralId": "e-0-5c66c2c94a1cc0002c64da4b-1"}, {"reasons": {"count": 0, "items": [{"summary": "This spot is popular", "type": "general", "reasonName": "globalInteractionReason"}]}, "venue": {"id": "5c519c669d7468002cb6a70f", "name": "Itjl", "location": {"lat": 51.595274, "lng": -0.250402, "labeledLatLngs": [{"label": "display", "lat": 51.595274, "lng": -0.250402}], "distance": 83, "postalCode": "NW9 5WU", "cc": "GB", "city": "London", "state": "Greater London", "country": "United Kingdom", "formattedAddress": ["London", "Greater London", "NW9 5WU", "United Kingdom"]}, "categories": [{"id": "4bf58dd8d48988d16d941735", "name": "Caf\u00e9", "pluralName": "Caf\u00e9s", "shortName": "Caf\u00e9", "icon": {"prefix": "https://ss3.4sqi.net/img/categories_v2/food/cafe_", "suffix": ".png"}, "primary": true}], "photos": {"count": 0, "groups": []}}, "referralId": "e-0-5c519c669d7468002cb6a70f-2"}, {"reasons": {"count": 0, "items": [{"summary": "This spot is popular", "type": "general", "reasonName": "globalInteractionReason"}]}, "venue": {"id": "5229a88f498e1c2c5b4c4978", "name": "Tarry's", "location": {"lat": 51.59427708411963, "lng": -0.2517564467702279, "labeledLatLngs": [{"label": "display", "lat": 51.59427708411963, "lng": -0.2517564467702279}], "distance": 212, "cc": "GB", "country": "United Kingdom", "formattedAddress": ["United Kingdom"]}, "categories": [{"id": "4bf58dd8d48988d16d941735", "name": "Caf\u00e9", "pluralName": "Caf\u00e9s", "shortName": "Caf\u00e9", "icon": {"prefix": "https://ss3.4sqi.net/img/categories_v2/food/cafe_", "suffix": ".png"}, "primary": true}], "photos": {"count": 0, "groups": []}}, "referralId": "e-0-5229a88f498e1c2c5b4c4978-3"}]}]}}