{"meta": {"code": 200, "requestId": "5feddb7abec16445af2de091"}, "response": {"suggestedFilters": {"header": "Tap to show:", "filters": [{"name": "Open now", "key": "openNow"}]}, "headerLocation": "Lambeth", "headerFullLocation": "Lambeth, London", "headerLocationGranularity": "neighborhood", "query": "college education", "totalResults": 10, "suggestedBounds": {"ne": {"lat": 51.48996700360001, "lng": -0.10900152116208003}, "sw": {"lat": 51.482766996399995, "lng": -0.12054247883791996}}, "groups": [{"type": "Recommended Places", "name": "recommended", "items": [{"reasons": {"count": 0, "items": [{"summary": "This spot is popular", "type": "general", "reasonName": "globalInteractionReason"}]}, "venue": {"id": "4bc3216b2a89ef3b958ef488", "name": "Fixation", "location": {"address": "Unit C 250 Kennington Lane", "lat": 51.48714504395787, "lng": -0.11613957435637025, "labeledLatLngs": [{"label": "display", "lat": 51.48714504395787, "lng": -0.11613957435637025}], "distance": 128, "postalCode": "SE11 5RD", "cc": "GB", "city": "Kennington", "state": "Greater London", "country": "United Kingdom", "formattedAddress": ["Unit C 250 Kennington Lane", "Kennington", "Greater London", "SE11 5RD", "United Kingdom"]}, "categories": [{"id": "4bf58dd8d48988d127951735", "name": "Arts & Crafts Store", "pluralName": "Arts & Crafts Stores", "shortName": "Arts & Crafts", "icon": {"prefix": "https://ss3.4sqi.net/img/categories_v2/shops/artstore_", "suffix": ".png"}, "primary": true}], "photos": {"count": 0, "groups": []}}, "referralId": "e-0-4bc3216b2a89ef3b958ef488-0"}, {"reasons": {"count": 0, "items": [{"summary": "This spot is popular", "type": "general", "reasonName": "globalInteractionReason"}]}, "venue": {"id": "4c85f530d4e23704e4058788", "name": "FWR Tyres", "location": {"address": "330 Kennington Rd", "lat": 51.48674121277215, "lng": -0.1113438606262207, "labeledLatLngs": [{"label": "display", "lat": 51.48674121277215, "lng": -0.1113438606262207}], "distance": 241, "postalCode": "SE11 4LD", "cc": "GB", "city": "London", "state": "Greater London", "country": "United Kingdom", "formattedAddress": ["330 Kennington Rd", "London", "Greater London", "SE11 4LD", "United Kingdom"]}, "categories": [{"id": "5032833091d4c4b30a586d60", "name": "Motorcycle Shop", "pluralName": "Motorcycle Shops", "shortName": "Motorcycle Shop", "icon": {"prefix": "https://ss3.4sqi.net/img/categories_v2/shops/motorcycle_", "suffix": ".png"}, "primary": true}], "photos": {"count": 0, "groups": []}, "venuePage": {"id": "36507992"}}, "referralId": "e-0-4c85f530d4e23704e4058788-1"}, {"reasons": {"count": 0, "items": [{"summary": "This spot is popular", "type": "general", "reasonName": "globalInteractionReason"}]}, "venue": {"id": "4c0ffe2fb93cc9b6630956e0", "name": "Spectrecom Studios", "location": {"address": "373 Kennington Rd", "lat": 51.48651072457834, "lng": -0.11127948760986328, "labeledLatLngs": [{"label": "display", "lat": 51.48651072457834, "lng": -0.11127948760986328}], "distance": 242, "postalCode": "SE11 4PT", "cc": "GB", "city": "London", "state": "Greater London", "country": "United Kingdom", "formattedAddress": ["373 Kennington Rd", "London", "Greater London", "SE11 4PT", "United Kingdom"]}, "categories": [{"id": "56aa371be4b08b9a8d573523", "name": "Film Studio", "pluralName": "Film Studios", "shortName": "Film Studio", "icon": {"prefix": "https://ss3.4sqi.net/img/categories_v2/arts_entertainment/movietheater_", "suffix": ".png"}, "primary": true}], "photos": {"count": 0, "groups": []}}, "referralId": "e-0-4c0ffe2fb93cc9b6630956e0-2"}, {"reasons": {"count": 0, "items": [{"summary": "This spot is popular", "type": "general", "reasonName": "globalInteractionReason"}]}, "venue": {"id": "4ad07e23f964a52038d820e3", "name": "Tesco", "location": {"address": "Kennington Lane, Kennington", "lat": 51.48633423400431, "lng": -0.11401464418029583, "labeledLatLngs": [{"label": "display", "lat": 51.48633423400431, "lng": -0.11401464418029583}], "distance": 52, "postalCode": "SE11 5QU", "cc": "GB", "city": "London", "state": "Greater London", "country": "United Kingdom", "formattedAddress": ["Kennington Lane, Kennington", "London", "Greater London", "SE11 5QU", "United Kingdom"]}, "categories": [{"id": "52f2ab2ebcbc57f1066b8b46", "name": "Supermarket", "pluralName": "Supermarkets", "shortName": "Supermarket", "icon": {"prefix": "https://ss3.4sqi.net/img/categories_v2/shops/food_grocery_", "suffix": ".png"}, "primary": true}], "photos": {"count": 0, "groups": []}}, "referralId": "e-0-4ad07e23f964a52038d820e3-3"}, {"reasons": {"count": 0, "items": [{"summary": "This spot is popular", "type": "general", "reasonName": "globalInteractionReason"}]}, "venue": {"id": "4dc6d6d4d164eb9ca011cd62", "name": "Oddbins", "location": {"address": "296 - 300 Kennington Road", "lat": 51.48775879927593, "lng": -0.11136829304029346, "labeledLatLngs": [{"label": "display", "lat": 51.48775879927593, "lng": -0.11136829304029346}], "distance": 282, "postalCode": "SE11 4LD", "cc": "GB", "city": "Kennington", "state": "Greater London", "country": "United Kingdom", "formattedAddress": ["296 - 300 Kennington Road", "Kennington", "Greater London", "SE11 4LD", "United Kingdom"]}, "categories": [{"id": "4bf58dd8d48988d119951735", "name": "Wine Shop", "pluralName": "Wine Shops", "shortName": "Wine Shop", "icon": {"prefix": "https://ss3.4sqi.net/img/categories_v2/shops/food_wineshop_", "suffix": ".png"}, "primary": true}], "photos": {"count": 0, "groups": []}}, "referralId": "e-0-4dc6d6d4d164eb9ca011cd62-4"}, {"reasons": {"count": 0, "items": [{"summary": "This spot is popular", "type": "general", "reasonName": "globalInteractionReason"}]}, "venue": {"id": "5a009c44123a195b4ba9852d", "name": "Extreme Modelling Experience", "location": {"address": "Newburn St", "lat": 51.489286154626384, "lng": -0.11526022453688256, "labeledLatLngs": [{"label": "display", "lat": 51.489286154626384, "lng": -0.11526022453688256}], "distance": 326, "postalCode": "SE11 5PJ", "cc": "GB", "city": "London", "state": "Greater London", "country": "United Kingdom", "formattedAddress": ["Newburn St", "London", "Greater London", "SE11 5PJ", "United Kingdom"]}, "categories": [{"id": "554a5e17498efabeda6cc559", "name": "Photography Studio", "pluralName": "Photography Studios", "shortName": "Photo Studio", "icon": {"prefix": "https://ss3.4sqi.net/img/categories_v2/shops/camerastore_", "suffix": ".png"}, "primary": true}], "photos": {"count": 0, "groups": []}, "venuePage": {"id": "461796051"}}, "referralId": "e-0-5a009c44123a195b4ba9852d-5"}, {"reasons": {"count": 0, "items": [{"summary": "This spot is popular", "type": "general", "reasonName": "globalInteractionReason"}]}, "venue": {"id": "4e4a50148877bebe848ba85b", "name": "Stephen Conroy Photography", "location": {"address": "33 Stannary Street", "lat": 51.48608600000001, "lng": -0.110077, "labeledLatLngs": [{"label": "display", "lat": 51.48608600000001, "lng": -0.110077}], "distance": 326, "postalCode": "SE11 4AA", "cc": "GB", "city": "London", "state": "Greater London", "country": "United Kingdom", "formattedAddress": ["33 Stannary Street", "London", "Greater London", "SE11 4AA", "United Kingdom"]}, "categories": [{"id": "554a5e17498efabeda6cc559", "name": "Photography Studio", "pluralName": "Photography Studios", "shortName": "Photo Studio", "icon": {"prefix": "https://ss3.4sqi.net/img/categories_v2/shops/camerastore_", "suffix": ".png"}, "primary": true}], "photos": {"count": 0, "groups": []}, "venuePage": {"id": "130303538"}}, "referralId": "e-0-4e4a50148877bebe848ba85b-6"}, {"reasons": {"count": 0, "items": [{"summary": "This spot is popular", "type": "general", "reasonName": "globalInteractionReason"}]}, "venue": {"id": "56d73e6b498e0ce63d6bff3f", "name": "Simply Smiley Productions", "location": {"address": "54 Kennington Oval", "lat": 51.48375839999999, "lng": -0.11717060000000856, "labeledLatLngs": [{"label": "display", "lat": 51.48375839999999, "lng": -0.11717060000000856}], "distance": 334, "postalCode": "SE11 5SW", "cc": "GB", "city": "London", "state": "Greater London", "country": "United Kingdom", "formattedAddress": ["54 Kennington Oval", "London", "Greater London", "SE11 5SW", "United Kingdom"]}, "categories": [{"id": "5454152e498ef71e2b9132c6", "name": "Event Service", "pluralName": "Event Services", "shortName": "Event Services", "icon": {"prefix": "https://ss3.4sqi.net/img/categories_v2/event/default_", "suffix": ".png"}, "primary": true}], "photos": {"count": 0, "groups": []}, "venuePage": {"id": "163504314"}}, "referralId": "e-0-56d73e6b498e0ce63d6bff3f-7"}, {"reasons": {"count": 0, "items": [{"summary": "This spot is popular", "type": "general", "reasonName": "globalInteractionReason"}]}, "venue": {"id": "4bafbcf7f964a520961c3ce3", "name": "Master U- Leather Shop", "location": {"address": "330 Kennington Lane", "lat": 51.48643222471012, "lng": -0.11971235275268555, "labeledLatLngs": [{"label": "display", "lat": 51.48643222471012, "lng": -0.11971235275268555}], "distance": 342, "postalCode": "SE11 5HY", "cc": "GB", "city": "London", "state": "Greater London", "country": "United Kingdom", "formattedAddress": ["330 Kennington Lane", "London", "Greater London", "SE11 5HY", "United Kingdom"]}, "categories": [{"id": "4bf58dd8d48988d103951735", "name": "Clothing Store", "pluralName": "Clothing Stores", "shortName": "Apparel", "icon": {"prefix": "https://ss3.4sqi.net/img/categories_v2/shops/apparel_", "suffix": ".png"}, "primary": true}], "photos": {"count": 0, "groups": []}, "venuePage": {"id": "50746485"}}, "referralId": "e-0-4bafbcf7f964a520961c3ce3-8"}, {"reasons": {"count": 0, "items": [{"summary": "This spot is popular", "type": "general", "reasonName": "globalInteractionReason"}]}, "venue": {"id": "57dcb83e498e90b09b898294", "name": "Nisa (Nisa local)", "location": {"address": "405 Kennington Rd", "lat": 51.484992348936316, "lng": -0.1100759007143779, "labeledLatLngs": [{"label": "display", "lat": 51.484992348936316, "lng": -0.1100759007143779}], "distance": 359, "postalCode": "SE11 4PT", "cc": "GB", "city": "London", "state": "Greater London", "country": "United Kingdom", "formattedAddress": ["405 Kennington Rd", "London", "Greater London", "SE11 4PT", "United Kingdom"]}, "categories": [{"id": "4d954b0ea243a5684a65b473", "name": "Convenience Store", "pluralName": "Convenience Stores", "shortName": "Convenience Store", "icon": {"prefix": "https://ss3.4sqi.net/img/categories_v2/shops/conveniencestore_", "suffix": ".png"}, "primary": true}], "photos": {"count": 0, "groups": []}}, "referralId": "e-0-57dcb83e498e90b09b898294-9"}]}]}}