{"meta": {"code": 200, "requestId": "5fedd9f8fb7e627cbe959cce"}, "response": {"headerLocation": "Stoke Newington Central", "headerFullLocation": "Stoke Newington Central, London", "headerLocationGranularity": "neighborhood", "query": "travel", "totalResults": 5, "suggestedBounds": {"ne": {"lat": 51.565920003600006, "lng": -0.06924988797138645}, "sw": {"lat": 51.558719996399994, "lng": -0.08081011202861355}}, "groups": [{"type": "Recommended Places", "name": "recommended", "items": [{"reasons": {"count": 0, "items": [{"summary": "This spot is popular", "type": "general", "reasonName": "globalInteractionReason"}]}, "venue": {"id": "52ab16c811d296d8860ee870", "name": "Bus Stop U - Stoke Newington High Srreet", "location": {"address": "Brooke Road", "crossStreet": "Stoke Newington", "lat": 51.5607, "lng": -0.0732438, "labeledLatLngs": [{"label": "display", "lat": 51.5607, "lng": -0.0732438}], "distance": 218, "cc": "GB", "city": "London", "state": "Greater London", "country": "United Kingdom", "formattedAddress": ["Brooke Road (Stoke Newington)", "London", "Greater London", "United Kingdom"]}, "categories": [{"id": "52f2ab2ebcbc57f1066b8b4f", "name": "Bus Stop", "pluralName": "Bus Stops", "shortName": "Bus Stop", "icon": {"prefix": "https://ss3.4sqi.net/img/categories_v2/travel/busstation_", "suffix": ".png"}, "primary": true}], "photos": {"count": 0, "groups": []}}, "referralId": "e-0-52ab16c811d296d8860ee870-0"}, {"reasons": {"count": 0, "items": [{"summary": "This spot is popular", "type": "general", "reasonName": "globalInteractionReason"}]}, "venue": {"id": "5046f982e4b0807a953b08bc", "name": "Bus Stop D", "location": {"lat": 51.562965, "lng": -0.071808, "labeledLatLngs": [{"label": "display", "lat": 51.562965, "lng": -0.071808}], "distance": 234, "cc": "GB", "country": "United Kingdom", "formattedAddress": ["United Kingdom"]}, "categories": [{"id": "52f2ab2ebcbc57f1066b8b4f", "name": "Bus Stop", "pluralName": "Bus Stops", "shortName": "Bus Stop", "icon": {"prefix": "https://ss3.4sqi.net/img/categories_v2/travel/busstation_", "suffix": ".png"}, "primary": true}], "photos": {"count": 0, "groups": []}}, "referralId": "e-0-5046f982e4b0807a953b08bc-1"}, {"reasons": {"count": 0, "items": [{"summary": "This spot is popular", "type": "general", "reasonName": "globalInteractionReason"}]}, "venue": {"id": "4c81f45e47cc224b9b84819f", "name": "Church Street Stoke Newington Bus Stop", "location": {"lat": 51.562033, "lng": -0.079093, "labeledLatLngs": [{"label": "display", "lat": 51.562033, "lng": -0.079093}], "distance": 282, "cc": "GB", "city": "London", "state": "Greater London", "country": "United Kingdom", "formattedAddress": ["London", "Greater London", "United Kingdom"]}, "categories": [{"id": "52f2ab2ebcbc57f1066b8b4f", "name": "Bus Stop", "pluralName": "Bus Stops", "shortName": "Bus Stop", "icon": {"prefix": "https://ss3.4sqi.net/img/categories_v2/travel/busstation_", "suffix": ".png"}, "primary": true}], "photos": {"count": 0, "groups": []}}, "referralId": "e-0-4c81f45e47cc224b9b84819f-2"}, {"reasons": {"count": 0, "items": [{"summary": "This spot is popular", "type": "general", "reasonName": "globalInteractionReason"}]}, "venue": {"id": "4d677d2bc406f04d95c2ee4c", "name": "Stoke Newington Bus Stand", "location": {"lat": 51.56126366535291, "lng": -0.07002538328234718, "labeledLatLngs": [{"label": "display", "lat": 51.56126366535291, "lng": -0.07002538328234718}], "distance": 365, "cc": "GB", "country": "United Kingdom", "formattedAddress": ["United Kingdom"]}, "categories": [{"id": "4bf58dd8d48988d1fe931735", "name": "Bus Station", "pluralName": "Bus Stations", "shortName": "Bus Station", "icon": {"prefix": "https://ss3.4sqi.net/img/categories_v2/travel/busstation_", "suffix": ".png"}, "primary": true}], "photos": {"count": 0, "groups": []}}, "referralId": "e-0-4d677d2bc406f04d95c2ee4c-3"}, {"reasons": {"count": 0, "items": [{"summary": "This spot is popular", "type": "general", "reasonName": "globalInteractionReason"}]}, "venue": {"id": "4bf70cca4a67c92868f022cf", "name": "Stoke Newington Railway Station (SKW)", "location": {"address": "Station Approach", "lat": 51.56489683056112, "lng": -0.07260069058415809, "distance": 332, "postalCode": "N16 6YA", "cc": "GB", "city": "Stoke Newington", "state": "Greater London", "country": "United Kingdom", "formattedAddress": ["Station Approach", "Stoke Newington", "Greater London", "N16 6YA", "United Kingdom"]}, "categories": [{"id": "4bf58dd8d48988d129951735", "name": "Train Station", "pluralName": "Train Stations", "shortName": "Train Station", "icon": {"prefix": "https://ss3.4sqi.net/img/categories_v2/travel/trainstation_", "suffix": ".png"}, "primary": true}], "photos": {"count": 0, "groups": []}}, "referralId": "e-0-4bf70cca4a67c92868f022cf-4"}]}]}}