{"meta": {"code": 200, "requestId": "5fedda9ff2127f1c9f71cbb7"}, "response": {"suggestedFilters": {"header": "Tap to show:", "filters": [{"name": "Open now", "key": "openNow"}]}, "headerLocation": "Brentford", "headerFullLocation": "Brentford, London", "headerLocationGranularity": "neighborhood", "query": "college education", "totalResults": 13, "suggestedBounds": {"ne": {"lat": 51.488254003600005, "lng": -0.3186207379363873}, "sw": {"lat": 51.48105399639999, "lng": -0.3301612620636127}}, "groups": [{"type": "Recommended Places", "name": "recommended", "items": [{"reasons": {"count": 0, "items": [{"summary": "This spot is popular", "type": "general", "reasonName": "globalInteractionReason"}]}, "venue": {"id": "4efda545490182a1a5842ec5", "name": "DFS Brentford", "location": {"address": "971 Great West Road", "lat": 51.484003666005535, "lng": -0.32172213122781956, "labeledLatLngs": [{"label": "display", "lat": 51.484003666005535, "lng": -0.32172213122781956}], "distance": 198, "postalCode": "TW8 9DN", "cc": "GB", "city": "Brentford", "state": "Greater London", "country": "United Kingdom", "formattedAddress": ["971 Great West Road", "Brentford", "Greater London", "TW8 9DN", "United Kingdom"]}, "categories": [{"id": "4bf58dd8d48988d1f8941735", "name": "Furniture / Home Store", "pluralName": "Furniture / Home Stores", "shortName": "Furniture / Home", "icon": {"prefix": "https://ss3.4sqi.net/img/categories_v2/shops/furniture_", "suffix": ".png"}, "primary": true}], "photos": {"count": 0, "groups": []}, "venuePage": {"id": "534899805"}}, "referralId": "e-0-4efda545490182a1a5842ec5-0"}, {"reasons": {"count": 0, "items": [{"summary": "This spot is popular", "type": "general", "reasonName": "globalInteractionReason"}]}, "venue": {"id": "5fda80bc5fab5950cca7b64e", "name": "dwell", "location": {"address": "971 Great West Road, Brentford", "lat": 51.48399701090209, "lng": -0.321711918402674, "labeledLatLngs": [{"label": "display", "lat": 51.48399701090209, "lng": -0.321711918402674}], "distance": 199, "postalCode": "TW8 9DN", "cc": "GB", "city": "London", "state": "Greater London", "country": "United Kingdom", "formattedAddress": ["971 Great West Road, Brentford", "London", "Greater London", "TW8 9DN", "United Kingdom"]}, "categories": [{"id": "4bf58dd8d48988d1f8941735", "name": "Furniture / Home Store", "pluralName": "Furniture / Home Stores", "shortName": "Furniture / Home", "icon": {"prefix": "https://ss3.4sqi.net/img/categories_v2/shops/furniture_", "suffix": ".png"}, "primary": true}], "photos": {"count": 0, "groups": []}}, "referralId": "e-0-5fda80bc5fab5950cca7b64e-1"}, {"reasons": {"count": 0, "items": [{"summary": "This spot is popular", "type": "general", "reasonName": "globalInteractionReason"}]}, "venue": {"id": "5d0037f24f0e58002c7e67b3", "name": "DPD Parcel Shop Location - Homebase", "location": {"address": "Syon Lane", "lat": 51.483018710755864, "lng": -0.32524717831972794, "labeledLatLngs": [{"label": "display", "lat": 51.483018710755864, "lng": -0.32524717831972794}], "distance": 191, "postalCode": "TW7 5QE", "cc": "GB", "city": "Isleworth", "state": "Greater London", "country": "United Kingdom", "formattedAddress": ["Syon Lane", "Isleworth", "Greater London", "TW7 5QE", "United Kingdom"]}, "categories": [{"id": "5453de49498eade8af355881", "name": "Business Service", "pluralName": "Business Services", "shortName": "Business Services", "icon": {"prefix": "https://ss3.4sqi.net/img/categories_v2/building/default_", "suffix": ".png"}, "primary": true}], "photos": {"count": 0, "groups": []}}, "referralId": "e-0-5d0037f24f0e58002c7e67b3-2"}, {"reasons": {"count": 0, "items": [{"summary": "This spot is popular", "type": "general", "reasonName": "globalInteractionReason"}]}, "venue": {"id": "55f98d53498e60984c7c765f", "name": "Ross Poole Hair & Beauty", "location": {"lat": 51.48545990047876, "lng": -0.32696371749181774, "labeledLatLngs": [{"label": "display", "lat": 51.48545990047876, "lng": -0.32696371749181774}], "distance": 199, "cc": "GB", "country": "United Kingdom", "formattedAddress": ["United Kingdom"]}, "categories": [{"id": "54541900498ea6ccd0202697", "name": "Health & Beauty Service", "pluralName": "Health & Beauty Services", "shortName": "Health & Beauty", "icon": {"prefix": "https://ss3.4sqi.net/img/categories_v2/shops/salon_barber_", "suffix": ".png"}, "primary": true}], "photos": {"count": 0, "groups": []}}, "referralId": "e-0-55f98d53498e60984c7c765f-3"}, {"reasons": {"count": 0, "items": [{"summary": "This spot is popular", "type": "general", "reasonName": "globalInteractionReason"}]}, "venue": {"id": "4fc4ccbee4b00c62ad1e12e6", "name": "Carpetright", "location": {"address": "971 Great West Trading Estate, Great West Road", "crossStreet": "Great West Rd", "lat": 51.4843269, "lng": -0.3215487, "labeledLatLngs": [{"label": "display", "lat": 51.4843269, "lng": -0.3215487}], "distance": 200, "postalCode": "TW8 9DN", "cc": "GB", "city": "Brentford", "state": "Greater London", "country": "United Kingdom", "formattedAddress": ["971 Great West Trading Estate, Great West Road (Great West Rd)", "Brentford", "Greater London", "TW8 9DN", "United Kingdom"]}, "categories": [{"id": "52f2ab2ebcbc57f1066b8b2a", "name": "Carpet Store", "pluralName": "Carpet Stores", "shortName": "Carpet Store", "icon": {"prefix": "https://ss3.4sqi.net/img/categories_v2/shops/default_", "suffix": ".png"}, "primary": true}], "photos": {"count": 0, "groups": []}}, "referralId": "e-0-4fc4ccbee4b00c62ad1e12e6-4"}, {"reasons": {"count": 0, "items": [{"summary": "This spot is popular", "type": "general", "reasonName": "globalInteractionReason"}]}, "venue": {"id": "50014e5ee4b0ee6fde52c750", "name": "Brentford", "location": {"address": "Unit 3, Amalgamated Drive, West Cross Industrial Park", "lat": 51.4859359, "lng": -0.3234495, "labeledLatLngs": [{"label": "display", "lat": 51.4859359, "lng": -0.3234495}], "distance": 156, "postalCode": "TW8 9EZ", "cc": "GB", "city": "Brentford", "state": "Greater London", "country": "United Kingdom", "formattedAddress": ["Unit 3, Amalgamated Drive, West Cross Industrial Park", "Brentford", "Greater London", "TW8 9EZ", "United Kingdom"]}, "categories": [{"id": "5454144b498ec1f095bff2f2", "name": "Construction & Landscaping", "pluralName": "Construction & Landscaping", "shortName": "Construction", "icon": {"prefix": "https://ss3.4sqi.net/img/categories_v2/shops/realestate_", "suffix": ".png"}, "primary": true}], "photos": {"count": 0, "groups": []}}, "referralId": "e-0-50014e5ee4b0ee6fde52c750-5"}, {"reasons": {"count": 0, "items": [{"summary": "This spot is popular", "type": "general", "reasonName": "globalInteractionReason"}]}, "venue": {"id": "5054610ae4b04495bca45a36", "name": "Graham & Green Warehouse", "location": {"lat": 51.486428, "lng": -0.324563, "labeledLatLngs": [{"label": "display", "lat": 51.486428, "lng": -0.324563}], "distance": 197, "cc": "GB", "country": "United Kingdom", "formattedAddress": ["United Kingdom"]}, "categories": [{"id": "4bf58dd8d48988d1f8941735", "name": "Furniture / Home Store", "pluralName": "Furniture / Home Stores", "shortName": "Furniture / Home", "icon": {"prefix": "https://ss3.4sqi.net/img/categories_v2/shops/furniture_", "suffix": ".png"}, "primary": true}], "photos": {"count": 0, "groups": []}}, "referralId": "e-0-5054610ae4b04495bca45a36-6"}, {"reasons": {"count": 0, "items": [{"summary": "This spot is popular", "type": "general", "reasonName": "globalInteractionReason"}]}, "venue": {"id": "5b2b980a6f0aa2002cff66d4", "name": "Peter Cox - Middlesex", "location": {"address": "8 Amalgamated Drive", "lat": 51.48620006473456, "lng": -0.322074294090271, "labeledLatLngs": [{"label": "display", "lat": 51.48620006473456, "lng": -0.322074294090271}], "distance": 235, "postalCode": "TW8 9EX", "cc": "GB", "city": "Middlesex", "state": "Greater London", "country": "United Kingdom", "formattedAddress": ["8 Amalgamated Drive", "Middlesex", "Greater London", "TW8 9EX", "United Kingdom"]}, "categories": [{"id": "5454144b498ec1f095bff2f2", "name": "Construction & Landscaping", "pluralName": "Construction & Landscaping", "shortName": "Construction", "icon": {"prefix": "https://ss3.4sqi.net/img/categories_v2/shops/realestate_", "suffix": ".png"}, "primary": true}], "photos": {"count": 0, "groups": []}}, "referralId": "e-0-5b2b980a6f0aa2002cff66d4-7"}, {"reasons": {"count": 0, "items": [{"summary": "This spot is popular", "type": "general", "reasonName": "globalInteractionReason"}]}, "venue": {"id": "56c13456cd10e4bda73e7001", "name": "Shred-it", "location": {"address": "Unit 14 Shield Drive, Brentford", "lat": 51.4868362498049, "lng": -0.3227121283676979, "labeledLatLngs": [{"label": "display", "lat": 51.4868362498049, "lng": -0.3227121283676979}], "distance": 269, "postalCode": "TW8 9EX", "cc": "GB", "city": "Middlesex", "state": "Greater London", "country": "United Kingdom", "formattedAddress": ["Unit 14 Shield Drive, Brentford", "Middlesex", "Greater London", "TW8 9EX", "United Kingdom"]}, "categories": [{"id": "5453de49498eade8af355881", "name": "Business Service", "pluralName": "Business Services", "shortName": "Business Services", "icon": {"prefix": "https://ss3.4sqi.net/img/categories_v2/building/default_", "suffix": ".png"}, "primary": true}], "photos": {"count": 0, "groups": []}}, "referralId": "e-0-56c13456cd10e4bda73e7001-8"}, {"reasons": {"count": 0, "items": [{"summary": "This spot is popular", "type": "general", "reasonName": "globalInteractionReason"}]}, "venue": {"id": "5a7956136c08d109c43f91a2", "name": "Helios Ingredients", "location": {"address": "Serendib House, 67A Boston Manor Road", "lat": 51.48640717153224, "lng": -0.32169342041015625, "labeledLatLngs": [{"label": "display", "lat": 51.48640717153224, "lng": -0.32169342041015625}], "distance": 270, "postalCode": "TW8 9JQ", "cc": "GB", "city": "Brentford", "country": "United Kingdom", "formattedAddress": ["Serendib House, 67A Boston Manor Road", "Brentford", "TW8 9JQ", "United Kingdom"]}, "categories": [{"id": "56aa371be4b08b9a8d573550", "name": "Food Service", "pluralName": "Food Services", "shortName": "Food Service", "icon": {"prefix": "https://ss3.4sqi.net/img/categories_v2/shops/foodanddrink_", "suffix": ".png"}, "primary": true}], "photos": {"count": 0, "groups": []}}, "referralId": "e-0-5a7956136c08d109c43f91a2-9"}, {"reasons": {"count": 0, "items": [{"summary": "This spot is popular", "type": "general", "reasonName": "globalInteractionReason"}]}, "venue": {"id": "5dce44680f68190007c357f4", "name": "The Landlord Bathroom Company", "location": {"address": "981 Great West Road  Brentford  Greater London  TW8 9DN", "lat": 51.48531617577443, "lng": -0.3204837441444397, "labeledLatLngs": [{"label": "display", "lat": 51.48531617577443, "lng": -0.3204837441444397}], "distance": 280, "postalCode": "TW8 9DN", "cc": "GB", "city": "Brentford", "country": "United Kingdom", "formattedAddress": ["981 Great West Road  Brentford  Greater London  TW8 9DN", "Brentford", "TW8 9DN", "United Kingdom"]}, "categories": [{"id": "545419b1498ea6ccd0202f58", "name": "Home Service", "pluralName": "Home Services & Repairs", "shortName": "Home Services", "icon": {"prefix": "https://ss3.4sqi.net/img/categories_v2/shops/hardware_", "suffix": ".png"}, "primary": true}], "photos": {"count": 0, "groups": []}}, "referralId": "e-0-5dce44680f68190007c357f4-10"}, {"reasons": {"count": 0, "items": [{"summary": "This spot is popular", "type": "general", "reasonName": "globalInteractionReason"}]}, "venue": {"id": "5b72d9de947c05002c5b7b30", "name": "F&F Clothing", "location": {"address": "Osterley Park, Syon Ln", "lat": 51.48204, "lng": -0.32466, "labeledLatLngs": [{"label": "display", "lat": 51.48204, "lng": -0.32466}], "distance": 291, "postalCode": "TW7 5NZ", "cc": "GB", "city": "Isleworth", "country": "United Kingdom", "formattedAddress": ["Osterley Park, Syon Ln", "Isleworth", "TW7 5NZ", "United Kingdom"]}, "categories": [{"id": "4bf58dd8d48988d103951735", "name": "Clothing Store", "pluralName": "Clothing Stores", "shortName": "Apparel", "icon": {"prefix": "https://ss3.4sqi.net/img/categories_v2/shops/apparel_", "suffix": ".png"}, "primary": true}], "photos": {"count": 0, "groups": []}}, "referralId": "e-0-5b72d9de947c05002c5b7b30-11"}, {"reasons": {"count": 0, "items": [{"summary": "This spot is popular", "type": "general", "reasonName": "globalInteractionReason"}]}, "venue": {"id": "4b534104f964a520509427e3", "name": "Currys PC World", "location": {"address": "6 West Cross Way", "lat": 51.486068058357404, "lng": -0.32118907294056953, "labeledLatLngs": [{"label": "display", "lat": 51.486068058357404, "lng": -0.32118907294056953}], "distance": 272, "postalCode": "TW8 9DE", "cc": "GB", "city": "Brentford", "state": "Greater London", "country": "United Kingdom", "formattedAddress": ["6 West Cross Way", "Brentford", "Greater London", "TW8 9DE", "United Kingdom"]}, "categories": [{"id": "4bf58dd8d48988d122951735", "name": "Electronics Store", "pluralName": "Electronics Stores", "shortName": "Electronics", "icon": {"prefix": "https://ss3.4sqi.net/img/categories_v2/shops/technology_", "suffix": ".png"}, "primary": true}], "photos": {"count": 0, "groups": []}}, "referralId": "e-0-4b534104f964a520509427e3-12"}]}]}}