{"meta": {"code": 200, "requestId": "5fedda6d499ac81c6061b9d5"}, "response": {"suggestedFilters": {"header": "Tap to show:", "filters": [{"name": "Open now", "key": "openNow"}]}, "headerLocation": "Lambeth", "headerFullLocation": "Lambeth, London", "headerLocationGranularity": "neighborhood", "query": "travel", "totalResults": 6, "suggestedBounds": {"ne": {"lat": 51.498206003600004, "lng": -0.1135814782450464}, "sw": {"lat": 51.49100599639999, "lng": -0.1251245217549536}}, "groups": [{"type": "Recommended Places", "name": "recommended", "items": [{"reasons": {"count": 0, "items": [{"summary": "This spot is popular", "type": "general", "reasonName": "globalInteractionReason"}]}, "venue": {"id": "52bcbd6711d2d18d121a7aa8", "name": "Plaza On The River Club And Residence", "location": {"address": "18 Albert Embankment", "lat": 51.491529242107795, "lng": -0.12137142849725611, "labeledLatLngs": [{"label": "display", "lat": 51.491529242107795, "lng": -0.12137142849725611}], "distance": 369, "postalCode": "SE1 7TJ", "cc": "GB", "city": "London", "state": "Greater London", "country": "United Kingdom", "formattedAddress": ["18 Albert Embankment", "London", "Greater London", "SE1 7TJ", "United Kingdom"]}, "categories": [{"id": "4bf58dd8d48988d1fa931735", "name": "Hotel", "pluralName": "Hotels", "shortName": "Hotel", "icon": {"prefix": "https://ss3.4sqi.net/img/categories_v2/travel/hotel_", "suffix": ".png"}, "primary": true}], "photos": {"count": 0, "groups": []}}, "referralId": "e-0-52bcbd6711d2d18d121a7aa8-0"}, {"reasons": {"count": 0, "items": [{"summary": "This spot is popular", "type": "general", "reasonName": "globalInteractionReason"}]}, "venue": {"id": "4bafa216f964a52006123ce3", "name": "Park Plaza London Riverbank", "location": {"address": "18 Albert Embankment, Vauxhall", "lat": 51.491478, "lng": -0.122177, "labeledLatLngs": [{"label": "display", "lat": 51.491478, "lng": -0.122177}], "distance": 399, "postalCode": "SE1 7TJ", "cc": "GB", "city": "London", "state": "Greater London", "country": "United Kingdom", "formattedAddress": ["18 Albert Embankment, Vauxhall", "London", "Greater London", "SE1 7TJ", "United Kingdom"]}, "categories": [{"id": "4bf58dd8d48988d1fa931735", "name": "Hotel", "pluralName": "Hotels", "shortName": "Hotel", "icon": {"prefix": "https://ss3.4sqi.net/img/categories_v2/travel/hotel_", "suffix": ".png"}, "primary": true}], "photos": {"count": 0, "groups": []}}, "referralId": "e-0-4bafa216f964a52006123ce3-1"}, {"reasons": {"count": 0, "items": [{"summary": "This spot is popular", "type": "general", "reasonName": "globalInteractionReason"}]}, "venue": {"id": "4ac518b4f964a5207da020e3", "name": "Novotel London Waterloo", "location": {"address": "113 Lambeth  road", "lat": 51.494665009729744, "lng": -0.11868486871719597, "labeledLatLngs": [{"label": "display", "lat": 51.494665009729744, "lng": -0.11868486871719597}], "distance": 46, "postalCode": "SE1 7LS", "cc": "GB", "city": "London", "state": "Greater London", "country": "United Kingdom", "formattedAddress": ["113 Lambeth  road", "London", "Greater London", "SE1 7LS", "United Kingdom"]}, "categories": [{"id": "4bf58dd8d48988d1fa931735", "name": "Hotel", "pluralName": "Hotels", "shortName": "Hotel", "icon": {"prefix": "https://ss3.4sqi.net/img/categories_v2/travel/hotel_", "suffix": ".png"}, "primary": true}], "photos": {"count": 0, "groups": []}}, "referralId": "e-0-4ac518b4f964a5207da020e3-2"}, {"reasons": {"count": 0, "items": [{"summary": "This spot is popular", "type": "general", "reasonName": "globalInteractionReason"}]}, "venue": {"id": "5bab1713d807ee003967a4ca", "name": "Crowne Plaza London - Albert Embankment", "location": {"address": "10-11 Albert Embankment", "lat": 51.4917962, "lng": -0.1214779, "labeledLatLngs": [{"label": "display", "lat": 51.4917962, "lng": -0.1214779}], "distance": 345, "postalCode": "SE1 7SP", "cc": "GB", "city": "London", "state": "Greater London", "country": "United Kingdom", "formattedAddress": ["10-11 Albert Embankment", "London", "Greater London", "SE1 7SP", "United Kingdom"]}, "categories": [{"id": "4bf58dd8d48988d1fa931735", "name": "Hotel", "pluralName": "Hotels", "shortName": "Hotel", "icon": {"prefix": "https://ss3.4sqi.net/img/categories_v2/travel/hotel_", "suffix": ".png"}, "primary": true}], "photos": {"count": 0, "groups": []}}, "referralId": "e-0-5bab1713d807ee003967a4ca-3"}, {"reasons": {"count": 0, "items": [{"summary": "This spot is popular", "type": "general", "reasonName": "globalInteractionReason"}]}, "venue": {"id": "4c0669d1191f20a14c75e414", "name": "Lambeth Pier", "location": {"lat": 51.4949444975325, "lng": -0.12122511863708496, "labeledLatLngs": [{"label": "display", "lat": 51.4949444975325, "lng": -0.12122511863708496}], "distance": 135, "cc": "GB", "country": "United Kingdom", "formattedAddress": ["United Kingdom"]}, "categories": [{"id": "4e74f6cabd41c4836eac4c31", "name": "Pier", "pluralName": "Piers", "shortName": "Piers", "icon": {"prefix": "https://ss3.4sqi.net/img/categories_v2/travel/ferry_pier_", "suffix": ".png"}, "primary": true}], "photos": {"count": 0, "groups": []}}, "referralId": "e-0-4c0669d1191f20a14c75e414-4"}, {"reasons": {"count": 0, "items": [{"summary": "This spot is popular", "type": "general", "reasonName": "globalInteractionReason"}]}, "venue": {"id": "4bf9d6d25efe2d7f53ed6c34", "name": "The London Waterloo Hostel", "location": {"address": "73 Lambeth Walk", "lat": 51.49436330589442, "lng": -0.11450337123775732, "labeledLatLngs": [{"label": "display", "lat": 51.49436330589442, "lng": -0.11450337123775732}], "distance": 337, "postalCode": "SE11 6DX", "cc": "GB", "city": "London", "state": "Greater London", "country": "United Kingdom", "formattedAddress": ["73 Lambeth Walk", "London", "Greater London", "SE11 6DX", "United Kingdom"]}, "categories": [{"id": "4bf58dd8d48988d1ee931735", "name": "Hostel", "pluralName": "Hostels", "shortName": "Hostel", "icon": {"prefix": "https://ss3.4sqi.net/img/categories_v2/travel/hostel_", "suffix": ".png"}, "primary": true}], "photos": {"count": 0, "groups": []}}, "referralId": "e-0-4bf9d6d25efe2d7f53ed6c34-5"}]}]}}