{"meta": {"code": 200, "requestId": "5feddcd9499ac81c606a453a"}, "response": {"headerLocation": "Lambeth", "headerFullLocation": "Lambeth, London", "headerLocationGranularity": "neighborhood", "query": "arts entertainment", "totalResults": 5, "suggestedBounds": {"ne": {"lat": 51.49275000360001, "lng": -0.11699916893719667}, "sw": {"lat": 51.485549996399996, "lng": -0.12854083106280334}}, "groups": [{"type": "Recommended Places", "name": "recommended", "items": [{"reasons": {"count": 0, "items": [{"summary": "This spot is popular", "type": "general", "reasonName": "globalInteractionReason"}]}, "venue": {"id": "5b1641e71ffe97002c4f809e", "name": "Above The Stag Theatre", "location": {"address": "72 Albert Embankment", "lat": 51.48751986231018, "lng": -0.1231495649243991, "labeledLatLngs": [{"label": "display", "lat": 51.48751986231018, "lng": -0.1231495649243991}], "distance": 183, "postalCode": "SE1 7TP", "cc": "GB", "city": "London", "state": "Greater London", "country": "United Kingdom", "formattedAddress": ["72 Albert Embankment", "London", "Greater London", "SE1 7TP", "United Kingdom"]}, "categories": [{"id": "4bf58dd8d48988d137941735", "name": "Theater", "pluralName": "Theaters", "shortName": "Theater", "icon": {"prefix": "https://ss3.4sqi.net/img/categories_v2/arts_entertainment/performingarts_theater_", "suffix": ".png"}, "primary": true}], "photos": {"count": 0, "groups": []}, "venuePage": {"id": "495783187"}}, "referralId": "e-0-5b1641e71ffe97002c4f809e-0"}, {"reasons": {"count": 0, "items": [{"summary": "This spot is popular", "type": "general", "reasonName": "globalInteractionReason"}]}, "venue": {"id": "5aeed4c6dd12f8002cf3f76b", "name": "Base Dance Studios", "location": {"lat": 51.489719, "lng": -0.121973, "labeledLatLngs": [{"label": "display", "lat": 51.489719, "lng": -0.121973}], "distance": 84, "postalCode": "SE11 5EJ", "cc": "GB", "city": "London", "state": "Greater London", "country": "United Kingdom", "formattedAddress": ["London", "Greater London", "SE11 5EJ", "United Kingdom"]}, "categories": [{"id": "4bf58dd8d48988d134941735", "name": "Dance Studio", "pluralName": "Dance Studios", "shortName": "Dance Studio", "icon": {"prefix": "https://ss3.4sqi.net/img/categories_v2/arts_entertainment/performingarts_dancestudio_", "suffix": ".png"}, "primary": true}], "photos": {"count": 0, "groups": []}}, "referralId": "e-0-5aeed4c6dd12f8002cf3f76b-1"}, {"reasons": {"count": 0, "items": [{"summary": "This spot is popular", "type": "general", "reasonName": "globalInteractionReason"}]}, "venue": {"id": "5b07c9586e465000390aeaea", "name": "Locking Piece By Henry Moore", "location": {"address": "Riverwalk Gardens", "lat": 51.489426, "lng": -0.12744081, "labeledLatLngs": [{"label": "display", "lat": 51.489426, "lng": -0.12744081}], "distance": 325, "postalCode": "SW1P 4RL", "cc": "GB", "city": "London", "state": "Greater London", "country": "United Kingdom", "formattedAddress": ["Riverwalk Gardens", "London", "Greater London", "SW1P 4RL", "United Kingdom"]}, "categories": [{"id": "52e81612bcbc57f1066b79ed", "name": "Outdoor Sculpture", "pluralName": "Outdoor Sculptures", "shortName": "Outdoor Sculpture", "icon": {"prefix": "https://ss3.4sqi.net/img/categories_v2/parks_outdoors/sculpture_", "suffix": ".png"}, "primary": true}], "photos": {"count": 0, "groups": []}}, "referralId": "e-0-5b07c9586e465000390aeaea-2"}, {"reasons": {"count": 0, "items": [{"summary": "This spot is popular", "type": "general", "reasonName": "globalInteractionReason"}]}, "venue": {"id": "53e12b93498e8db166a365b9", "name": "Reels Cinema Cafe Bar", "location": {"address": "21-24 Millbank", "lat": 51.491893220197646, "lng": -0.12535976646749217, "labeledLatLngs": [{"label": "display", "lat": 51.491893220197646, "lng": -0.12535976646749217}], "distance": 354, "postalCode": "SW1P 4QP", "cc": "GB", "city": "London", "state": "Greater London", "country": "United Kingdom", "formattedAddress": ["21-24 Millbank", "London", "Greater London", "SW1P 4QP", "United Kingdom"]}, "categories": [{"id": "4bf58dd8d48988d17e941735", "name": "Indie Movie Theater", "pluralName": "Indie Movie Theaters", "shortName": "Indie Movies", "icon": {"prefix": "https://ss3.4sqi.net/img/categories_v2/arts_entertainment/movietheater_", "suffix": ".png"}, "primary": true}], "photos": {"count": 0, "groups": []}}, "referralId": "e-0-53e12b93498e8db166a365b9-3"}, {"reasons": {"count": 0, "items": [{"summary": "This spot is popular", "type": "general", "reasonName": "globalInteractionReason"}]}, "venue": {"id": "4cadbb86d1f8b60c4a0271c6", "name": "Clore Gallery", "location": {"address": "Millbank", "crossStreet": "Tate Britain", "lat": 51.49082927846403, "lng": -0.127481961826561, "labeledLatLngs": [{"label": "display", "lat": 51.49082927846403, "lng": -0.127481961826561}], "distance": 376, "postalCode": "SW1P 4RG", "cc": "GB", "city": "London", "state": "Greater London", "country": "United Kingdom", "formattedAddress": ["Millbank (Tate Britain)", "London", "Greater London", "SW1P 4RG", "United Kingdom"]}, "categories": [{"id": "4bf58dd8d48988d1e2931735", "name": "Art Gallery", "pluralName": "Art Galleries", "shortName": "Art Gallery", "icon": {"prefix": "https://ss3.4sqi.net/img/categories_v2/arts_entertainment/artgallery_", "suffix": ".png"}, "primary": true}], "photos": {"count": 0, "groups": []}}, "referralId": "e-0-4cadbb86d1f8b60c4a0271c6-4"}]}]}}