{"meta": {"code": 200, "requestId": "5feddabe499ac81c6062d82d"}, "response": {"suggestedFilters": {"header": "Tap to show:", "filters": [{"name": "Open now", "key": "openNow"}]}, "headerLocation": "Lambeth", "headerFullLocation": "Lambeth, London", "headerLocationGranularity": "neighborhood", "query": "travel", "totalResults": 4, "suggestedBounds": {"ne": {"lat": 51.48364000360001, "lng": -0.11507032171569148}, "sw": {"lat": 51.476439996399996, "lng": -0.12660967828430852}}, "groups": [{"type": "Recommended Places", "name": "recommended", "items": [{"reasons": {"count": 0, "items": [{"summary": "This spot is popular", "type": "general", "reasonName": "globalInteractionReason"}]}, "venue": {"id": "55a220ba498e1d7b3785e3a7", "name": "Holiday Inn Express London - Vauxhall Nine Elms", "location": {"address": "87 South Lambeth Rd", "lat": 51.48108536208466, "lng": -0.12430176493319323, "labeledLatLngs": [{"label": "display", "lat": 51.48108536208466, "lng": -0.12430176493319323}], "distance": 266, "postalCode": "SW8 1RN", "cc": "GB", "city": "London", "state": "Greater London", "country": "United Kingdom", "formattedAddress": ["87 South Lambeth Rd", "London", "Greater London", "SW8 1RN", "United Kingdom"]}, "categories": [{"id": "4bf58dd8d48988d1fa931735", "name": "Hotel", "pluralName": "Hotels", "shortName": "Hotel", "icon": {"prefix": "https://ss3.4sqi.net/img/categories_v2/travel/hotel_", "suffix": ".png"}, "primary": true}], "photos": {"count": 0, "groups": []}}, "referralId": "e-0-55a220ba498e1d7b3785e3a7-0"}, {"reasons": {"count": 0, "items": [{"summary": "This spot is popular", "type": "general", "reasonName": "globalInteractionReason"}]}, "venue": {"id": "59049d4135811b1afa01ad2e", "name": "Best Western Plus Vauxhall Hotel", "location": {"address": "152 Old South Lambeth Road", "lat": 51.48027574395754, "lng": -0.12364225831333897, "labeledLatLngs": [{"label": "display", "lat": 51.48027574395754, "lng": -0.12364225831333897}], "distance": 196, "postalCode": "SW8 1XX", "cc": "GB", "city": "City of London", "state": "Greater London", "country": "United Kingdom", "formattedAddress": ["152 Old South Lambeth Road", "City of London", "Greater London", "SW8 1XX", "United Kingdom"]}, "categories": [{"id": "4bf58dd8d48988d1fa931735", "name": "Hotel", "pluralName": "Hotels", "shortName": "Hotel", "icon": {"prefix": "https://ss3.4sqi.net/img/categories_v2/travel/hotel_", "suffix": ".png"}, "primary": true}], "photos": {"count": 0, "groups": []}}, "referralId": "e-0-59049d4135811b1afa01ad2e-1"}, {"reasons": {"count": 0, "items": [{"summary": "This spot is popular", "type": "general", "reasonName": "globalInteractionReason"}]}, "venue": {"id": "4eb538b54901cef9d86cb7cc", "name": "Thorne Road Bus Stop (S)", "location": {"address": "128 Thorne Road", "crossStreet": "South Lambeth Road", "lat": 51.476858, "lng": -0.123193, "labeledLatLngs": [{"label": "display", "lat": 51.476858, "lng": -0.123193}], "distance": 389, "postalCode": "SW8", "cc": "GB", "city": "London", "state": "Greater London", "country": "United Kingdom", "formattedAddress": ["128 Thorne Road (South Lambeth Road)", "London", "Greater London", " SW8", "United Kingdom"]}, "categories": [{"id": "52f2ab2ebcbc57f1066b8b4f", "name": "Bus Stop", "pluralName": "Bus Stops", "shortName": "Bus Stop", "icon": {"prefix": "https://ss3.4sqi.net/img/categories_v2/travel/busstation_", "suffix": ".png"}, "primary": true}], "photos": {"count": 0, "groups": []}}, "referralId": "e-0-4eb538b54901cef9d86cb7cc-2"}, {"reasons": {"count": 0, "items": [{"summary": "This spot is popular", "type": "general", "reasonName": "globalInteractionReason"}]}, "venue": {"id": "4c5d306c9b28d13ad5eb5870", "name": "Europcar", "location": {"address": "68-86 Clapham Road", "lat": 51.4793625, "lng": -0.1154689, "labeledLatLngs": [{"label": "display", "lat": 51.4793625, "lng": -0.1154689}], "distance": 379, "postalCode": "SW9 0JJ", "cc": "GB", "city": "London", "state": "Greater London", "country": "United Kingdom", "formattedAddress": ["68-86 Clapham Road", "London", "Greater London", "SW9 0JJ", "United Kingdom"]}, "categories": [{"id": "4bf58dd8d48988d1ef941735", "name": "Rental Car Location", "pluralName": "Rental Car Locations", "shortName": "Rental Car", "icon": {"prefix": "https://ss3.4sqi.net/img/categories_v2/shops/airport_rentalcar_", "suffix": ".png"}, "primary": true}], "photos": {"count": 0, "groups": []}}, "referralId": "e-0-4c5d306c9b28d13ad5eb5870-3"}]}]}}