{"meta": {"code": 200, "requestId": "5feddc4dd98e3a6ad101260a"}, "response": {"suggestedFilters": {"header": "Tap to show:", "filters": [{"name": "Open now", "key": "openNow"}]}, "headerLocation": "Waterloo", "headerFullLocation": "Waterloo, London", "headerLocationGranularity": "neighborhood", "query": "food", "totalResults": 77, "suggestedBounds": {"ne": {"lat": 51.50763200360001, "lng": -0.10965228446514975}, "sw": {"lat": 51.500431996399996, "lng": -0.12119771553485024}}, "groups": [{"type": "Recommended Places", "name": "recommended", "items": [{"reasons": {"count": 0, "items": [{"summary": "This spot is popular", "type": "general", "reasonName": "globalInteractionReason"}]}, "venue": {"id": "5bd624623af988002c966b09", "name": "GAIL's Bakery", "location": {"address": "28 York Rd", "lat": 51.50288543411381, "lng": -0.11634867428399269, "labeledLatLngs": [{"label": "display", "lat": 51.50288543411381, "lng": -0.11634867428399269}], "distance": 142, "postalCode": "SE1 7ND", "cc": "GB", "city": "Waterloo", "state": "Greater London", "country": "United Kingdom", "formattedAddress": ["28 York Rd", "Waterloo", "Greater London", "SE1 7ND", "United Kingdom"]}, "categories": [{"id": "4bf58dd8d48988d16a941735", "name": "Bakery", "pluralName": "Bakeries", "shortName": "Bakery", "icon": {"prefix": "https://ss3.4sqi.net/img/categories_v2/food/bakery_", "suffix": ".png"}, "primary": true}], "photos": {"count": 0, "groups": []}}, "referralId": "e-0-5bd624623af988002c966b09-0"}, {"reasons": {"count": 0, "items": [{"summary": "This spot is popular", "type": "general", "reasonName": "globalInteractionReason"}]}, "venue": {"id": "5033e5d1e4b011c548922311", "name": "Brasserie Blanc", "location": {"address": "9 Belvedere Rd", "lat": 51.50580044075621, "lng": -0.1151077287549722, "labeledLatLngs": [{"label": "display", "lat": 51.50580044075621, "lng": -0.1151077287549722}], "distance": 198, "postalCode": "SE1 8YP", "cc": "GB", "city": "London", "state": "Greater London", "country": "United Kingdom", "formattedAddress": ["9 Belvedere Rd", "London", "Greater London", "SE1 8YP", "United Kingdom"]}, "categories": [{"id": "4bf58dd8d48988d10c941735", "name": "French Restaurant", "pluralName": "French Restaurants", "shortName": "French", "icon": {"prefix": "https://ss3.4sqi.net/img/categories_v2/food/french_", "suffix": ".png"}, "primary": true}], "photos": {"count": 0, "groups": []}}, "referralId": "e-0-5033e5d1e4b011c548922311-1"}, {"reasons": {"count": 0, "items": [{"summary": "This spot is popular", "type": "general", "reasonName": "globalInteractionReason"}]}, "venue": {"id": "4adbb0fff964a5200e2a21e3", "name": "Skylon", "location": {"address": "Belvedere Rd", "lat": 51.505998693636236, "lng": -0.11698315007379279, "labeledLatLngs": [{"label": "display", "lat": 51.505998693636236, "lng": -0.11698315007379279}], "distance": 244, "postalCode": "SE1 8XX", "cc": "GB", "city": "London", "state": "Greater London", "country": "United Kingdom", "formattedAddress": ["Belvedere Rd", "London", "Greater London", "SE1 8XX", "United Kingdom"]}, "categories": [{"id": "4bf58dd8d48988d1c4941735", "name": "Restaurant", "pluralName": "Restaurants", "shortName": "Restaurant", "icon": {"prefix": "https://ss3.4sqi.net/img/categories_v2/food/default_", "suffix": ".png"}, "primary": true}], "photos": {"count": 0, "groups": []}, "venuePage": {"id": "34408650"}}, "referralId": "e-0-4adbb0fff964a5200e2a21e3-2"}, {"reasons": {"count": 0, "items": [{"summary": "This spot is popular", "type": "general", "reasonName": "globalInteractionReason"}]}, "venue": {"id": "5c2e38e52f97ec00396c5213", "name": "Spiritland", "location": {"address": "Belvedere Rd", "lat": 51.50559934886189, "lng": -0.11639242235105485, "labeledLatLngs": [{"label": "display", "lat": 51.50559934886189, "lng": -0.11639242235105485}], "distance": 186, "postalCode": "SE1 8XX", "cc": "GB", "city": "London", "state": "Greater London", "country": "United Kingdom", "formattedAddress": ["Belvedere Rd", "London", "Greater London", "SE1 8XX", "United Kingdom"]}, "categories": [{"id": "4bf58dd8d48988d1c4941735", "name": "Restaurant", "pluralName": "Restaurants", "shortName": "Restaurant", "icon": {"prefix": "https://ss3.4sqi.net/img/categories_v2/food/default_", "suffix": ".png"}, "primary": true}], "photos": {"count": 0, "groups": []}}, "referralId": "e-0-5c2e38e52f97ec00396c5213-3"}, {"reasons": {"count": 0, "items": [{"summary": "This spot is popular", "type": "general", "reasonName": "globalInteractionReason"}]}, "venue": {"id": "5a99bc4f95a7222a9d15d51e", "name": "Okan", "location": {"address": "County Hall", "crossStreet": "Belvedere Road", "lat": 51.50204, "lng": -0.11819154, "labeledLatLngs": [{"label": "display", "lat": 51.50204, "lng": -0.11819154}], "distance": 293, "postalCode": "SE1 7GA", "cc": "GB", "city": "London", "state": "Greater London", "country": "United Kingdom", "formattedAddress": ["County Hall (Belvedere Road)", "London", "Greater London", "SE1 7GA", "United Kingdom"]}, "categories": [{"id": "4bf58dd8d48988d111941735", "name": "Japanese Restaurant", "pluralName": "Japanese Restaurants", "shortName": "Japanese", "icon": {"prefix": "https://ss3.4sqi.net/img/categories_v2/food/japanese_", "suffix": ".png"}, "primary": true}], "photos": {"count": 0, "groups": []}}, "referralId": "e-0-5a99bc4f95a7222a9d15d51e-4"}, {"reasons": {"count": 0, "items": [{"summary": "This spot is popular", "type": "general", "reasonName": "globalInteractionReason"}]}, "venue": {"id": "4fdb6829e4b039664cf873f5", "name": "Wahaca", "location": {"address": "Southbank Centre,, Queen Elizabeth Hall, Belvedere Rd", "crossStreet": "Belvedere Rd", "lat": 51.50675035880741, "lng": -0.11612568640448462, "labeledLatLngs": [{"label": "display", "lat": 51.50675035880741, "lng": -0.11612568640448462}], "distance": 306, "postalCode": "SE1 8XX", "cc": "GB", "city": "South Bank", "state": "Greater London", "country": "United Kingdom", "formattedAddress": ["Southbank Centre,, Queen Elizabeth Hall, Belvedere Rd (Belvedere Rd)", "South Bank", "Greater London", "SE1 8XX", "United Kingdom"]}, "categories": [{"id": "4bf58dd8d48988d1c1941735", "name": "Mexican Restaurant", "pluralName": "Mexican Restaurants", "shortName": "Mexican", "icon": {"prefix": "https://ss3.4sqi.net/img/categories_v2/food/mexican_", "suffix": ".png"}, "primary": true}], "photos": {"count": 0, "groups": []}}, "referralId": "e-0-4fdb6829e4b039664cf873f5-5"}, {"reasons": {"count": 0, "items": [{"summary": "This spot is popular", "type": "general", "reasonName": "globalInteractionReason"}]}, "venue": {"id": "5297139711d20f2ed80a54e8", "name": "KORRITO", "location": {"address": "Southbank Centre Sq", "lat": 51.50544959538727, "lng": -0.11629604001486127, "labeledLatLngs": [{"label": "display", "lat": 51.50544959538727, "lng": -0.11629604001486127}], "distance": 168, "postalCode": "SE1 8XX", "cc": "GB", "city": "London", "state": "Greater London", "country": "United Kingdom", "formattedAddress": ["Southbank Centre Sq", "London", "Greater London", "SE1 8XX", "United Kingdom"]}, "categories": [{"id": "4bf58dd8d48988d113941735", "name": "Korean Restaurant", "pluralName": "Korean Restaurants", "shortName": "Korean", "icon": {"prefix": "https://ss3.4sqi.net/img/categories_v2/food/korean_", "suffix": ".png"}, "primary": true}], "photos": {"count": 0, "groups": []}, "venuePage": {"id": "75282165"}}, "referralId": "e-0-5297139711d20f2ed80a54e8-6"}, {"reasons": {"count": 0, "items": [{"summary": "This spot is popular", "type": "general", "reasonName": "globalInteractionReason"}]}, "venue": {"id": "4b83da2df964a520991331e3", "name": "Bagel Factory", "location": {"address": "Waterloo Stn. Concourse", "lat": 51.50310905164344, "lng": -0.11238073975150471, "labeledLatLngs": [{"label": "display", "lat": 51.50310905164344, "lng": -0.11238073975150471}], "distance": 234, "postalCode": "SE1 7LX", "cc": "GB", "city": "Waterloo", "state": "Greater London", "country": "United Kingdom", "formattedAddress": ["Waterloo Stn. Concourse", "Waterloo", "Greater London", "SE1 7LX", "United Kingdom"]}, "categories": [{"id": "4bf58dd8d48988d179941735", "name": "Bagel Shop", "pluralName": "Bagel Shops", "shortName": "Bagels", "icon": {"prefix": "https://ss3.4sqi.net/img/categories_v2/food/bagels_", "suffix": ".png"}, "primary": true}], "photos": {"count": 0, "groups": []}}, "referralId": "e-0-4b83da2df964a520991331e3-7"}, {"reasons": {"count": 0, "items": [{"summary": "This spot is popular", "type": "general", "reasonName": "globalInteractionReason"}]}, "venue": {"id": "4bd07820462cb7137561d807", "name": "wagamama", "location": {"address": "riverside level, royal festival hall, southbank", "lat": 51.5058093, "lng": -0.1174239, "labeledLatLngs": [{"label": "display", "lat": 51.5058093, "lng": -0.1174239}], "distance": 241, "postalCode": "SE1 8XX", "cc": "GB", "city": "Waterloo", "state": "Greater London", "country": "United Kingdom", "formattedAddress": ["riverside level, royal festival hall, southbank", "Waterloo", "Greater London", "SE1 8XX", "United Kingdom"]}, "categories": [{"id": "4bf58dd8d48988d142941735", "name": "Asian Restaurant", "pluralName": "Asian Restaurants", "shortName": "Asian", "icon": {"prefix": "https://ss3.4sqi.net/img/categories_v2/food/asian_", "suffix": ".png"}, "primary": true}], "photos": {"count": 0, "groups": []}}, "referralId": "e-0-4bd07820462cb7137561d807-8"}, {"reasons": {"count": 0, "items": [{"summary": "This spot is popular", "type": "general", "reasonName": "globalInteractionReason"}]}, "venue": {"id": "51865084498e750990bec5ac", "name": "Horn OK Please", "location": {"address": "Southbank Centre Sq", "lat": 51.50535760320381, "lng": -0.1163308389368467, "labeledLatLngs": [{"label": "display", "lat": 51.50535760320381, "lng": -0.1163308389368467}], "distance": 160, "postalCode": "SE1 8XX", "cc": "GB", "neighborhood": "South Bank, London, Greater London", "city": "London", "state": "Greater London", "country": "United Kingdom", "formattedAddress": ["Southbank Centre Sq", "London", "Greater London", "SE1 8XX", "United Kingdom"]}, "categories": [{"id": "4bf58dd8d48988d10f941735", "name": "Indian Restaurant", "pluralName": "Indian Restaurants", "shortName": "Indian", "icon": {"prefix": "https://ss3.4sqi.net/img/categories_v2/food/indian_", "suffix": ".png"}, "primary": true}], "photos": {"count": 0, "groups": []}}, "referralId": "e-0-51865084498e750990bec5ac-9"}, {"reasons": {"count": 0, "items": [{"summary": "This spot is popular", "type": "general", "reasonName": "globalInteractionReason"}]}, "venue": {"id": "5a5dd828628c833187fc3d8e", "name": "Honest Burgers", "location": {"address": "9 Festival Terrace, Southbank", "lat": 51.5053683, "lng": -0.1169535, "labeledLatLngs": [{"label": "display", "lat": 51.5053683, "lng": -0.1169535}], "distance": 182, "postalCode": "SE1 8XX", "cc": "GB", "city": "London", "state": "Greater London", "country": "United Kingdom", "formattedAddress": ["9 Festival Terrace, Southbank", "London", "Greater London", "SE1 8XX", "United Kingdom"]}, "categories": [{"id": "4bf58dd8d48988d16c941735", "name": "Burger Joint", "pluralName": "Burger Joints", "shortName": "Burgers", "icon": {"prefix": "https://ss3.4sqi.net/img/categories_v2/food/burger_", "suffix": ".png"}, "primary": true}], "photos": {"count": 0, "groups": []}}, "referralId": "e-0-5a5dd828628c833187fc3d8e-10"}, {"reasons": {"count": 0, "items": [{"summary": "This spot is popular", "type": "general", "reasonName": "globalInteractionReason"}]}, "venue": {"id": "598c9e340868a228a8301bd2", "name": "Crust Bros Pizza", "location": {"address": "111 Waterloo Rd", "lat": 51.50276752794855, "lng": -0.1104568660224363, "labeledLatLngs": [{"label": "display", "lat": 51.50276752794855, "lng": -0.1104568660224363}], "distance": 371, "postalCode": "SE1 8UL", "cc": "GB", "city": "Waterloo", "state": "Greater London", "country": "United Kingdom", "formattedAddress": ["111 Waterloo Rd", "Waterloo", "Greater London", "SE1 8UL", "United Kingdom"]}, "categories": [{"id": "4bf58dd8d48988d1ca941735", "name": "Pizza Place", "pluralName": "Pizza Places", "shortName": "Pizza", "icon": {"prefix": "https://ss3.4sqi.net/img/categories_v2/food/pizza_", "suffix": ".png"}, "primary": true}], "photos": {"count": 0, "groups": []}}, "referralId": "e-0-598c9e340868a228a8301bd2-11"}, {"reasons": {"count": 0, "items": [{"summary": "This spot is popular", "type": "general", "reasonName": "globalInteractionReason"}]}, "venue": {"id": "51b9e091498e101f9fc7c7d7", "name": "Wahaca", "location": {"address": "119 Waterloo Rd, Bishop's, Bishops", "crossStreet": "at The Cut", "lat": 51.5027358, "lng": -0.1100846, "labeledLatLngs": [{"label": "display", "lat": 51.5027358, "lng": -0.1100846}], "distance": 397, "postalCode": "SE1 8UL", "cc": "GB", "city": "Waterloo", "state": "Greater London", "country": "United Kingdom", "formattedAddress": ["119 Waterloo Rd, Bishop's, Bishops (at The Cut)", "Waterloo", "Greater London", "SE1 8UL", "United Kingdom"]}, "categories": [{"id": "4bf58dd8d48988d1c1941735", "name": "Mexican Restaurant", "pluralName": "Mexican Restaurants", "shortName": "Mexican", "icon": {"prefix": "https://ss3.4sqi.net/img/categories_v2/food/mexican_", "suffix": ".png"}, "primary": true}], "photos": {"count": 0, "groups": []}}, "referralId": "e-0-51b9e091498e101f9fc7c7d7-12"}, {"reasons": {"count": 0, "items": [{"summary": "This spot is popular", "type": "general", "reasonName": "globalInteractionReason"}]}, "venue": {"id": "4e8314b4d22d58ee81e35d81", "name": "Newdlez Pad Thai", "location": {"address": "Tachbrook St Market", "crossStreet": "Tachbrook St", "lat": 51.50122190768591, "lng": -0.1118912330437757, "labeledLatLngs": [{"label": "display", "lat": 51.50122190768591, "lng": -0.1118912330437757}], "distance": 397, "postalCode": "SW1V 2JS", "cc": "GB", "city": "London", "state": "Greater London", "country": "United Kingdom", "formattedAddress": ["Tachbrook St Market (Tachbrook St)", "London", "Greater London", "SW1V 2JS", "United Kingdom"]}, "categories": [{"id": "4bf58dd8d48988d1cb941735", "name": "Food Truck", "pluralName": "Food Trucks", "shortName": "Food Truck", "icon": {"prefix": "https://ss3.4sqi.net/img/categories_v2/food/streetfood_", "suffix": ".png"}, "primary": true}], "photos": {"count": 0, "groups": []}}, "referralId": "e-0-4e8314b4d22d58ee81e35d81-13"}, {"reasons": {"count": 0, "items": [{"summary": "This spot is popular", "type": "general", "reasonName": "globalInteractionReason"}]}, "venue": {"id": "4adb38ddf964a520002521e3", "name": "Le Pain Quotidien", "location": {"address": "Festival Walk", "lat": 51.505478, "lng": -0.117289, "labeledLatLngs": [{"label": "display", "lat": 51.505478, "lng": -0.117289}], "distance": 206, "postalCode": "SE1 8XX", "cc": "GB", "neighborhood": "Southbank", "city": "South Bank", "state": "Greater London", "country": "United Kingdom", "formattedAddress": ["Festival Walk", "South Bank", "Greater London", "SE1 8XX", "United Kingdom"]}, "categories": [{"id": "4bf58dd8d48988d16a941735", "name": "Bakery", "pluralName": "Bakeries", "shortName": "Bakery", "icon": {"prefix": "https://ss3.4sqi.net/img/categories_v2/food/bakery_", "suffix": ".png"}, "primary": true}], "photos": {"count": 0, "groups": []}}, "referralId": "e-0-4adb38ddf964a520002521e3-14"}, {"reasons": {"count": 0, "items": [{"summary": "This spot is popular", "type": "general", "reasonName": "globalInteractionReason"}]}, "venue": {"id": "4c1f4de6b4e62d7f2d65df93", "name": "Chilli \u0421hutney", "location": {"address": "47 York Rd.", "lat": 51.50308135342487, "lng": -0.1158647568350921, "labeledLatLngs": [{"label": "display", "lat": 51.50308135342487, "lng": -0.1158647568350921}], "distance": 110, "postalCode": "SE1 7NJ", "cc": "GB", "city": "London", "state": "Greater London", "country": "United Kingdom", "formattedAddress": ["47 York Rd.", "London", "Greater London", "SE1 7NJ", "United Kingdom"]}, "categories": [{"id": "4bf58dd8d48988d10f941735", "name": "Indian Restaurant", "pluralName": "Indian Restaurants", "shortName": "Indian", "icon": {"prefix": "https://ss3.4sqi.net/img/categories_v2/food/indian_", "suffix": ".png"}, "primary": true}], "photos": {"count": 0, "groups": []}}, "referralId": "e-0-4c1f4de6b4e62d7f2d65df93-15"}, {"reasons": {"count": 0, "items": [{"summary": "This spot is popular", "type": "general", "reasonName": "globalInteractionReason"}]}, "venue": {"id": "58c3fb665a5869779c45ebb3", "name": "Pret A Manger", "location": {"address": "152 Waterloo Road", "lat": 51.5023315, "lng": -0.1104033, "labeledLatLngs": [{"label": "display", "lat": 51.5023315, "lng": -0.1104033}], "distance": 396, "postalCode": "SE1 7AA", "cc": "GB", "city": "London", "state": "Greater London", "country": "United Kingdom", "formattedAddress": ["152 Waterloo Road", "London", "Greater London", "SE1 7AA", "United Kingdom"]}, "categories": [{"id": "4bf58dd8d48988d1c5941735", "name": "Sandwich Place", "pluralName": "Sandwich Places", "shortName": "Sandwiches", "icon": {"prefix": "https://ss3.4sqi.net/img/categories_v2/food/deli_", "suffix": ".png"}, "primary": true}], "photos": {"count": 0, "groups": []}}, "referralId": "e-0-58c3fb665a5869779c45ebb3-16"}, {"reasons": {"count": 0, "items": [{"summary": "This spot is popular", "type": "general", "reasonName": "globalInteractionReason"}]}, "venue": {"id": "4adc5eb1f964a520e32b21e3", "name": "Ping Pong", "location": {"address": "Belvedere Rd", "lat": 51.50530331051285, "lng": -0.1163492915657116, "labeledLatLngs": [{"label": "display", "lat": 51.50530331051285, "lng": -0.1163492915657116}], "distance": 155, "postalCode": "SE1 8XX", "cc": "GB", "neighborhood": "South Bank, London, Greater London", "city": "South Bank", "state": "Greater London", "country": "United Kingdom", "formattedAddress": ["Belvedere Rd", "South Bank", "Greater London", "SE1 8XX", "United Kingdom"]}, "categories": [{"id": "4bf58dd8d48988d1f5931735", "name": "Dim Sum Restaurant", "pluralName": "Dim Sum Restaurants", "shortName": "Dim Sum", "icon": {"prefix": "https://ss3.4sqi.net/img/categories_v2/food/dimsum_", "suffix": ".png"}, "primary": true}], "photos": {"count": 0, "groups": []}}, "referralId": "e-0-4adc5eb1f964a520e32b21e3-17"}, {"reasons": {"count": 0, "items": [{"summary": "This spot is popular", "type": "general", "reasonName": "globalInteractionReason"}]}, "venue": {"id": "5b25626b270ee7002c11755b", "name": "Draughts", "location": {"address": "16 Leake St", "lat": 51.501735331007716, "lng": -0.11537598935060489, "labeledLatLngs": [{"label": "display", "lat": 51.501735331007716, "lng": -0.11537598935060489}], "distance": 255, "postalCode": "SE1 7NN", "cc": "GB", "city": "London", "state": "Greater London", "country": "United Kingdom", "formattedAddress": ["16 Leake St", "London", "Greater London", "SE1 7NN", "United Kingdom"]}, "categories": [{"id": "4bf58dd8d48988d16d941735", "name": "Caf\u00e9", "pluralName": "Caf\u00e9s", "shortName": "Caf\u00e9", "icon": {"prefix": "https://ss3.4sqi.net/img/categories_v2/food/cafe_", "suffix": ".png"}, "primary": true}], "photos": {"count": 0, "groups": []}}, "referralId": "e-0-5b25626b270ee7002c11755b-18"}, {"reasons": {"count": 0, "items": [{"summary": "This spot is popular", "type": "general", "reasonName": "globalInteractionReason"}]}, "venue": {"id": "4b212751f964a520683724e3", "name": "Las Iguanas", "location": {"address": "Belvedere Rd", "crossStreet": "Festival Terrace", "lat": 51.50567818297025, "lng": -0.11746187199605627, "labeledLatLngs": [{"label": "display", "lat": 51.50567818297025, "lng": -0.11746187199605627}], "distance": 231, "postalCode": "SE1 8XX", "cc": "GB", "city": "London", "state": "Greater London", "country": "United Kingdom", "formattedAddress": ["Belvedere Rd (Festival Terrace)", "London", "Greater London", "SE1 8XX", "United Kingdom"]}, "categories": [{"id": "4bf58dd8d48988d1be941735", "name": "Latin American Restaurant", "pluralName": "Latin American Restaurants", "shortName": "Latin American", "icon": {"prefix": "https://ss3.4sqi.net/img/categories_v2/food/latinamerican_", "suffix": ".png"}, "primary": true}], "photos": {"count": 0, "groups": []}}, "referralId": "e-0-4b212751f964a520683724e3-19"}, {"reasons": {"count": 0, "items": [{"summary": "This spot is popular", "type": "general", "reasonName": "globalInteractionReason"}]}, "venue": {"id": "5ac89398598e6406b13aae05", "name": "C\u00f4te Brasserie", "location": {"address": "Royal Festival Hall", "crossStreet": "Festival Terrace", "lat": 51.505523, "lng": -0.11689, "labeledLatLngs": [{"label": "display", "lat": 51.505523, "lng": -0.11689}], "distance": 194, "postalCode": "SE1 8XX", "cc": "GB", "city": "London", "state": "Greater London", "country": "United Kingdom", "formattedAddress": ["Royal Festival Hall (Festival Terrace)", "London", "Greater London", "SE1 8XX", "United Kingdom"]}, "categories": [{"id": "4bf58dd8d48988d10c941735", "name": "French Restaurant", "pluralName": "French Restaurants", "shortName": "French", "icon": {"prefix": "https://ss3.4sqi.net/img/categories_v2/food/french_", "suffix": ".png"}, "primary": true}], "photos": {"count": 0, "groups": []}}, "referralId": "e-0-5ac89398598e6406b13aae05-20"}, {"reasons": {"count": 0, "items": [{"summary": "This spot is popular", "type": "general", "reasonName": "globalInteractionReason"}]}, "venue": {"id": "5de7c22f37d8ed00081938ce", "name": "Pret A Manger", "location": {"lat": 51.506099, "lng": -0.117498, "labeledLatLngs": [{"label": "display", "lat": 51.506099, "lng": -0.117498}], "distance": 271, "postalCode": "SE1 8XZ", "cc": "GB", "city": "London", "state": "Greater London", "country": "United Kingdom", "formattedAddress": ["London", "Greater London", "SE1 8XZ", "United Kingdom"]}, "categories": [{"id": "4bf58dd8d48988d1c5941735", "name": "Sandwich Place", "pluralName": "Sandwich Places", "shortName": "Sandwiches", "icon": {"prefix": "https://ss3.4sqi.net/img/categories_v2/food/deli_", "suffix": ".png"}, "primary": true}], "photos": {"count": 0, "groups": []}}, "referralId": "e-0-5de7c22f37d8ed00081938ce-21"}, {"reasons": {"count": 0, "items": [{"summary": "This spot is popular", "type": "general", "reasonName": "globalInteractionReason"}]}, "venue": {"id": "58ef3b4b610f042e975b6c4d", "name": "Pure", "location": {"address": "Unit 17, Waterloo Station, Waterloo Road", "lat": 51.5036966, "lng": -0.1138102, "labeledLatLngs": [{"label": "display", "lat": 51.5036966, "lng": -0.1138102}], "distance": 117, "postalCode": "SE1 7LY", "cc": "GB", "city": "London", "state": "Greater London", "country": "United Kingdom", "formattedAddress": ["Unit 17, Waterloo Station, Waterloo Road", "London", "Greater London", "SE1 7LY", "United Kingdom"]}, "categories": [{"id": "4bf58dd8d48988d1bd941735", "name": "Salad Place", "pluralName": "Salad Places", "shortName": "Salad", "icon": {"prefix": "https://ss3.4sqi.net/img/categories_v2/food/salad_", "suffix": ".png"}, "primary": true}], "photos": {"count": 0, "groups": []}}, "referralId": "e-0-58ef3b4b610f042e975b6c4d-22"}, {"reasons": {"count": 0, "items": [{"summary": "This spot is popular", "type": "general", "reasonName": "globalInteractionReason"}]}, "venue": {"id": "4bf57e7094af2d7fb6cd3b72", "name": "Terrace Bar & Food", "location": {"address": "Upper Ground", "lat": 51.50735127841561, "lng": -0.11491983565012492, "labeledLatLngs": [{"label": "display", "lat": 51.50735127841561, "lng": -0.11491983565012492}], "distance": 371, "postalCode": "SE1 9PX", "cc": "GB", "city": "London", "state": "Greater London", "country": "United Kingdom", "formattedAddress": ["Upper Ground", "London", "Greater London", "SE1 9PX", "United Kingdom"]}, "categories": [{"id": "4bf58dd8d48988d1c4941735", "name": "Restaurant", "pluralName": "Restaurants", "shortName": "Restaurant", "icon": {"prefix": "https://ss3.4sqi.net/img/categories_v2/food/default_", "suffix": ".png"}, "primary": true}], "photos": {"count": 0, "groups": []}}, "referralId": "e-0-4bf57e7094af2d7fb6cd3b72-23"}, {"reasons": {"count": 0, "items": [{"summary": "This spot is popular", "type": "general", "reasonName": "globalInteractionReason"}]}, "venue": {"id": "4ccc2d3532e776b02c78da27", "name": "Ichi Sushi & Sashimi Bar", "location": {"address": "Park Plaza Westminster Bridge", "lat": 51.50076320898228, "lng": -0.11719686048288887, "labeledLatLngs": [{"label": "display", "lat": 51.50076320898228, "lng": -0.11719686048288887}], "distance": 384, "postalCode": "SE1 7UT", "cc": "GB", "city": "London", "state": "Greater London", "country": "United Kingdom", "formattedAddress": ["Park Plaza Westminster Bridge", "London", "Greater London", "SE1 7UT", "United Kingdom"]}, "categories": [{"id": "4bf58dd8d48988d111941735", "name": "Japanese Restaurant", "pluralName": "Japanese Restaurants", "shortName": "Japanese", "icon": {"prefix": "https://ss3.4sqi.net/img/categories_v2/food/japanese_", "suffix": ".png"}, "primary": true}], "photos": {"count": 0, "groups": []}, "venuePage": {"id": "34898031"}}, "referralId": "e-0-4ccc2d3532e776b02c78da27-24"}, {"reasons": {"count": 0, "items": [{"summary": "This spot is popular", "type": "general", "reasonName": "globalInteractionReason"}]}, "venue": {"id": "5be5dff31f7440002ca8b7aa", "name": "Mamu\u015bka! Polish Kitchen and Bar", "location": {"address": "9 Addington St", "lat": 51.500885, "lng": -0.11516467, "labeledLatLngs": [{"label": "display", "lat": 51.500885, "lng": -0.11516467}], "distance": 350, "postalCode": "SE1 7RY", "cc": "GB", "city": "London", "state": "Greater London", "country": "United Kingdom", "formattedAddress": ["9 Addington St", "London", "Greater London", "SE1 7RY", "United Kingdom"]}, "categories": [{"id": "52e81612bcbc57f1066b7a04", "name": "Polish Restaurant", "pluralName": "Polish Restaurants", "shortName": "Polish", "icon": {"prefix": "https://ss3.4sqi.net/img/categories_v2/food/default_", "suffix": ".png"}, "primary": true}], "photos": {"count": 0, "groups": []}}, "referralId": "e-0-5be5dff31f7440002ca8b7aa-25"}, {"reasons": {"count": 0, "items": [{"summary": "This spot is popular", "type": "general", "reasonName": "globalInteractionReason"}]}, "venue": {"id": "59232d40da2e0075aedbcbac", "name": "The BBQ Club", "location": {"address": "Belvedere Rd", "lat": 51.50718061534491, "lng": -0.11617150183033269, "labeledLatLngs": [{"label": "display", "lat": 51.50718061534491, "lng": -0.11617150183033269}], "distance": 354, "postalCode": "SE1 9PX", "cc": "GB", "neighborhood": "London", "city": "London", "state": "Greater London", "country": "United Kingdom", "formattedAddress": ["Belvedere Rd", "London", "Greater London", "SE1 9PX", "United Kingdom"]}, "categories": [{"id": "4bf58dd8d48988d1df931735", "name": "BBQ Joint", "pluralName": "BBQ Joints", "shortName": "BBQ", "icon": {"prefix": "https://ss3.4sqi.net/img/categories_v2/food/bbqalt_", "suffix": ".png"}, "primary": true}], "photos": {"count": 0, "groups": []}}, "referralId": "e-0-59232d40da2e0075aedbcbac-26"}, {"reasons": {"count": 0, "items": [{"summary": "This spot is popular", "type": "general", "reasonName": "globalInteractionReason"}]}, "venue": {"id": "51d2b9272fc67007b7c05fa6", "name": "Pret A Manger", "location": {"address": "The Lozenge GO1A", "crossStreet": "Main Concourse, Waterloo Station", "lat": 51.503128786127455, "lng": -0.11252164399946897, "labeledLatLngs": [{"label": "display", "lat": 51.503128786127455, "lng": -0.11252164399946897}], "distance": 224, "postalCode": "SE1 7NQ", "cc": "GB", "city": "London", "state": "Greater London", "country": "United Kingdom", "formattedAddress": ["The Lozenge GO1A (Main Concourse, Waterloo Station)", "London", "Greater London", "SE1 7NQ", "United Kingdom"]}, "categories": [{"id": "4bf58dd8d48988d1c5941735", "name": "Sandwich Place", "pluralName": "Sandwich Places", "shortName": "Sandwiches", "icon": {"prefix": "https://ss3.4sqi.net/img/categories_v2/food/deli_", "suffix": ".png"}, "primary": true}], "photos": {"count": 0, "groups": []}}, "referralId": "e-0-51d2b9272fc67007b7c05fa6-27"}, {"reasons": {"count": 0, "items": [{"summary": "This spot is popular", "type": "general", "reasonName": "globalInteractionReason"}]}, "venue": {"id": "4c532062f5f3d13a196cfbf7", "name": "Zen China Restaurant", "location": {"address": "County Hall, Riverside Building", "crossStreet": "Westminster Bridge Road", "lat": 51.502058765191684, "lng": -0.11976850603052665, "labeledLatLngs": [{"label": "display", "lat": 51.502058765191684, "lng": -0.11976850603052665}], "distance": 372, "postalCode": "SE1 7PB", "cc": "GB", "city": "London", "state": "Greater London", "country": "United Kingdom", "formattedAddress": ["County Hall, Riverside Building (Westminster Bridge Road)", "London", "Greater London", "SE1 7PB", "United Kingdom"]}, "categories": [{"id": "4bf58dd8d48988d145941735", "name": "Chinese Restaurant", "pluralName": "Chinese Restaurants", "shortName": "Chinese", "icon": {"prefix": "https://ss3.4sqi.net/img/categories_v2/food/asian_", "suffix": ".png"}, "primary": true}], "photos": {"count": 0, "groups": []}, "venuePage": {"id": "46548194"}}, "referralId": "e-0-4c532062f5f3d13a196cfbf7-28"}, {"reasons": {"count": 0, "items": [{"summary": "This spot is popular", "type": "general", "reasonName": "globalInteractionReason"}]}, "venue": {"id": "4cb9d6f79552b60c7d23d68b", "name": "Brasserie Jo\u00ebl", "location": {"address": "at Park Plaza Westminster Bridge", "lat": 51.50083419630064, "lng": -0.11723935529014833, "labeledLatLngs": [{"label": "display", "lat": 51.50083419630064, "lng": -0.11723935529014833}], "distance": 377, "postalCode": "SE1 7UT", "cc": "GB", "city": "City of Westminster", "state": "Greater London", "country": "United Kingdom", "formattedAddress": ["at Park Plaza Westminster Bridge", "City of Westminster", "Greater London", "SE1 7UT", "United Kingdom"]}, "categories": [{"id": "4bf58dd8d48988d10c941735", "name": "French Restaurant", "pluralName": "French Restaurants", "shortName": "French", "icon": {"prefix": "https://ss3.4sqi.net/img/categories_v2/food/french_", "suffix": ".png"}, "primary": true}], "photos": {"count": 0, "groups": []}, "venuePage": {"id": "34898021"}}, "referralId": "e-0-4cb9d6f79552b60c7d23d68b-29"}, {"reasons": {"count": 0, "items": [{"summary": "This spot is popular", "type": "general", "reasonName": "globalInteractionReason"}]}, "venue": {"id": "4b2f6868f964a52038eb24e3", "name": "Riverside Terrace Caf\u00e9", "location": {"address": "Belvedere Rd", "lat": 51.5060101824139, "lng": -0.11747639651539245, "labeledLatLngs": [{"label": "display", "lat": 51.5060101824139, "lng": -0.11747639651539245}], "distance": 262, "postalCode": "SE1 8XX", "cc": "GB", "city": "London", "state": "Greater London", "country": "United Kingdom", "formattedAddress": ["Belvedere Rd", "London", "Greater London", "SE1 8XX", "United Kingdom"]}, "categories": [{"id": "4bf58dd8d48988d16d941735", "name": "Caf\u00e9", "pluralName": "Caf\u00e9s", "shortName": "Caf\u00e9", "icon": {"prefix": "https://ss3.4sqi.net/img/categories_v2/food/cafe_", "suffix": ".png"}, "primary": true}], "photos": {"count": 0, "groups": []}}, "referralId": "e-0-4b2f6868f964a52038eb24e3-30"}, {"reasons": {"count": 0, "items": [{"summary": "This spot is popular", "type": "general", "reasonName": "globalInteractionReason"}]}, "venue": {"id": "4af96a8df964a520ae1122e3", "name": "West Cornwall Pasty Co", "location": {"address": "Waterloo Station", "lat": 51.50317013551313, "lng": -0.1108972377957325, "labeledLatLngs": [{"label": "display", "lat": 51.50317013551313, "lng": -0.1108972377957325}], "distance": 328, "cc": "GB", "city": "London", "state": "Greater London", "country": "United Kingdom", "formattedAddress": ["Waterloo Station", "London", "Greater London", "United Kingdom"]}, "categories": [{"id": "4bf58dd8d48988d16a941735", "name": "Bakery", "pluralName": "Bakeries", "shortName": "Bakery", "icon": {"prefix": "https://ss3.4sqi.net/img/categories_v2/food/bakery_", "suffix": ".png"}, "primary": true}], "photos": {"count": 0, "groups": []}}, "referralId": "e-0-4af96a8df964a520ae1122e3-31"}, {"reasons": {"count": 0, "items": [{"summary": "This spot is popular", "type": "general", "reasonName": "globalInteractionReason"}]}, "venue": {"id": "4b546e28f964a520ffba27e3", "name": "Coffee Culture", "location": {"address": "49 York Rd", "lat": 51.503048658919134, "lng": -0.11597967181503623, "labeledLatLngs": [{"label": "display", "lat": 51.503048658919134, "lng": -0.11597967181503623}], "distance": 116, "postalCode": "SE1 7NJ", "cc": "GB", "city": "Waterloo", "state": "Greater London", "country": "United Kingdom", "formattedAddress": ["49 York Rd", "Waterloo", "Greater London", "SE1 7NJ", "United Kingdom"]}, "categories": [{"id": "4bf58dd8d48988d143941735", "name": "Breakfast Spot", "pluralName": "Breakfast Spots", "shortName": "Breakfast", "icon": {"prefix": "https://ss3.4sqi.net/img/categories_v2/food/breakfast_", "suffix": ".png"}, "primary": true}], "photos": {"count": 0, "groups": []}}, "referralId": "e-0-4b546e28f964a520ffba27e3-32"}, {"reasons": {"count": 0, "items": [{"summary": "This spot is popular", "type": "general", "reasonName": "globalInteractionReason"}]}, "venue": {"id": "5b049358c9f907002c00662b", "name": "Banh Bao Brothers", "location": {"address": "20 Leake St", "lat": 51.501879, "lng": -0.1158151, "labeledLatLngs": [{"label": "display", "lat": 51.501879, "lng": -0.1158151}], "distance": 241, "postalCode": "SE1 7NN", "cc": "GB", "city": "London", "state": "Greater London", "country": "United Kingdom", "formattedAddress": ["20 Leake St", "London", "Greater London", "SE1 7NN", "United Kingdom"]}, "categories": [{"id": "4bf58dd8d48988d14a941735", "name": "Vietnamese Restaurant", "pluralName": "Vietnamese Restaurants", "shortName": "Vietnamese", "icon": {"prefix": "https://ss3.4sqi.net/img/categories_v2/food/vietnamese_", "suffix": ".png"}, "primary": true}], "photos": {"count": 0, "groups": []}}, "referralId": "e-0-5b049358c9f907002c00662b-33"}, {"reasons": {"count": 0, "items": [{"summary": "This spot is popular", "type": "general", "reasonName": "globalInteractionReason"}]}, "venue": {"id": "4ae35413f964a5207f9321e3", "name": "Giraffe", "location": {"address": "Belvedere Rd", "crossStreet": "Riverside Level 1", "lat": 51.50641993323661, "lng": -0.11726100021303025, "labeledLatLngs": [{"label": "display", "lat": 51.50641993323661, "lng": -0.11726100021303025}], "distance": 294, "postalCode": "SE1 8XX", "cc": "GB", "neighborhood": "Southwa", "city": "London", "state": "Greater London", "country": "United Kingdom", "formattedAddress": ["Belvedere Rd (Riverside Level 1)", "London", "Greater London", "SE1 8XX", "United Kingdom"]}, "categories": [{"id": "4bf58dd8d48988d1c4941735", "name": "Restaurant", "pluralName": "Restaurants", "shortName": "Restaurant", "icon": {"prefix": "https://ss3.4sqi.net/img/categories_v2/food/default_", "suffix": ".png"}, "primary": true}], "photos": {"count": 0, "groups": []}}, "referralId": "e-0-4ae35413f964a5207f9321e3-34"}, {"reasons": {"count": 0, "items": [{"summary": "This spot is popular", "type": "general", "reasonName": "globalInteractionReason"}]}, "venue": {"id": "4f60dcbfe5e8d4902df2c210", "name": "Gillray's Steakhouse & Bar", "location": {"address": "County Hall, Westminster Bridge Road", "lat": 51.501824010633726, "lng": -0.11982061234039655, "labeledLatLngs": [{"label": "display", "lat": 51.501824010633726, "lng": -0.11982061234039655}], "distance": 391, "postalCode": "SE1 7PB", "cc": "GB", "city": "London", "state": "Greater London", "country": "United Kingdom", "formattedAddress": ["County Hall, Westminster Bridge Road", "London", "Greater London", "SE1 7PB", "United Kingdom"]}, "categories": [{"id": "4bf58dd8d48988d1cc941735", "name": "Steakhouse", "pluralName": "Steakhouses", "shortName": "Steakhouse", "icon": {"prefix": "https://ss3.4sqi.net/img/categories_v2/food/steakhouse_", "suffix": ".png"}, "primary": true}], "photos": {"count": 0, "groups": []}, "venuePage": {"id": "39942925"}}, "referralId": "e-0-4f60dcbfe5e8d4902df2c210-35"}, {"reasons": {"count": 0, "items": [{"summary": "This spot is popular", "type": "general", "reasonName": "globalInteractionReason"}]}, "venue": {"id": "53f0b5d2498e01d5d20e401f", "name": "Subway", "location": {"address": "79B Waterloo Road, Arch 133", "crossStreet": "Arch No. 133", "lat": 51.503902, "lng": -0.111601, "labeledLatLngs": [{"label": "display", "lat": 51.503902, "lng": -0.111601}], "distance": 265, "postalCode": "SE1 8UD", "cc": "GB", "city": "London", "country": "United Kingdom", "formattedAddress": ["79B Waterloo Road, Arch 133 (Arch No. 133)", "London", "SE1 8UD", "United Kingdom"]}, "categories": [{"id": "4bf58dd8d48988d1c5941735", "name": "Sandwich Place", "pluralName": "Sandwich Places", "shortName": "Sandwiches", "icon": {"prefix": "https://ss3.4sqi.net/img/categories_v2/food/deli_", "suffix": ".png"}, "primary": true}], "photos": {"count": 0, "groups": []}}, "referralId": "e-0-53f0b5d2498e01d5d20e401f-36"}, {"reasons": {"count": 0, "items": [{"summary": "This spot is popular", "type": "general", "reasonName": "globalInteractionReason"}]}, "venue": {"id": "4ac518bef964a5200ea320e3", "name": "The Archduke", "location": {"address": "153 Concert Hall Approach", "lat": 51.505072571897266, "lng": -0.11594773967664287, "labeledLatLngs": [{"label": "display", "lat": 51.505072571897266, "lng": -0.11594773967664287}], "distance": 121, "postalCode": "SE1 8XU", "cc": "GB", "city": "London", "state": "Greater London", "country": "United Kingdom", "formattedAddress": ["153 Concert Hall Approach", "London", "Greater London", "SE1 8XU", "United Kingdom"]}, "categories": [{"id": "4bf58dd8d48988d1cc941735", "name": "Steakhouse", "pluralName": "Steakhouses", "shortName": "Steakhouse", "icon": {"prefix": "https://ss3.4sqi.net/img/categories_v2/food/steakhouse_", "suffix": ".png"}, "primary": true}], "photos": {"count": 0, "groups": []}}, "referralId": "e-0-4ac518bef964a5200ea320e3-37"}, {"reasons": {"count": 0, "items": [{"summary": "This spot is popular", "type": "general", "reasonName": "globalInteractionReason"}]}, "venue": {"id": "4ae9e00ff964a52036b721e3", "name": "BFI Bar & Kitchen", "location": {"address": "Belvedere Rd", "lat": 51.50677638, "lng": -0.11608347, "labeledLatLngs": [{"label": "display", "lat": 51.50677638, "lng": -0.11608347}], "distance": 308, "postalCode": "SE1 8XT", "cc": "GB", "city": "London", "state": "Greater London", "country": "United Kingdom", "formattedAddress": ["Belvedere Rd", "London", "Greater London", "SE1 8XT", "United Kingdom"]}, "categories": [{"id": "52e81612bcbc57f1066b79f1", "name": "Bistro", "pluralName": "Bistros", "shortName": "Bistro", "icon": {"prefix": "https://ss3.4sqi.net/img/categories_v2/food/default_", "suffix": ".png"}, "primary": true}], "photos": {"count": 0, "groups": []}, "venuePage": {"id": "563578396"}}, "referralId": "e-0-4ae9e00ff964a52036b721e3-38"}, {"reasons": {"count": 0, "items": [{"summary": "This spot is popular", "type": "general", "reasonName": "globalInteractionReason"}]}, "venue": {"id": "4c7cf833f56a37044a480946", "name": "Caprini", "location": {"address": "77 Waterloo Rd", "lat": 51.50406378170506, "lng": -0.11194879566816252, "labeledLatLngs": [{"label": "display", "lat": 51.50406378170506, "lng": -0.11194879566816252}], "distance": 240, "postalCode": "SE1 8UD", "cc": "GB", "city": "London", "state": "Greater London", "country": "United Kingdom", "formattedAddress": ["77 Waterloo Rd", "London", "Greater London", "SE1 8UD", "United Kingdom"]}, "categories": [{"id": "4bf58dd8d48988d110941735", "name": "Italian Restaurant", "pluralName": "Italian Restaurants", "shortName": "Italian", "icon": {"prefix": "https://ss3.4sqi.net/img/categories_v2/food/italian_", "suffix": ".png"}, "primary": true}], "photos": {"count": 0, "groups": []}}, "referralId": "e-0-4c7cf833f56a37044a480946-39"}, {"reasons": {"count": 0, "items": [{"summary": "This spot is popular", "type": "general", "reasonName": "globalInteractionReason"}]}, "venue": {"id": "4ac518dff964a520f8a920e3", "name": "Troia Bar & Restaurant", "location": {"address": "3F Belvedere Rd", "crossStreet": "County Hall", "lat": 51.50216017007904, "lng": -0.11795204484567975, "labeledLatLngs": [{"label": "display", "lat": 51.50216017007904, "lng": -0.11795204484567975}], "distance": 272, "postalCode": "SE1 7GQ", "cc": "GB", "city": "London", "state": "Greater London", "country": "United Kingdom", "formattedAddress": ["3F Belvedere Rd (County Hall)", "London", "Greater London", "SE1 7GQ", "United Kingdom"]}, "categories": [{"id": "4f04af1f2fb6e1c99f3db0bb", "name": "Turkish Restaurant", "pluralName": "Turkish Restaurants", "shortName": "Turkish", "icon": {"prefix": "https://ss3.4sqi.net/img/categories_v2/food/turkish_", "suffix": ".png"}, "primary": true}], "photos": {"count": 0, "groups": []}}, "referralId": "e-0-4ac518dff964a520f8a920e3-40"}, {"reasons": {"count": 0, "items": [{"summary": "This spot is popular", "type": "general", "reasonName": "globalInteractionReason"}]}, "venue": {"id": "4adccfcbf964a520193021e3", "name": "Strada", "location": {"address": "Belvedere Rd", "crossStreet": "Riverside Level 1", "lat": 51.505942197961346, "lng": -0.11778137704823165, "labeledLatLngs": [{"label": "display", "lat": 51.505942197961346, "lng": -0.11778137704823165}], "distance": 268, "postalCode": "SE1 8XX", "cc": "GB", "city": "London", "state": "Greater London", "country": "United Kingdom", "formattedAddress": ["Belvedere Rd (Riverside Level 1)", "London", "Greater London", "SE1 8XX", "United Kingdom"]}, "categories": [{"id": "4bf58dd8d48988d110941735", "name": "Italian Restaurant", "pluralName": "Italian Restaurants", "shortName": "Italian", "icon": {"prefix": "https://ss3.4sqi.net/img/categories_v2/food/italian_", "suffix": ".png"}, "primary": true}], "photos": {"count": 0, "groups": []}}, "referralId": "e-0-4adccfcbf964a520193021e3-41"}, {"reasons": {"count": 0, "items": [{"summary": "This spot is popular", "type": "general", "reasonName": "globalInteractionReason"}]}, "venue": {"id": "5e495abb7ed26b000838553f", "name": "KFC", "location": {"address": "3 Mepham St", "lat": 51.503996, "lng": -0.114025, "labeledLatLngs": [{"label": "display", "lat": 51.503996, "lng": -0.114025}], "distance": 97, "postalCode": "SE1 8FS", "cc": "GB", "city": "London", "state": "Greater London", "country": "United Kingdom", "formattedAddress": ["3 Mepham St", "London", "Greater London", "SE1 8FS", "United Kingdom"]}, "categories": [{"id": "4bf58dd8d48988d16e941735", "name": "Fast Food Restaurant", "pluralName": "Fast Food Restaurants", "shortName": "Fast Food", "icon": {"prefix": "https://ss3.4sqi.net/img/categories_v2/food/fastfood_", "suffix": ".png"}, "primary": true}], "photos": {"count": 0, "groups": []}, "venuePage": {"id": "583734386"}}, "referralId": "e-0-5e495abb7ed26b000838553f-42"}, {"reasons": {"count": 0, "items": [{"summary": "This spot is popular", "type": "general", "reasonName": "globalInteractionReason"}]}, "venue": {"id": "53d2a572498e4febaf203562", "name": "House Restaurant", "location": {"address": "Upper Ground", "lat": 51.5074138788881, "lng": -0.11484337872252376, "labeledLatLngs": [{"label": "display", "lat": 51.5074138788881, "lng": -0.11484337872252376}], "distance": 378, "postalCode": "SE1 9PX", "cc": "GB", "city": "London", "state": "Greater London", "country": "United Kingdom", "formattedAddress": ["Upper Ground", "London", "Greater London", "SE1 9PX", "United Kingdom"]}, "categories": [{"id": "52e81612bcbc57f1066b79f9", "name": "Modern European Restaurant", "pluralName": "Modern European Restaurants", "shortName": "Modern European", "icon": {"prefix": "https://ss3.4sqi.net/img/categories_v2/food/default_", "suffix": ".png"}, "primary": true}], "photos": {"count": 0, "groups": []}}, "referralId": "e-0-53d2a572498e4febaf203562-43"}, {"reasons": {"count": 0, "items": [{"summary": "This spot is popular", "type": "general", "reasonName": "globalInteractionReason"}]}, "venue": {"id": "4b9fb129f964a5205e3537e3", "name": "Wasabi", "location": {"address": "Waterloo Station", "lat": 51.502840979386455, "lng": -0.11192427036494151, "labeledLatLngs": [{"label": "display", "lat": 51.502840979386455, "lng": -0.11192427036494151}], "distance": 276, "postalCode": "SE1 8SW", "cc": "GB", "city": "London", "state": "Greater London", "country": "United Kingdom", "formattedAddress": ["Waterloo Station", "London", "Greater London", "SE1 8SW", "United Kingdom"]}, "categories": [{"id": "4bf58dd8d48988d1d2941735", "name": "Sushi Restaurant", "pluralName": "Sushi Restaurants", "shortName": "Sushi", "icon": {"prefix": "https://ss3.4sqi.net/img/categories_v2/food/sushi_", "suffix": ".png"}, "primary": true}], "photos": {"count": 0, "groups": []}}, "referralId": "e-0-4b9fb129f964a5205e3537e3-44"}, {"reasons": {"count": 0, "items": [{"summary": "This spot is popular", "type": "general", "reasonName": "globalInteractionReason"}]}, "venue": {"id": "4c08c480009a0f473d99e6bf", "name": "Greggs", "location": {"address": "109 Lower Marsh St", "lat": 51.500945, "lng": -0.112496, "labeledLatLngs": [{"label": "display", "lat": 51.500945, "lng": -0.112496}], "distance": 399, "postalCode": "SE1 7AB", "cc": "GB", "city": "London", "state": "Greater London", "country": "United Kingdom", "formattedAddress": ["109 Lower Marsh St", "London", "Greater London", "SE1 7AB", "United Kingdom"]}, "categories": [{"id": "4bf58dd8d48988d16a941735", "name": "Bakery", "pluralName": "Bakeries", "shortName": "Bakery", "icon": {"prefix": "https://ss3.4sqi.net/img/categories_v2/food/bakery_", "suffix": ".png"}, "primary": true}], "photos": {"count": 0, "groups": []}}, "referralId": "e-0-4c08c480009a0f473d99e6bf-45"}, {"reasons": {"count": 0, "items": [{"summary": "This spot is popular", "type": "general", "reasonName": "globalInteractionReason"}]}, "venue": {"id": "4b5487a9f964a520bfbe27e3", "name": "Upper Crust", "location": {"address": "London Waterloo Station (WAT)", "lat": 51.50310515364019, "lng": -0.11274691813154415, "labeledLatLngs": [{"label": "display", "lat": 51.50310515364019, "lng": -0.11274691813154415}], "distance": 212, "postalCode": "SE1 8SW", "cc": "GB", "city": "London", "state": "Greater London", "country": "United Kingdom", "formattedAddress": ["London Waterloo Station (WAT)", "London", "Greater London", "SE1 8SW", "United Kingdom"]}, "categories": [{"id": "4bf58dd8d48988d1c5941735", "name": "Sandwich Place", "pluralName": "Sandwich Places", "shortName": "Sandwiches", "icon": {"prefix": "https://ss3.4sqi.net/img/categories_v2/food/deli_", "suffix": ".png"}, "primary": true}], "photos": {"count": 0, "groups": []}}, "referralId": "e-0-4b5487a9f964a520bfbe27e3-46"}, {"reasons": {"count": 0, "items": [{"summary": "This spot is popular", "type": "general", "reasonName": "globalInteractionReason"}]}, "venue": {"id": "52bc785811d2597ff615cd1c", "name": "Great British Fish & Chips", "location": {"address": "County Hall - Riverside Building, Westminster Bridge Road", "lat": 51.5025920206542, "lng": -0.11958490374459187, "labeledLatLngs": [{"label": "display", "lat": 51.5025920206542, "lng": -0.11958490374459187}], "distance": 329, "postalCode": "SE1 7PB", "cc": "GB", "city": "London", "state": "Greater London", "country": "United Kingdom", "formattedAddress": ["County Hall - Riverside Building, Westminster Bridge Road", "London", "Greater London", "SE1 7PB", "United Kingdom"]}, "categories": [{"id": "4edd64a0c7ddd24ca188df1a", "name": "Fish & Chips Shop", "pluralName": "Fish & Chips Shops", "shortName": "Fish & Chips", "icon": {"prefix": "https://ss3.4sqi.net/img/categories_v2/food/fishandchips_", "suffix": ".png"}, "primary": true}], "photos": {"count": 0, "groups": []}, "venuePage": {"id": "86529831"}}, "referralId": "e-0-52bc785811d2597ff615cd1c-47"}, {"reasons": {"count": 0, "items": [{"summary": "This spot is popular", "type": "general", "reasonName": "globalInteractionReason"}]}, "venue": {"id": "4bb9dab81261d13aa9e6e998", "name": "Fishcotheque", "location": {"address": "79A Waterloo Rd", "lat": 51.50396655481911, "lng": -0.11188035732393523, "labeledLatLngs": [{"label": "display", "lat": 51.50396655481911, "lng": -0.11188035732393523}], "distance": 245, "postalCode": "SE1 8UD", "cc": "GB", "city": "London", "state": "Greater London", "country": "United Kingdom", "formattedAddress": ["79A Waterloo Rd", "London", "Greater London", "SE1 8UD", "United Kingdom"]}, "categories": [{"id": "4edd64a0c7ddd24ca188df1a", "name": "Fish & Chips Shop", "pluralName": "Fish & Chips Shops", "shortName": "Fish & Chips", "icon": {"prefix": "https://ss3.4sqi.net/img/categories_v2/food/fishandchips_", "suffix": ".png"}, "primary": true}], "photos": {"count": 0, "groups": []}}, "referralId": "e-0-4bb9dab81261d13aa9e6e998-48"}, {"reasons": {"count": 0, "items": [{"summary": "This spot is popular", "type": "general", "reasonName": "globalInteractionReason"}]}, "venue": {"id": "4b0e8ff0f964a5207f5823e3", "name": "PizzaExpress", "location": {"address": "Unit 3 The White House, 9c Belvedere Road", "crossStreet": "9c Belvedere Rd", "lat": 51.5056361, "lng": -0.1151426, "labeledLatLngs": [{"label": "display", "lat": 51.5056361, "lng": -0.1151426}], "distance": 179, "postalCode": "SE1 8YP", "cc": "GB", "city": "London", "state": "Greater London", "country": "United Kingdom", "formattedAddress": ["Unit 3 The White House, 9c Belvedere Road (9c Belvedere Rd)", "London", "Greater London", "SE1 8YP", "United Kingdom"]}, "categories": [{"id": "4bf58dd8d48988d1ca941735", "name": "Pizza Place", "pluralName": "Pizza Places", "shortName": "Pizza", "icon": {"prefix": "https://ss3.4sqi.net/img/categories_v2/food/pizza_", "suffix": ".png"}, "primary": true}], "photos": {"count": 0, "groups": []}}, "referralId": "e-0-4b0e8ff0f964a5207f5823e3-49"}, {"reasons": {"count": 0, "items": [{"summary": "This spot is popular", "type": "general", "reasonName": "globalInteractionReason"}]}, "venue": {"id": "4b6b2cf2f964a520a1f72be3", "name": "The Thames Restaurant", "location": {"address": "79 Waterloo Rd", "lat": 51.50394774265021, "lng": -0.11190870127239948, "labeledLatLngs": [{"label": "display", "lat": 51.50394774265021, "lng": -0.11190870127239948}], "distance": 243, "postalCode": "SE1 8UD", "cc": "GB", "city": "London", "state": "Greater London", "country": "United Kingdom", "formattedAddress": ["79 Waterloo Rd", "London", "Greater London", "SE1 8UD", "United Kingdom"]}, "categories": [{"id": "4bf58dd8d48988d10f941735", "name": "Indian Restaurant", "pluralName": "Indian Restaurants", "shortName": "Indian", "icon": {"prefix": "https://ss3.4sqi.net/img/categories_v2/food/indian_", "suffix": ".png"}, "primary": true}], "photos": {"count": 0, "groups": []}}, "referralId": "e-0-4b6b2cf2f964a520a1f72be3-50"}, {"reasons": {"count": 0, "items": [{"summary": "This spot is popular", "type": "general", "reasonName": "globalInteractionReason"}]}, "venue": {"id": "59ce9d03a9fe123f1c751edc", "name": "Hannah Japanese Restaurant", "location": {"address": "Belvedere Road", "crossStreet": "Westminster", "lat": 51.501374, "lng": -0.118479, "labeledLatLngs": [{"label": "display", "lat": 51.501374, "lng": -0.118479}], "distance": 363, "postalCode": "SE1 7GL", "cc": "GB", "city": "London", "state": "Greater London", "country": "United Kingdom", "formattedAddress": ["Belvedere Road (Westminster)", "London", "Greater London", "SE1 7GL", "United Kingdom"]}, "categories": [{"id": "4bf58dd8d48988d111941735", "name": "Japanese Restaurant", "pluralName": "Japanese Restaurants", "shortName": "Japanese", "icon": {"prefix": "https://ss3.4sqi.net/img/categories_v2/food/japanese_", "suffix": ".png"}, "primary": true}], "photos": {"count": 0, "groups": []}, "venuePage": {"id": "531394247"}}, "referralId": "e-0-59ce9d03a9fe123f1c751edc-51"}, {"reasons": {"count": 0, "items": [{"summary": "This spot is popular", "type": "general", "reasonName": "globalInteractionReason"}]}, "venue": {"id": "4b5711e0f964a520312528e3", "name": "Madeira Caf\u00e9", "location": {"address": "1 Wootton St", "lat": 51.50365397008844, "lng": -0.11025960641269787, "labeledLatLngs": [{"label": "display", "lat": 51.50365397008844, "lng": -0.11025960641269787}], "distance": 360, "postalCode": "SE1 8TG", "cc": "GB", "city": "Waterloo", "state": "Greater London", "country": "United Kingdom", "formattedAddress": ["1 Wootton St", "Waterloo", "Greater London", "SE1 8TG", "United Kingdom"]}, "categories": [{"id": "4bf58dd8d48988d1c5941735", "name": "Sandwich Place", "pluralName": "Sandwich Places", "shortName": "Sandwiches", "icon": {"prefix": "https://ss3.4sqi.net/img/categories_v2/food/deli_", "suffix": ".png"}, "primary": true}], "photos": {"count": 0, "groups": []}}, "referralId": "e-0-4b5711e0f964a520312528e3-52"}, {"reasons": {"count": 0, "items": [{"summary": "This spot is popular", "type": "general", "reasonName": "globalInteractionReason"}]}, "venue": {"id": "4b9b933ff964a520a21036e3", "name": "Neds Noodle Bar", "location": {"address": "3E Belvedere Rd", "lat": 51.50211929729182, "lng": -0.11797101793820089, "labeledLatLngs": [{"label": "display", "lat": 51.50211929729182, "lng": -0.11797101793820089}], "distance": 276, "postalCode": "SE1 7GQ", "cc": "GB", "city": "London", "state": "Greater London", "country": "United Kingdom", "formattedAddress": ["3E Belvedere Rd", "London", "Greater London", "SE1 7GQ", "United Kingdom"]}, "categories": [{"id": "4bf58dd8d48988d1d1941735", "name": "Noodle House", "pluralName": "Noodle Houses", "shortName": "Noodles", "icon": {"prefix": "https://ss3.4sqi.net/img/categories_v2/food/ramen_", "suffix": ".png"}, "primary": true}], "photos": {"count": 0, "groups": []}}, "referralId": "e-0-4b9b933ff964a520a21036e3-53"}, {"reasons": {"count": 0, "items": [{"summary": "This spot is popular", "type": "general", "reasonName": "globalInteractionReason"}]}, "venue": {"id": "57a5ed58498ea30d907d947c", "name": "Westminster Kitchen", "location": {"address": "3A/B Belvedere Rd", "lat": 51.50128237657213, "lng": -0.11827770107932434, "labeledLatLngs": [{"label": "display", "lat": 51.50128237657213, "lng": -0.11827770107932434}], "distance": 364, "postalCode": "SE1 7GP", "cc": "GB", "neighborhood": "Lambeth, London, Greater London", "city": "London", "state": "Greater London", "country": "United Kingdom", "formattedAddress": ["3A/B Belvedere Rd", "London", "Greater London", "SE1 7GP", "United Kingdom"]}, "categories": [{"id": "4bf58dd8d48988d1c4941735", "name": "Restaurant", "pluralName": "Restaurants", "shortName": "Restaurant", "icon": {"prefix": "https://ss3.4sqi.net/img/categories_v2/food/default_", "suffix": ".png"}, "primary": true}], "photos": {"count": 0, "groups": []}}, "referralId": "e-0-57a5ed58498ea30d907d947c-54"}, {"reasons": {"count": 0, "items": [{"summary": "This spot is popular", "type": "general", "reasonName": "globalInteractionReason"}]}, "venue": {"id": "4bd17e98caff95212fb7d0f0", "name": "Zen Cafe", "location": {"lat": 51.50289113287021, "lng": -0.11965914968737774, "labeledLatLngs": [{"label": "display", "lat": 51.50289113287021, "lng": -0.11965914968737774}], "distance": 319, "cc": "GB", "city": "London", "state": "Greater London", "country": "United Kingdom", "formattedAddress": ["South Bank", "Greater London", "United Kingdom"]}, "categories": [{"id": "4bf58dd8d48988d16d941735", "name": "Caf\u00e9", "pluralName": "Caf\u00e9s", "shortName": "Caf\u00e9", "icon": {"prefix": "https://ss3.4sqi.net/img/categories_v2/food/cafe_", "suffix": ".png"}, "primary": true}], "photos": {"count": 0, "groups": []}}, "referralId": "e-0-4bd17e98caff95212fb7d0f0-55"}, {"reasons": {"count": 0, "items": [{"summary": "This spot is popular", "type": "general", "reasonName": "globalInteractionReason"}]}, "venue": {"id": "51b0dfae498e9bf700f825ab", "name": "Gourmet Burger Kitchen", "location": {"address": "119A Waterloo Rd", "lat": 51.5026637, "lng": -0.1102004, "labeledLatLngs": [{"label": "display", "lat": 51.5026637, "lng": -0.1102004}], "distance": 392, "postalCode": "SE1 8UL", "cc": "GB", "city": "Waterloo", "state": "Greater London", "country": "United Kingdom", "formattedAddress": ["119A Waterloo Rd", "Waterloo", "Greater London", "SE1 8UL", "United Kingdom"]}, "categories": [{"id": "4bf58dd8d48988d16c941735", "name": "Burger Joint", "pluralName": "Burger Joints", "shortName": "Burgers", "icon": {"prefix": "https://ss3.4sqi.net/img/categories_v2/food/burger_", "suffix": ".png"}, "primary": true}], "photos": {"count": 0, "groups": []}}, "referralId": "e-0-51b0dfae498e9bf700f825ab-56"}, {"reasons": {"count": 0, "items": [{"summary": "This spot is popular", "type": "general", "reasonName": "globalInteractionReason"}]}, "venue": {"id": "59f5bc77c666666b3161d09d", "name": "The Frenchie", "location": {"address": "Southbank Centre Sq", "lat": 51.505406, "lng": -0.116646, "labeledLatLngs": [{"label": "display", "lat": 51.505406, "lng": -0.116646}], "distance": 174, "postalCode": "SE1 8XX", "cc": "GB", "city": "London", "state": "Greater London", "country": "United Kingdom", "formattedAddress": ["Southbank Centre Sq", "London", "Greater London", "SE1 8XX", "United Kingdom"]}, "categories": [{"id": "56aa371be4b08b9a8d57350b", "name": "Food Stand", "pluralName": "Food Stands", "shortName": "Food Stand", "icon": {"prefix": "https://ss3.4sqi.net/img/categories_v2/travel/movingtarget_", "suffix": ".png"}, "primary": true}], "photos": {"count": 0, "groups": []}}, "referralId": "e-0-59f5bc77c666666b3161d09d-57"}, {"reasons": {"count": 0, "items": [{"summary": "This spot is popular", "type": "general", "reasonName": "globalInteractionReason"}]}, "venue": {"id": "563636f4498ef830830f0e36", "name": "Spit & Roast", "location": {"address": "Southbank Centre Sq", "lat": 51.50558385576479, "lng": -0.11600017547607422, "labeledLatLngs": [{"label": "display", "lat": 51.50558385576479, "lng": -0.11600017547607422}], "distance": 177, "postalCode": "SE1 8XX", "cc": "GB", "neighborhood": "South Bank, London, Greater London", "city": "London", "state": "Greater London", "country": "United Kingdom", "formattedAddress": ["Southbank Centre Sq", "London", "Greater London", "SE1 8XX", "United Kingdom"]}, "categories": [{"id": "4d4ae6fc7a7b7dea34424761", "name": "Fried Chicken Joint", "pluralName": "Fried Chicken Joints", "shortName": "Fried Chicken", "icon": {"prefix": "https://ss3.4sqi.net/img/categories_v2/food/friedchicken_", "suffix": ".png"}, "primary": true}], "photos": {"count": 0, "groups": []}}, "referralId": "e-0-563636f4498ef830830f0e36-58"}, {"reasons": {"count": 0, "items": [{"summary": "This spot is popular", "type": "general", "reasonName": "globalInteractionReason"}]}, "venue": {"id": "51572891e4b08b1cda5756f4", "name": "L'Italiano", "location": {"address": "Park Plaza County Hall", "crossStreet": "1 Addington St", "lat": 51.501174518056544, "lng": -0.11624451307722783, "labeledLatLngs": [{"label": "display", "lat": 51.501174518056544, "lng": -0.11624451307722783}], "distance": 323, "postalCode": "SE1 7RY", "cc": "GB", "city": "Waterloo", "state": "Greater London", "country": "United Kingdom", "formattedAddress": ["Park Plaza County Hall (1 Addington St)", "Waterloo", "Greater London", "SE1 7RY", "United Kingdom"]}, "categories": [{"id": "4bf58dd8d48988d110941735", "name": "Italian Restaurant", "pluralName": "Italian Restaurants", "shortName": "Italian", "icon": {"prefix": "https://ss3.4sqi.net/img/categories_v2/food/italian_", "suffix": ".png"}, "primary": true}], "photos": {"count": 0, "groups": []}}, "referralId": "e-0-51572891e4b08b1cda5756f4-59"}, {"reasons": {"count": 0, "items": [{"summary": "This spot is popular", "type": "general", "reasonName": "globalInteractionReason"}]}, "venue": {"id": "4c63b33b58810f470c5b0a1e", "name": "YO! Sushi", "location": {"address": "Unit 3 Festival Riverside, Royal Festival Hall, Southbank Centre", "crossStreet": "Southbank Centre", "lat": 51.50620180431136, "lng": -0.11713450543265935, "labeledLatLngs": [{"label": "display", "lat": 51.50620180431136, "lng": -0.11713450543265935}], "distance": 269, "postalCode": "SE1 8XX", "cc": "GB", "neighborhood": "London", "city": "London", "state": "Greater London", "country": "United Kingdom", "formattedAddress": ["Unit 3 Festival Riverside, Royal Festival Hall, Southbank Centre (Southbank Centre)", "London", "Greater London", "SE1 8XX", "United Kingdom"]}, "categories": [{"id": "4bf58dd8d48988d1d2941735", "name": "Sushi Restaurant", "pluralName": "Sushi Restaurants", "shortName": "Sushi", "icon": {"prefix": "https://ss3.4sqi.net/img/categories_v2/food/sushi_", "suffix": ".png"}, "primary": true}], "photos": {"count": 0, "groups": []}}, "referralId": "e-0-4c63b33b58810f470c5b0a1e-60"}, {"reasons": {"count": 0, "items": [{"summary": "This spot is popular", "type": "general", "reasonName": "globalInteractionReason"}]}, "venue": {"id": "5cd47f2201bc5a002c51ddec", "name": "Truffle Burgers", "location": {"lat": 51.505558, "lng": -0.11814058, "labeledLatLngs": [{"label": "display", "lat": 51.505558, "lng": -0.11814058}], "distance": 253, "postalCode": "SE1 8XX", "cc": "GB", "neighborhood": "London", "country": "United Kingdom", "formattedAddress": ["SE1 8XX", "United Kingdom"]}, "categories": [{"id": "4bf58dd8d48988d16c941735", "name": "Burger Joint", "pluralName": "Burger Joints", "shortName": "Burgers", "icon": {"prefix": "https://ss3.4sqi.net/img/categories_v2/food/burger_", "suffix": ".png"}, "primary": true}], "photos": {"count": 0, "groups": []}}, "referralId": "e-0-5cd47f2201bc5a002c51ddec-61"}, {"reasons": {"count": 0, "items": [{"summary": "This spot is popular", "type": "general", "reasonName": "globalInteractionReason"}]}, "venue": {"id": "5ce5add3121384002cb4e296", "name": "Applebee\u2019s Fish", "location": {"lat": 51.505699, "lng": -0.118027, "labeledLatLngs": [{"label": "display", "lat": 51.505699, "lng": -0.118027}], "distance": 258, "postalCode": "SE1 8XZ", "cc": "GB", "city": "London", "state": "Greater London", "country": "United Kingdom", "formattedAddress": ["London", "Greater London", "SE1 8XZ", "United Kingdom"]}, "categories": [{"id": "4edd64a0c7ddd24ca188df1a", "name": "Fish & Chips Shop", "pluralName": "Fish & Chips Shops", "shortName": "Fish & Chips", "icon": {"prefix": "https://ss3.4sqi.net/img/categories_v2/food/fishandchips_", "suffix": ".png"}, "primary": true}], "photos": {"count": 0, "groups": []}}, "referralId": "e-0-5ce5add3121384002cb4e296-62"}, {"reasons": {"count": 0, "items": [{"summary": "This spot is popular", "type": "general", "reasonName": "globalInteractionReason"}]}, "venue": {"id": "5943d372ea1e442b832822af", "name": "Oh My Dog!", "location": {"lat": 51.505398, "lng": -0.118557, "labeledLatLngs": [{"label": "display", "lat": 51.505398, "lng": -0.118557}], "distance": 264, "postalCode": "SE1 8XX", "cc": "GB", "city": "London", "state": "Greater London", "country": "United Kingdom", "formattedAddress": ["London", "Greater London", "SE1 8XX", "United Kingdom"]}, "categories": [{"id": "4bf58dd8d48988d16f941735", "name": "Hot Dog Joint", "pluralName": "Hot Dog Joints", "shortName": "Hot Dogs", "icon": {"prefix": "https://ss3.4sqi.net/img/categories_v2/food/hotdog_", "suffix": ".png"}, "primary": true}], "photos": {"count": 0, "groups": []}}, "referralId": "e-0-5943d372ea1e442b832822af-63"}, {"reasons": {"count": 0, "items": [{"summary": "This spot is popular", "type": "general", "reasonName": "globalInteractionReason"}]}, "venue": {"id": "4ba1f576f964a5209dd337e3", "name": "Delice de France", "location": {"address": "Waterloo Station", "lat": 51.502908272082855, "lng": -0.11198779961017627, "labeledLatLngs": [{"label": "display", "lat": 51.502908272082855, "lng": -0.11198779961017627}], "distance": 269, "cc": "GB", "city": "London", "state": "Greater London", "country": "United Kingdom", "formattedAddress": ["Waterloo Station", "London", "Greater London", "United Kingdom"]}, "categories": [{"id": "4bf58dd8d48988d16a941735", "name": "Bakery", "pluralName": "Bakeries", "shortName": "Bakery", "icon": {"prefix": "https://ss3.4sqi.net/img/categories_v2/food/bakery_", "suffix": ".png"}, "primary": true}], "photos": {"count": 0, "groups": []}}, "referralId": "e-0-4ba1f576f964a5209dd337e3-64"}, {"reasons": {"count": 0, "items": [{"summary": "This spot is popular", "type": "general", "reasonName": "globalInteractionReason"}]}, "venue": {"id": "50254acae4b0a32dd887ec16", "name": "Carluccio's", "location": {"address": "Unit 16/17, The Balcony", "crossStreet": "Waterloo Station", "lat": 51.502843034462565, "lng": -0.11181683329005393, "labeledLatLngs": [{"label": "display", "lat": 51.502843034462565, "lng": -0.11181683329005393}], "distance": 282, "postalCode": "SE1 7LY", "cc": "GB", "city": "London", "state": "Greater London", "country": "United Kingdom", "formattedAddress": ["Unit 16/17, The Balcony (Waterloo Station)", "London", "Greater London", "SE1 7LY", "United Kingdom"]}, "categories": [{"id": "4bf58dd8d48988d110941735", "name": "Italian Restaurant", "pluralName": "Italian Restaurants", "shortName": "Italian", "icon": {"prefix": "https://ss3.4sqi.net/img/categories_v2/food/italian_", "suffix": ".png"}, "primary": true}], "photos": {"count": 0, "groups": []}}, "referralId": "e-0-50254acae4b0a32dd887ec16-65"}, {"reasons": {"count": 0, "items": [{"summary": "This spot is popular", "type": "general", "reasonName": "globalInteractionReason"}]}, "venue": {"id": "4b7564f8f964a5201e0a2ee3", "name": "Locale", "location": {"address": "3b Belvedere Rd", "crossStreet": "County Hall", "lat": 51.501561340490404, "lng": -0.1180947304302975, "labeledLatLngs": [{"label": "display", "lat": 51.501561340490404, "lng": -0.1180947304302975}], "distance": 331, "postalCode": "SE1 7GP", "cc": "GB", "city": "South Bank", "state": "Greater London", "country": "United Kingdom", "formattedAddress": ["3b Belvedere Rd (County Hall)", "South Bank", "Greater London", "SE1 7GP", "United Kingdom"]}, "categories": [{"id": "4bf58dd8d48988d110941735", "name": "Italian Restaurant", "pluralName": "Italian Restaurants", "shortName": "Italian", "icon": {"prefix": "https://ss3.4sqi.net/img/categories_v2/food/italian_", "suffix": ".png"}, "primary": true}], "photos": {"count": 0, "groups": []}}, "referralId": "e-0-4b7564f8f964a5201e0a2ee3-66"}, {"reasons": {"count": 0, "items": [{"summary": "This spot is popular", "type": "general", "reasonName": "globalInteractionReason"}]}, "venue": {"id": "4ae9a4b4f964a5207fb521e3", "name": "Subway", "location": {"address": "3A/B Belvedere Road, Unite 3A/B", "crossStreet": "At County Hall", "lat": 51.50132561569017, "lng": -0.11804976686471491, "labeledLatLngs": [{"label": "display", "lat": 51.50132561569017, "lng": -0.11804976686471491}], "distance": 351, "postalCode": "SE1 7GP", "cc": "GB", "city": "London", "country": "United Kingdom", "formattedAddress": ["3A/B Belvedere Road, Unite 3A/B (At County Hall)", "London", "SE1 7GP", "United Kingdom"]}, "categories": [{"id": "4bf58dd8d48988d1c5941735", "name": "Sandwich Place", "pluralName": "Sandwich Places", "shortName": "Sandwiches", "icon": {"prefix": "https://ss3.4sqi.net/img/categories_v2/food/deli_", "suffix": ".png"}, "primary": true}], "photos": {"count": 0, "groups": []}}, "referralId": "e-0-4ae9a4b4f964a5207fb521e3-67"}, {"reasons": {"count": 0, "items": [{"summary": "This spot is popular", "type": "general", "reasonName": "globalInteractionReason"}]}, "venue": {"id": "4d693edc82cba093b638d8d8", "name": "Super Soft Ice", "location": {"address": "London Eye", "lat": 51.50130433298669, "lng": -0.11684952362183895, "labeledLatLngs": [{"label": "display", "lat": 51.50130433298669, "lng": -0.11684952362183895}], "distance": 319, "cc": "GB", "city": "London", "state": "Greater London", "country": "United Kingdom", "formattedAddress": ["London Eye", "London", "Greater London", "United Kingdom"]}, "categories": [{"id": "4bf58dd8d48988d1cb941735", "name": "Food Truck", "pluralName": "Food Trucks", "shortName": "Food Truck", "icon": {"prefix": "https://ss3.4sqi.net/img/categories_v2/food/streetfood_", "suffix": ".png"}, "primary": true}], "photos": {"count": 0, "groups": []}}, "referralId": "e-0-4d693edc82cba093b638d8d8-68"}, {"reasons": {"count": 0, "items": [{"summary": "This spot is popular", "type": "general", "reasonName": "globalInteractionReason"}]}, "venue": {"id": "5ae0b0d689ad463b10e06c7d", "name": "Tokyo Bakery", "location": {"address": "South Bank", "lat": 51.501689, "lng": -0.118156, "labeledLatLngs": [{"label": "display", "lat": 51.501689, "lng": -0.118156}], "distance": 322, "postalCode": "SE1 7PB", "cc": "GB", "city": "London", "state": "Greater London", "country": "United Kingdom", "formattedAddress": ["South Bank", "London", "Greater London", "SE1 7PB", "United Kingdom"]}, "categories": [{"id": "4bf58dd8d48988d16a941735", "name": "Bakery", "pluralName": "Bakeries", "shortName": "Bakery", "icon": {"prefix": "https://ss3.4sqi.net/img/categories_v2/food/bakery_", "suffix": ".png"}, "primary": true}], "photos": {"count": 0, "groups": []}}, "referralId": "e-0-5ae0b0d689ad463b10e06c7d-69"}, {"reasons": {"count": 0, "items": [{"summary": "This spot is popular", "type": "general", "reasonName": "globalInteractionReason"}]}, "venue": {"id": "501643e0e4b0b96018fad96e", "name": "Breakfast Room", "location": {"lat": 51.50122233234254, "lng": -0.11712211560874232, "labeledLatLngs": [{"label": "display", "lat": 51.50122233234254, "lng": -0.11712211560874232}], "distance": 334, "cc": "GB", "country": "United Kingdom", "formattedAddress": ["United Kingdom"]}, "categories": [{"id": "4bf58dd8d48988d143941735", "name": "Breakfast Spot", "pluralName": "Breakfast Spots", "shortName": "Breakfast", "icon": {"prefix": "https://ss3.4sqi.net/img/categories_v2/food/breakfast_", "suffix": ".png"}, "primary": true}], "photos": {"count": 0, "groups": []}}, "referralId": "e-0-501643e0e4b0b96018fad96e-70"}, {"reasons": {"count": 0, "items": [{"summary": "This spot is popular", "type": "general", "reasonName": "globalInteractionReason"}]}, "venue": {"id": "58c3f75572efa433cae40ddd", "name": "Bao Fa Garden", "location": {"lat": 51.50227, "lng": -0.119411, "labeledLatLngs": [{"label": "display", "lat": 51.50227, "lng": -0.119411}], "distance": 338, "cc": "GB", "country": "United Kingdom", "formattedAddress": ["United Kingdom"]}, "categories": [{"id": "4bf58dd8d48988d145941735", "name": "Chinese Restaurant", "pluralName": "Chinese Restaurants", "shortName": "Chinese", "icon": {"prefix": "https://ss3.4sqi.net/img/categories_v2/food/asian_", "suffix": ".png"}, "primary": true}], "photos": {"count": 0, "groups": []}}, "referralId": "e-0-58c3f75572efa433cae40ddd-71"}, {"reasons": {"count": 0, "items": [{"summary": "This spot is popular", "type": "general", "reasonName": "globalInteractionReason"}]}, "venue": {"id": "500846f2e4b0117eceecdce1", "name": "Lyttelton Cafe", "location": {"lat": 51.506999501025895, "lng": -0.1140839644034068, "labeledLatLngs": [{"label": "display", "lat": 51.506999501025895, "lng": -0.1140839644034068}], "distance": 343, "cc": "GB", "country": "United Kingdom", "formattedAddress": ["United Kingdom"]}, "categories": [{"id": "4bf58dd8d48988d16d941735", "name": "Caf\u00e9", "pluralName": "Caf\u00e9s", "shortName": "Caf\u00e9", "icon": {"prefix": "https://ss3.4sqi.net/img/categories_v2/food/cafe_", "suffix": ".png"}, "primary": true}], "photos": {"count": 0, "groups": []}}, "referralId": "e-0-500846f2e4b0117eceecdce1-72"}, {"reasons": {"count": 0, "items": [{"summary": "This spot is popular", "type": "general", "reasonName": "globalInteractionReason"}]}, "venue": {"id": "5a070143b9ac380e56883318", "name": "Jimmy\u2019s Lodge", "location": {"lat": 51.507186, "lng": -0.11605, "labeledLatLngs": [{"label": "display", "lat": 51.507186, "lng": -0.11605}], "distance": 353, "postalCode": "SE1 9PX", "cc": "GB", "city": "London", "state": "Greater London", "country": "United Kingdom", "formattedAddress": ["London", "Greater London", "SE1 9PX", "United Kingdom"]}, "categories": [{"id": "4bf58dd8d48988d1c4941735", "name": "Restaurant", "pluralName": "Restaurants", "shortName": "Restaurant", "icon": {"prefix": "https://ss3.4sqi.net/img/categories_v2/food/default_", "suffix": ".png"}, "primary": true}], "photos": {"count": 0, "groups": []}}, "referralId": "e-0-5a070143b9ac380e56883318-73"}, {"reasons": {"count": 0, "items": [{"summary": "This spot is popular", "type": "general", "reasonName": "globalInteractionReason"}]}, "venue": {"id": "4b522297f964a520996a27e3", "name": "Ozu", "location": {"address": "County Hall", "lat": 51.50238433712797, "lng": -0.11995255248581857, "labeledLatLngs": [{"label": "display", "lat": 51.50238433712797, "lng": -0.11995255248581857}], "distance": 363, "cc": "GB", "city": "London", "state": "Greater London", "country": "United Kingdom", "formattedAddress": ["County Hall", "London", "Greater London", "United Kingdom"]}, "categories": [{"id": "4bf58dd8d48988d111941735", "name": "Japanese Restaurant", "pluralName": "Japanese Restaurants", "shortName": "Japanese", "icon": {"prefix": "https://ss3.4sqi.net/img/categories_v2/food/japanese_", "suffix": ".png"}, "primary": true}], "photos": {"count": 0, "groups": []}}, "referralId": "e-0-4b522297f964a520996a27e3-74"}, {"reasons": {"count": 0, "items": [{"summary": "This spot is popular", "type": "general", "reasonName": "globalInteractionReason"}]}, "venue": {"id": "559179de498ee4167d2dddcf", "name": "Jenny's Bakery", "location": {"lat": 51.50118973699038, "lng": -0.11856497476462874, "labeledLatLngs": [{"label": "display", "lat": 51.50118973699038, "lng": -0.11856497476462874}], "distance": 383, "cc": "GB", "country": "United Kingdom", "formattedAddress": ["United Kingdom"]}, "categories": [{"id": "4bf58dd8d48988d16a941735", "name": "Bakery", "pluralName": "Bakeries", "shortName": "Bakery", "icon": {"prefix": "https://ss3.4sqi.net/img/categories_v2/food/bakery_", "suffix": ".png"}, "primary": true}], "photos": {"count": 0, "groups": []}}, "referralId": "e-0-559179de498ee4167d2dddcf-75"}, {"reasons": {"count": 0, "items": [{"summary": "This spot is popular", "type": "general", "reasonName": "globalInteractionReason"}]}, "venue": {"id": "4c03d0d3f423a593adafd016", "name": "La Cucina Di Mamma", "location": {"address": "3J-3K Belvedere Rd", "lat": 51.50252222727663, "lng": -0.11781680612541412, "labeledLatLngs": [{"label": "display", "lat": 51.50252222727663, "lng": -0.11781680612541412}], "distance": 236, "postalCode": "SE1 7GQ", "cc": "GB", "city": "London", "state": "Greater London", "country": "United Kingdom", "formattedAddress": ["3J-3K Belvedere Rd", "London", "Greater London", "SE1 7GQ", "United Kingdom"]}, "categories": [{"id": "4bf58dd8d48988d110941735", "name": "Italian Restaurant", "pluralName": "Italian Restaurants", "shortName": "Italian", "icon": {"prefix": "https://ss3.4sqi.net/img/categories_v2/food/italian_", "suffix": ".png"}, "primary": true}], "photos": {"count": 0, "groups": []}}, "referralId": "e-0-4c03d0d3f423a593adafd016-76"}]}]}}