{"meta": {"code": 200, "requestId": "5feddbc954b5505151515904"}, "response": {"headerLocation": "De Beauvoir", "headerFullLocation": "De Beauvoir, London", "headerLocationGranularity": "neighborhood", "query": "arts entertainment", "totalResults": 8, "suggestedBounds": {"ne": {"lat": 51.53875000360001, "lng": -0.08049333882712972}, "sw": {"lat": 51.531549996399995, "lng": -0.09204666117287028}}, "groups": [{"type": "Recommended Places", "name": "recommended", "items": [{"reasons": {"count": 0, "items": [{"summary": "This spot is popular", "type": "general", "reasonName": "globalInteractionReason"}]}, "venue": {"id": "4e9fddbfdab4b591267c4a7d", "name": "Museum of London Archaeology", "location": {"address": "46 Eagle Wharf Road", "lat": 51.5348976911883, "lng": -0.09046554565429688, "labeledLatLngs": [{"label": "display", "lat": 51.5348976911883, "lng": -0.09046554565429688}], "distance": 291, "postalCode": "N1 7ED", "cc": "GB", "city": "Hackney", "state": "Greater London", "country": "United Kingdom", "formattedAddress": ["46 Eagle Wharf Road", "Hackney", "Greater London", "N1 7ED", "United Kingdom"]}, "categories": [{"id": "4bf58dd8d48988d190941735", "name": "History Museum", "pluralName": "History Museums", "shortName": "History Museum", "icon": {"prefix": "https://ss3.4sqi.net/img/categories_v2/arts_entertainment/museum_history_", "suffix": ".png"}, "primary": true}], "photos": {"count": 0, "groups": []}}, "referralId": "e-0-4e9fddbfdab4b591267c4a7d-0"}, {"reasons": {"count": 0, "items": [{"summary": "This spot is popular", "type": "general", "reasonName": "globalInteractionReason"}]}, "venue": {"id": "4c2e0724e760c9b617d24549", "name": "London Archaeological Archive and Research Centre", "location": {"address": "Mortimer Wheeler House", "crossStreet": "46 Eagle Wharf Road", "lat": 51.53505526174847, "lng": -0.0907622466050282, "labeledLatLngs": [{"label": "display", "lat": 51.53505526174847, "lng": -0.0907622466050282}], "distance": 311, "postalCode": "N1  7E", "cc": "GB", "city": "London", "state": "Greater London", "country": "United Kingdom", "formattedAddress": ["Mortimer Wheeler House (46 Eagle Wharf Road)", "London", "Greater London", "N1  7E", "United Kingdom"]}, "categories": [{"id": "4bf58dd8d48988d190941735", "name": "History Museum", "pluralName": "History Museums", "shortName": "History Museum", "icon": {"prefix": "https://ss3.4sqi.net/img/categories_v2/arts_entertainment/museum_history_", "suffix": ".png"}, "primary": true}], "photos": {"count": 0, "groups": []}}, "referralId": "e-0-4c2e0724e760c9b617d24549-1"}, {"reasons": {"count": 0, "items": [{"summary": "This spot is popular", "type": "general", "reasonName": "globalInteractionReason"}]}, "venue": {"id": "4ec5772749017fff09012d63", "name": "Sauna", "location": {"address": "297 Hoxton St", "lat": 51.53525807183621, "lng": -0.08177518844604492, "labeledLatLngs": [{"label": "display", "lat": 51.53525807183621, "lng": -0.08177518844604492}], "distance": 311, "postalCode": "N1 5JX", "cc": "GB", "city": "London", "state": "Greater London", "country": "United Kingdom", "formattedAddress": ["297 Hoxton St", "London", "Greater London", "N1 5JX", "United Kingdom"]}, "categories": [{"id": "4bf58dd8d48988d1e2931735", "name": "Art Gallery", "pluralName": "Art Galleries", "shortName": "Art Gallery", "icon": {"prefix": "https://ss3.4sqi.net/img/categories_v2/arts_entertainment/artgallery_", "suffix": ".png"}, "primary": true}], "photos": {"count": 0, "groups": []}}, "referralId": "e-0-4ec5772749017fff09012d63-2"}, {"reasons": {"count": 0, "items": [{"summary": "This spot is popular", "type": "general", "reasonName": "globalInteractionReason"}]}, "venue": {"id": "4f591a25e4b0271fff8c8736", "name": "Sycorax Industries", "location": {"lat": 51.53501994539573, "lng": -0.08177728230509734, "labeledLatLngs": [{"label": "display", "lat": 51.53501994539573, "lng": -0.08177728230509734}], "distance": 311, "cc": "GB", "country": "United Kingdom", "formattedAddress": ["United Kingdom"]}, "categories": [{"id": "4bf58dd8d48988d191941735", "name": "Science Museum", "pluralName": "Science Museums", "shortName": "Science Museum", "icon": {"prefix": "https://ss3.4sqi.net/img/categories_v2/arts_entertainment/museum_science_", "suffix": ".png"}, "primary": true}], "photos": {"count": 0, "groups": []}}, "referralId": "e-0-4f591a25e4b0271fff8c8736-3"}, {"reasons": {"count": 0, "items": [{"summary": "This spot is popular", "type": "general", "reasonName": "globalInteractionReason"}]}, "venue": {"id": "4f3d54b5e4b0a8ba8fa9c1df", "name": "o brave new world", "location": {"lat": 51.53498942725543, "lng": -0.08135807174044546, "labeledLatLngs": [{"label": "display", "lat": 51.53498942725543, "lng": -0.08135807174044546}], "distance": 340, "cc": "GB", "country": "United Kingdom", "formattedAddress": ["United Kingdom"]}, "categories": [{"id": "4bf58dd8d48988d137941735", "name": "Theater", "pluralName": "Theaters", "shortName": "Theater", "icon": {"prefix": "https://ss3.4sqi.net/img/categories_v2/arts_entertainment/performingarts_theater_", "suffix": ".png"}, "primary": true}], "photos": {"count": 0, "groups": []}}, "referralId": "e-0-4f3d54b5e4b0a8ba8fa9c1df-4"}, {"reasons": {"count": 0, "items": [{"summary": "This spot is popular", "type": "general", "reasonName": "globalInteractionReason"}]}, "venue": {"id": "513a4086e4b03785f100c717", "name": "Huld Legal Services", "location": {"address": "297 Hoxton Street", "lat": 51.535011291503906, "lng": -0.08121900260448456, "labeledLatLngs": [{"label": "display", "lat": 51.535011291503906, "lng": -0.08121900260448456}], "distance": 350, "postalCode": "N1 5JX", "cc": "GB", "city": "London", "state": "Greater London", "country": "United Kingdom", "formattedAddress": ["297 Hoxton Street", "London", "Greater London", "N1 5JX", "United Kingdom"]}, "categories": [{"id": "4bf58dd8d48988d135941735", "name": "Indie Theater", "pluralName": "Indie Theaters", "shortName": "Indie", "icon": {"prefix": "https://ss3.4sqi.net/img/categories_v2/arts_entertainment/performingarts_theater_", "suffix": ".png"}, "primary": true}], "photos": {"count": 0, "groups": []}}, "referralId": "e-0-513a4086e4b03785f100c717-5"}, {"reasons": {"count": 0, "items": [{"summary": "This spot is popular", "type": "general", "reasonName": "globalInteractionReason"}]}, "venue": {"id": "4f632ea6e4b08383b059e8b4", "name": "waterside gallery", "location": {"lat": 51.532068, "lng": -0.08522, "labeledLatLngs": [{"label": "display", "lat": 51.532068, "lng": -0.08522}], "distance": 350, "cc": "GB", "country": "United Kingdom", "formattedAddress": ["United Kingdom"]}, "categories": [{"id": "4bf58dd8d48988d1e2931735", "name": "Art Gallery", "pluralName": "Art Galleries", "shortName": "Art Gallery", "icon": {"prefix": "https://ss3.4sqi.net/img/categories_v2/arts_entertainment/artgallery_", "suffix": ".png"}, "primary": true}], "photos": {"count": 0, "groups": []}}, "referralId": "e-0-4f632ea6e4b08383b059e8b4-6"}, {"reasons": {"count": 0, "items": [{"summary": "This spot is popular", "type": "general", "reasonName": "globalInteractionReason"}]}, "venue": {"id": "5451466b498ef4c28765943d", "name": "Franchise London", "location": {"address": "1-10 Purcell Street", "lat": 51.53261184692383, "lng": -0.08236929774284363, "labeledLatLngs": [{"label": "display", "lat": 51.53261184692383, "lng": -0.08236929774284363}], "distance": 390, "cc": "GB", "city": "London", "state": "Greater London", "country": "United Kingdom", "formattedAddress": ["1-10 Purcell Street", "London", "Greater London", "United Kingdom"]}, "categories": [{"id": "52e81612bcbc57f1066b79ee", "name": "Street Art", "pluralName": "Street Art Installations", "shortName": "Street Art", "icon": {"prefix": "https://ss3.4sqi.net/img/categories_v2/arts_entertainment/default_", "suffix": ".png"}, "primary": true}], "photos": {"count": 0, "groups": []}}, "referralId": "e-0-5451466b498ef4c28765943d-7"}]}]}}