{"meta": {"code": 200, "requestId": "5feddc3a8549cf75f719b58e"}, "response": {"headerLocation": "Colindale", "headerFullLocation": "Colindale, London", "headerLocationGranularity": "neighborhood", "query": "food", "totalResults": 4, "suggestedBounds": {"ne": {"lat": 51.5991100036, "lng": -0.2376356651521023}, "sw": {"lat": 51.59190999639999, "lng": -0.2492043348478977}}, "groups": [{"type": "Recommended Places", "name": "recommended", "items": [{"reasons": {"count": 0, "items": [{"summary": "This spot is popular", "type": "general", "reasonName": "globalInteractionReason"}]}, "venue": {"id": "4daf2c390437710b81446ef0", "name": "Jun Ming Xuan", "location": {"address": "28 Heritage Ave", "crossStreet": "Beaufort Park", "lat": 51.59540907272143, "lng": -0.24293487307076825, "labeledLatLngs": [{"label": "display", "lat": 51.59540907272143, "lng": -0.24293487307076825}], "distance": 35, "postalCode": "NW9 5GE", "cc": "GB", "city": "London", "state": "Greater London", "country": "United Kingdom", "formattedAddress": ["28 Heritage Ave (Beaufort Park)", "London", "Greater London", "NW9 5GE", "United Kingdom"]}, "categories": [{"id": "4bf58dd8d48988d145941735", "name": "Chinese Restaurant", "pluralName": "Chinese Restaurants", "shortName": "Chinese", "icon": {"prefix": "https://ss3.4sqi.net/img/categories_v2/food/asian_", "suffix": ".png"}, "primary": true}], "photos": {"count": 0, "groups": []}}, "referralId": "e-0-4daf2c390437710b81446ef0-0"}, {"reasons": {"count": 0, "items": [{"summary": "This spot is popular", "type": "general", "reasonName": "globalInteractionReason"}]}, "venue": {"id": "52dae60811d2db16bb1384e6", "name": "Fat Angelo's", "location": {"address": "24 Heritage Avenue", "lat": 51.595697, "lng": -0.242653, "labeledLatLngs": [{"label": "display", "lat": 51.595697, "lng": -0.242653}], "distance": 56, "postalCode": "NW9 5EW", "cc": "GB", "city": "London", "state": "Greater London", "country": "United Kingdom", "formattedAddress": ["24 Heritage Avenue", "London", "Greater London", "NW9 5EW", "United Kingdom"]}, "categories": [{"id": "4bf58dd8d48988d110941735", "name": "Italian Restaurant", "pluralName": "Italian Restaurants", "shortName": "Italian", "icon": {"prefix": "https://ss3.4sqi.net/img/categories_v2/food/italian_", "suffix": ".png"}, "primary": true}], "photos": {"count": 0, "groups": []}}, "referralId": "e-0-52dae60811d2db16bb1384e6-1"}, {"reasons": {"count": 0, "items": [{"summary": "This spot is popular", "type": "general", "reasonName": "globalInteractionReason"}]}, "venue": {"id": "4cb084c0ef1b37044a4e3b00", "name": "Nino Seafood & Steak \ue019\ue441\ue52b\ue10b", "location": {"lat": 51.59580950228798, "lng": -0.2426117801875452, "labeledLatLngs": [{"label": "display", "lat": 51.59580950228798, "lng": -0.2426117801875452}], "distance": 65, "cc": "GB", "country": "United Kingdom", "formattedAddress": ["United Kingdom"]}, "categories": [{"id": "4bf58dd8d48988d110941735", "name": "Italian Restaurant", "pluralName": "Italian Restaurants", "shortName": "Italian", "icon": {"prefix": "https://ss3.4sqi.net/img/categories_v2/food/italian_", "suffix": ".png"}, "primary": true}], "photos": {"count": 0, "groups": []}}, "referralId": "e-0-4cb084c0ef1b37044a4e3b00-2"}, {"reasons": {"count": 0, "items": [{"summary": "This spot is popular", "type": "general", "reasonName": "globalInteractionReason"}]}, "venue": {"id": "50549c4be4b0e95b0e789af8", "name": "Wings Restaurant", "location": {"address": "RAF Museum", "lat": 51.59747865723052, "lng": -0.23955471234667833, "labeledLatLngs": [{"label": "display", "lat": 51.59747865723052, "lng": -0.23955471234667833}], "distance": 345, "cc": "GB", "city": "Hendon", "state": "Greater London", "country": "United Kingdom", "formattedAddress": ["RAF Museum", "Hendon", "Greater London", "United Kingdom"]}, "categories": [{"id": "4bf58dd8d48988d16d941735", "name": "Caf\u00e9", "pluralName": "Caf\u00e9s", "shortName": "Caf\u00e9", "icon": {"prefix": "https://ss3.4sqi.net/img/categories_v2/food/cafe_", "suffix": ".png"}, "primary": true}], "photos": {"count": 0, "groups": []}}, "referralId": "e-0-50549c4be4b0e95b0e789af8-3"}]}]}}