{"meta": {"code": 200, "requestId": "5fedda0ebec16445af28d0ff"}, "response": {"suggestedFilters": {"header": "Tap to show:", "filters": [{"name": "Open now", "key": "openNow"}]}, "headerLocation": "Hackney", "headerFullLocation": "Hackney, London", "headerLocationGranularity": "neighborhood", "query": "travel", "totalResults": 19, "suggestedBounds": {"ne": {"lat": 51.525634003600004, "lng": -0.07812700274859136}, "sw": {"lat": 51.51843399639999, "lng": -0.08967699725140865}}, "groups": [{"type": "Recommended Places", "name": "recommended", "items": [{"reasons": {"count": 0, "items": [{"summary": "This spot is popular", "type": "general", "reasonName": "globalInteractionReason"}]}, "venue": {"id": "58034f9f38fa540b8548ed25", "name": "The Montcalm Royal London House", "location": {"address": "22 Finsbury Sq", "lat": 51.521738354117225, "lng": -0.08560642174245091, "labeledLatLngs": [{"label": "display", "lat": 51.521738354117225, "lng": -0.08560642174245091}], "distance": 122, "postalCode": "EC2A 1DX", "cc": "GB", "city": "London", "state": "Greater London", "country": "United Kingdom", "formattedAddress": ["22 Finsbury Sq", "London", "Greater London", "EC2A 1DX", "United Kingdom"]}, "categories": [{"id": "4bf58dd8d48988d1fa931735", "name": "Hotel", "pluralName": "Hotels", "shortName": "Hotel", "icon": {"prefix": "https://ss3.4sqi.net/img/categories_v2/travel/hotel_", "suffix": ".png"}, "primary": true}], "photos": {"count": 0, "groups": []}}, "referralId": "e-0-58034f9f38fa540b8548ed25-0"}, {"reasons": {"count": 0, "items": [{"summary": "This spot is popular", "type": "general", "reasonName": "globalInteractionReason"}]}, "venue": {"id": "4ac518b8f964a52081a120e3", "name": "The Hoxton", "location": {"address": "81 Great Eastern St", "lat": 51.525575398843905, "lng": -0.0828844999591638, "labeledLatLngs": [{"label": "display", "lat": 51.525575398843905, "lng": -0.0828844999591638}], "distance": 400, "postalCode": "EC2A 3HU", "cc": "GB", "city": "London", "state": "Greater London", "country": "United Kingdom", "formattedAddress": ["81 Great Eastern St", "London", "Greater London", "EC2A 3HU", "United Kingdom"]}, "categories": [{"id": "4bf58dd8d48988d1fa931735", "name": "Hotel", "pluralName": "Hotels", "shortName": "Hotel", "icon": {"prefix": "https://ss3.4sqi.net/img/categories_v2/travel/hotel_", "suffix": ".png"}, "primary": true}], "photos": {"count": 0, "groups": []}, "venuePage": {"id": "72100645"}}, "referralId": "e-0-4ac518b8f964a52081a120e3-1"}, {"reasons": {"count": 0, "items": [{"summary": "This spot is popular", "type": "general", "reasonName": "globalInteractionReason"}]}, "venue": {"id": "591553e50e5da86a043e6ad2", "name": "The Curtain", "location": {"address": "45 Curtain Rd", "lat": 51.5235870074067, "lng": -0.08050099762200219, "labeledLatLngs": [{"label": "display", "lat": 51.5235870074067, "lng": -0.08050099762200219}], "distance": 292, "postalCode": "EC2A 3PT", "cc": "GB", "city": "London", "state": "Greater London", "country": "United Kingdom", "formattedAddress": ["45 Curtain Rd", "London", "Greater London", "EC2A 3PT", "United Kingdom"]}, "categories": [{"id": "4bf58dd8d48988d1fa931735", "name": "Hotel", "pluralName": "Hotels", "shortName": "Hotel", "icon": {"prefix": "https://ss3.4sqi.net/img/categories_v2/travel/hotel_", "suffix": ".png"}, "primary": true}], "photos": {"count": 0, "groups": []}}, "referralId": "e-0-591553e50e5da86a043e6ad2-2"}, {"reasons": {"count": 0, "items": [{"summary": "This spot is popular", "type": "general", "reasonName": "globalInteractionReason"}]}, "venue": {"id": "4feb4cc38055eff11e08881d", "name": "South Place Hotel", "location": {"address": "3 South Pl", "crossStreet": "Dominion St", "lat": 51.51900051055965, "lng": -0.08650820507914733, "labeledLatLngs": [{"label": "display", "lat": 51.51900051055965, "lng": -0.08650820507914733}], "distance": 382, "postalCode": "EC2M 2AF", "cc": "GB", "city": "London", "state": "Greater London", "country": "United Kingdom", "formattedAddress": ["3 South Pl (Dominion St)", "London", "Greater London", "EC2M 2AF", "United Kingdom"]}, "categories": [{"id": "4bf58dd8d48988d1fa931735", "name": "Hotel", "pluralName": "Hotels", "shortName": "Hotel", "icon": {"prefix": "https://ss3.4sqi.net/img/categories_v2/travel/hotel_", "suffix": ".png"}, "primary": true}], "photos": {"count": 0, "groups": []}, "venuePage": {"id": "45064480"}}, "referralId": "e-0-4feb4cc38055eff11e08881d-3"}, {"reasons": {"count": 0, "items": [{"summary": "This spot is popular", "type": "general", "reasonName": "globalInteractionReason"}]}, "venue": {"id": "5943271142d8c242705b9da2", "name": "Nobu Hotel", "location": {"address": "10-50 Willow St", "lat": 51.52519825077427, "lng": -0.08259057998657227, "labeledLatLngs": [{"label": "display", "lat": 51.52519825077427, "lng": -0.08259057998657227}], "distance": 363, "postalCode": "EC2A 4BH", "cc": "GB", "neighborhood": "Hackney", "city": "Shoreditch", "state": "Greater London", "country": "United Kingdom", "formattedAddress": ["10-50 Willow St", "Shoreditch", "Greater London", "EC2A 4BH", "United Kingdom"]}, "categories": [{"id": "4bf58dd8d48988d1fa931735", "name": "Hotel", "pluralName": "Hotels", "shortName": "Hotel", "icon": {"prefix": "https://ss3.4sqi.net/img/categories_v2/travel/hotel_", "suffix": ".png"}, "primary": true}], "photos": {"count": 0, "groups": []}}, "referralId": "e-0-5943271142d8c242705b9da2-4"}, {"reasons": {"count": 0, "items": [{"summary": "This spot is popular", "type": "general", "reasonName": "globalInteractionReason"}]}, "venue": {"id": "58fbbe8dc21cb16c170a4cf4", "name": "Point A Hotel Shoreditch", "location": {"address": "8-10 Paul St", "lat": 51.52262270243427, "lng": -0.08440250007072496, "labeledLatLngs": [{"label": "display", "lat": 51.52262270243427, "lng": -0.08440250007072496}], "distance": 74, "postalCode": "EC2A 4JH", "cc": "GB", "city": "London", "state": "Greater London", "country": "United Kingdom", "formattedAddress": ["8-10 Paul St", "London", "Greater London", "EC2A 4JH", "United Kingdom"]}, "categories": [{"id": "4bf58dd8d48988d1fa931735", "name": "Hotel", "pluralName": "Hotels", "shortName": "Hotel", "icon": {"prefix": "https://ss3.4sqi.net/img/categories_v2/travel/hotel_", "suffix": ".png"}, "primary": true}], "photos": {"count": 0, "groups": []}}, "referralId": "e-0-58fbbe8dc21cb16c170a4cf4-5"}, {"reasons": {"count": 0, "items": [{"summary": "This spot is popular", "type": "general", "reasonName": "globalInteractionReason"}]}, "venue": {"id": "4e4aa9922271ac3f6bd77f40", "name": "TfL Santander Cycle Hire", "location": {"address": "Clifton St", "crossStreet": "Scrutton St", "lat": 51.52303344881193, "lng": -0.08298313538880596, "labeledLatLngs": [{"label": "display", "lat": 51.52303344881193, "lng": -0.08298313538880596}], "distance": 128, "postalCode": "EC2A 4EX", "cc": "GB", "city": "Shoreditch", "state": "Greater London", "country": "United Kingdom", "formattedAddress": ["Clifton St (Scrutton St)", "Shoreditch", "Greater London", "EC2A 4EX", "United Kingdom"]}, "categories": [{"id": "4e4c9077bd41f78e849722f9", "name": "Bike Rental / Bike Share", "pluralName": "Bike Rentals / Bike Shares", "shortName": "Bike", "icon": {"prefix": "https://ss3.4sqi.net/img/categories_v2/shops/bikeshop_", "suffix": ".png"}, "primary": true}], "photos": {"count": 0, "groups": []}}, "referralId": "e-0-4e4aa9922271ac3f6bd77f40-6"}, {"reasons": {"count": 0, "items": [{"summary": "This spot is popular", "type": "general", "reasonName": "globalInteractionReason"}]}, "venue": {"id": "5235d9ed11d2c78af692b229", "name": "Finsbury Square Bus Stop D", "location": {"lat": 51.52129241725935, "lng": -0.08683320641416231, "labeledLatLngs": [{"label": "display", "lat": 51.52129241725935, "lng": -0.08683320641416231}], "distance": 219, "cc": "GB", "country": "United Kingdom", "formattedAddress": ["United Kingdom"]}, "categories": [{"id": "52f2ab2ebcbc57f1066b8b4f", "name": "Bus Stop", "pluralName": "Bus Stops", "shortName": "Bus Stop", "icon": {"prefix": "https://ss3.4sqi.net/img/categories_v2/travel/busstation_", "suffix": ".png"}, "primary": true}], "photos": {"count": 0, "groups": []}}, "referralId": "e-0-5235d9ed11d2c78af692b229-7"}, {"reasons": {"count": 0, "items": [{"summary": "This spot is popular", "type": "general", "reasonName": "globalInteractionReason"}]}, "venue": {"id": "4c7cf6b5ad90224bec878b0c", "name": "TfL Santander Cycle Hire", "location": {"address": "Leonard Circus", "crossStreet": "Leonard St", "lat": 51.524655, "lng": -0.084473, "labeledLatLngs": [{"label": "display", "lat": 51.524655, "lng": -0.084473}], "distance": 294, "postalCode": "EC2A 4BY", "cc": "GB", "city": "Hackney", "state": "Greater London", "country": "United Kingdom", "formattedAddress": ["Leonard Circus (Leonard St)", "Hackney", "Greater London", "EC2A 4BY", "United Kingdom"]}, "categories": [{"id": "4e4c9077bd41f78e849722f9", "name": "Bike Rental / Bike Share", "pluralName": "Bike Rentals / Bike Shares", "shortName": "Bike", "icon": {"prefix": "https://ss3.4sqi.net/img/categories_v2/shops/bikeshop_", "suffix": ".png"}, "primary": true}], "photos": {"count": 0, "groups": []}}, "referralId": "e-0-4c7cf6b5ad90224bec878b0c-8"}, {"reasons": {"count": 0, "items": [{"summary": "This spot is popular", "type": "general", "reasonName": "globalInteractionReason"}]}, "venue": {"id": "4d7533c09d2fa1435cf3fcd6", "name": "Old Street Station Bus Stop N", "location": {"address": "City Road", "crossStreet": "Old Street", "lat": 51.52383596505014, "lng": -0.0873659789183114, "labeledLatLngs": [{"label": "display", "lat": 51.52383596505014, "lng": -0.0873659789183114}], "distance": 312, "cc": "GB", "neighborhood": "Islington", "city": "Islington", "state": "Greater London", "country": "United Kingdom", "formattedAddress": ["City Road (Old Street)", "Islington", "Greater London", "United Kingdom"]}, "categories": [{"id": "52f2ab2ebcbc57f1066b8b4f", "name": "Bus Stop", "pluralName": "Bus Stops", "shortName": "Bus Stop", "icon": {"prefix": "https://ss3.4sqi.net/img/categories_v2/travel/busstation_", "suffix": ".png"}, "primary": true}], "photos": {"count": 0, "groups": []}}, "referralId": "e-0-4d7533c09d2fa1435cf3fcd6-9"}, {"reasons": {"count": 0, "items": [{"summary": "This spot is popular", "type": "general", "reasonName": "globalInteractionReason"}]}, "venue": {"id": "4ded1d0245dd64cbbd14e9ce", "name": "New Moorgate Bus Stop", "location": {"lat": 51.52002548501362, "lng": -0.08730071117166213, "labeledLatLngs": [{"label": "display", "lat": 51.52002548501362, "lng": -0.08730071117166213}], "distance": 324, "cc": "GB", "country": "United Kingdom", "formattedAddress": ["United Kingdom"]}, "categories": [{"id": "52f2ab2ebcbc57f1066b8b4f", "name": "Bus Stop", "pluralName": "Bus Stops", "shortName": "Bus Stop", "icon": {"prefix": "https://ss3.4sqi.net/img/categories_v2/travel/busstation_", "suffix": ".png"}, "primary": true}], "photos": {"count": 0, "groups": []}}, "referralId": "e-0-4ded1d0245dd64cbbd14e9ce-10"}, {"reasons": {"count": 0, "items": [{"summary": "This spot is popular", "type": "general", "reasonName": "globalInteractionReason"}]}, "venue": {"id": "50007c93e4b0c123dd0e4cab", "name": "Bus Stop M @ City Road", "location": {"address": "City Road", "lat": 51.52418747270788, "lng": -0.08742193727483277, "labeledLatLngs": [{"label": "display", "lat": 51.52418747270788, "lng": -0.08742193727483277}], "distance": 341, "cc": "GB", "city": "London", "state": "Greater London", "country": "United Kingdom", "formattedAddress": ["City Road", "London", "Greater London", "United Kingdom"]}, "categories": [{"id": "52f2ab2ebcbc57f1066b8b4f", "name": "Bus Stop", "pluralName": "Bus Stops", "shortName": "Bus Stop", "icon": {"prefix": "https://ss3.4sqi.net/img/categories_v2/travel/busstation_", "suffix": ".png"}, "primary": true}], "photos": {"count": 0, "groups": []}}, "referralId": "e-0-50007c93e4b0c123dd0e4cab-11"}, {"reasons": {"count": 0, "items": [{"summary": "This spot is popular", "type": "general", "reasonName": "globalInteractionReason"}]}, "venue": {"id": "581c79a287dde547fb22ffab", "name": "TravelStay.com", "location": {"address": "1 Primrose Street", "lat": 51.520616555696385, "lng": -0.07946786408695061, "labeledLatLngs": [{"label": "display", "lat": 51.520616555696385, "lng": -0.07946786408695061}], "distance": 345, "postalCode": "EC2A 2EX", "cc": "GB", "city": "London", "state": "Greater London", "country": "United Kingdom", "formattedAddress": ["1 Primrose Street", "London", "Greater London", "EC2A 2EX", "United Kingdom"]}, "categories": [{"id": "4bf58dd8d48988d1fa931735", "name": "Hotel", "pluralName": "Hotels", "shortName": "Hotel", "icon": {"prefix": "https://ss3.4sqi.net/img/categories_v2/travel/hotel_", "suffix": ".png"}, "primary": true}], "photos": {"count": 0, "groups": []}, "venuePage": {"id": "372316002"}}, "referralId": "e-0-581c79a287dde547fb22ffab-12"}, {"reasons": {"count": 0, "items": [{"summary": "This spot is popular", "type": "general", "reasonName": "globalInteractionReason"}]}, "venue": {"id": "509e4cdae4b057cac3d77795", "name": "Curtain Road Bus Stop A", "location": {"lat": 51.52428817749023, "lng": -0.08028594404459, "labeledLatLngs": [{"label": "display", "lat": 51.52428817749023, "lng": -0.08028594404459}], "distance": 354, "cc": "GB", "country": "United Kingdom", "formattedAddress": ["United Kingdom"]}, "categories": [{"id": "52f2ab2ebcbc57f1066b8b4f", "name": "Bus Stop", "pluralName": "Bus Stops", "shortName": "Bus Stop", "icon": {"prefix": "https://ss3.4sqi.net/img/categories_v2/travel/busstation_", "suffix": ".png"}, "primary": true}], "photos": {"count": 0, "groups": []}}, "referralId": "e-0-509e4cdae4b057cac3d77795-13"}, {"reasons": {"count": 0, "items": [{"summary": "This spot is popular", "type": "general", "reasonName": "globalInteractionReason"}]}, "venue": {"id": "5de51a5802579b0008d2067e", "name": "Hart Shoreditch Hotel London, Curio Collection by Hilton", "location": {"address": "61-67 Great Eastern St", "lat": 51.524889, "lng": -0.081418, "labeledLatLngs": [{"label": "display", "lat": 51.524889, "lng": -0.081418}], "distance": 361, "postalCode": "EC2A 3HU", "cc": "GB", "city": "London", "state": "Greater London", "country": "United Kingdom", "formattedAddress": ["61-67 Great Eastern St", "London", "Greater London", "EC2A 3HU", "United Kingdom"]}, "categories": [{"id": "4bf58dd8d48988d1fa931735", "name": "Hotel", "pluralName": "Hotels", "shortName": "Hotel", "icon": {"prefix": "https://ss3.4sqi.net/img/categories_v2/travel/hotel_", "suffix": ".png"}, "primary": true}], "photos": {"count": 0, "groups": []}}, "referralId": "e-0-5de51a5802579b0008d2067e-14"}, {"reasons": {"count": 0, "items": [{"summary": "This spot is popular", "type": "general", "reasonName": "globalInteractionReason"}]}, "venue": {"id": "50a6774de4b0c08636dffe42", "name": "Shoreditch High St Station Bus Stop B", "location": {"address": "Shoreditch High Street", "crossStreet": "Holywell Lane", "lat": 51.52401819162466, "lng": -0.07965087890625, "labeledLatLngs": [{"label": "display", "lat": 51.52401819162466, "lng": -0.07965087890625}], "distance": 368, "cc": "GB", "city": "London", "state": "Greater London", "country": "United Kingdom", "formattedAddress": ["Shoreditch High Street (Holywell Lane)", "London", "Greater London", "United Kingdom"]}, "categories": [{"id": "52f2ab2ebcbc57f1066b8b4f", "name": "Bus Stop", "pluralName": "Bus Stops", "shortName": "Bus Stop", "icon": {"prefix": "https://ss3.4sqi.net/img/categories_v2/travel/busstation_", "suffix": ".png"}, "primary": true}], "photos": {"count": 0, "groups": []}}, "referralId": "e-0-50a6774de4b0c08636dffe42-15"}, {"reasons": {"count": 0, "items": [{"summary": "This spot is popular", "type": "general", "reasonName": "globalInteractionReason"}]}, "venue": {"id": "4c76a36466be6dcb03b8c30f", "name": "Platform 9", "location": {"address": "Liverpool Street Station (LST)", "lat": 51.51910426625349, "lng": -0.08125600879410529, "labeledLatLngs": [{"label": "display", "lat": 51.51910426625349, "lng": -0.08125600879410529}], "distance": 374, "postalCode": "EC2M 7PY", "cc": "GB", "city": "London", "state": "Greater London", "country": "United Kingdom", "formattedAddress": ["Liverpool Street Station (LST)", "London", "Greater London", "EC2M 7PY", "United Kingdom"]}, "categories": [{"id": "4f4531504b9074f6e4fb0102", "name": "Platform", "pluralName": "Platforms", "shortName": "Platform", "icon": {"prefix": "https://ss3.4sqi.net/img/categories_v2/travel/trainstation_", "suffix": ".png"}, "primary": true}], "photos": {"count": 0, "groups": []}}, "referralId": "e-0-4c76a36466be6dcb03b8c30f-16"}, {"reasons": {"count": 0, "items": [{"summary": "This spot is popular", "type": "general", "reasonName": "globalInteractionReason"}]}, "venue": {"id": "4de92d2b1f6e9b53772034fb", "name": "Commercial Street Bus Stop", "location": {"lat": 51.52195303404768, "lng": -0.0782114874971954, "labeledLatLngs": [{"label": "display", "lat": 51.52195303404768, "lng": -0.0782114874971954}], "distance": 394, "cc": "GB", "city": "Hackney", "state": "Greater London", "country": "United Kingdom", "formattedAddress": ["Hackney", "Greater London", "United Kingdom"]}, "categories": [{"id": "52f2ab2ebcbc57f1066b8b4f", "name": "Bus Stop", "pluralName": "Bus Stops", "shortName": "Bus Stop", "icon": {"prefix": "https://ss3.4sqi.net/img/categories_v2/travel/busstation_", "suffix": ".png"}, "primary": true}], "photos": {"count": 0, "groups": []}}, "referralId": "e-0-4de92d2b1f6e9b53772034fb-17"}, {"reasons": {"count": 0, "items": [{"summary": "This spot is popular", "type": "general", "reasonName": "globalInteractionReason"}]}, "venue": {"id": "4b709dd0f964a52079252de3", "name": "Travelodge London Central City Road", "location": {"address": "1-23 City Rd", "lat": 51.52260297678985, "lng": -0.0869751454999175, "labeledLatLngs": [{"label": "display", "lat": 51.52260297678985, "lng": -0.0869751454999175}], "distance": 222, "postalCode": "EC1Y 1AG", "cc": "GB", "city": "London", "state": "Greater London", "country": "United Kingdom", "formattedAddress": ["1-23 City Rd", "London", "Greater London", "EC1Y 1AG", "United Kingdom"]}, "categories": [{"id": "4bf58dd8d48988d1fa931735", "name": "Hotel", "pluralName": "Hotels", "shortName": "Hotel", "icon": {"prefix": "https://ss3.4sqi.net/img/categories_v2/travel/hotel_", "suffix": ".png"}, "primary": true}], "photos": {"count": 0, "groups": []}}, "referralId": "e-0-4b709dd0f964a52079252de3-18"}]}]}}