{"meta": {"code": 200, "requestId": "5fedd9a18549cf75f7107111"}, "response": {"suggestedFilters": {"header": "Tap to show:", "filters": [{"name": "Open now", "key": "openNow"}]}, "headerLocation": "Hoxton", "headerFullLocation": "Hoxton, London", "headerLocationGranularity": "neighborhood", "query": "college education", "totalResults": 26, "suggestedBounds": {"ne": {"lat": 51.534451003600005, "lng": -0.07691188434566434}, "sw": {"lat": 51.52725099639999, "lng": -0.08846411565433565}}, "groups": [{"type": "Recommended Places", "name": "recommended", "items": [{"reasons": {"count": 0, "items": [{"summary": "This spot is popular", "type": "general", "reasonName": "globalInteractionReason"}]}, "venue": {"id": "568dabd6498e090bd64d0308", "name": "Seven Seasons", "location": {"address": "195 Hoxton Street", "lat": 51.532271497907715, "lng": -0.08022218942642212, "labeledLatLngs": [{"label": "display", "lat": 51.532271497907715, "lng": -0.08022218942642212}], "distance": 232, "postalCode": "N1 6RA", "cc": "GB", "city": "London", "state": "Greater London", "country": "United Kingdom", "formattedAddress": ["195 Hoxton Street", "London", "Greater London", "N1 6RA", "United Kingdom"]}, "categories": [{"id": "5370f356bcbc57f1066c94c2", "name": "Beer Store", "pluralName": "Beer Stores", "shortName": "Beer Store", "icon": {"prefix": "https://ss3.4sqi.net/img/categories_v2/nightlife/beergarden_", "suffix": ".png"}, "primary": true}], "photos": {"count": 0, "groups": []}}, "referralId": "e-0-568dabd6498e090bd64d0308-0"}, {"reasons": {"count": 0, "items": [{"summary": "This spot is popular", "type": "general", "reasonName": "globalInteractionReason"}]}, "venue": {"id": "4ce9266d595cb1f78c0bcd14", "name": "Hoxton Street Monster Supplies", "location": {"address": "159 Hoxton St", "lat": 51.531316731769, "lng": -0.08015563030890456, "labeledLatLngs": [{"label": "display", "lat": 51.531316731769, "lng": -0.08015563030890456}], "distance": 182, "postalCode": "N1 6PJ", "cc": "GB", "city": "Hackney", "state": "Greater London", "country": "United Kingdom", "formattedAddress": ["159 Hoxton St", "Hackney", "Greater London", "N1 6PJ", "United Kingdom"]}, "categories": [{"id": "4bf58dd8d48988d117951735", "name": "Candy Store", "pluralName": "Candy Stores", "shortName": "Candy Store", "icon": {"prefix": "https://ss3.4sqi.net/img/categories_v2/shops/candystore_", "suffix": ".png"}, "primary": true}], "photos": {"count": 0, "groups": []}}, "referralId": "e-0-4ce9266d595cb1f78c0bcd14-1"}, {"reasons": {"count": 0, "items": [{"summary": "This spot is popular", "type": "general", "reasonName": "globalInteractionReason"}]}, "venue": {"id": "50b3b385e4b02b5016d02617", "name": "Hoxton Fruit & Veg", "location": {"address": "183 Hoxton St", "lat": 51.532075, "lng": -0.08011, "labeledLatLngs": [{"label": "display", "lat": 51.532075, "lng": -0.08011}], "distance": 224, "postalCode": "N1 6RA", "cc": "GB", "neighborhood": "Hackney", "city": "London", "state": "Greater London", "country": "United Kingdom", "formattedAddress": ["183 Hoxton St", "London", "Greater London", "N1 6RA", "United Kingdom"]}, "categories": [{"id": "4bf58dd8d48988d118951735", "name": "Grocery Store", "pluralName": "Grocery Stores", "shortName": "Grocery Store", "icon": {"prefix": "https://ss3.4sqi.net/img/categories_v2/shops/food_grocery_", "suffix": ".png"}, "primary": true}], "photos": {"count": 0, "groups": []}}, "referralId": "e-0-50b3b385e4b02b5016d02617-2"}, {"reasons": {"count": 0, "items": [{"summary": "This spot is popular", "type": "general", "reasonName": "globalInteractionReason"}]}, "venue": {"id": "579dfc4bcd10cf6ab82d9a98", "name": "GreatArt London Shoreditch", "location": {"address": "49 Kingsland Rd", "lat": 51.52932401648265, "lng": -0.07766355608242999, "labeledLatLngs": [{"label": "display", "lat": 51.52932401648265, "lng": -0.07766355608242999}], "distance": 387, "postalCode": "E2 8AG", "cc": "GB", "neighborhood": "Hackney, London, Greater London", "city": "London", "state": "Greater London", "country": "United Kingdom", "formattedAddress": ["49 Kingsland Rd", "London", "Greater London", "E2 8AG", "United Kingdom"]}, "categories": [{"id": "4bf58dd8d48988d127951735", "name": "Arts & Crafts Store", "pluralName": "Arts & Crafts Stores", "shortName": "Arts & Crafts", "icon": {"prefix": "https://ss3.4sqi.net/img/categories_v2/shops/artstore_", "suffix": ".png"}, "primary": true}], "photos": {"count": 0, "groups": []}}, "referralId": "e-0-579dfc4bcd10cf6ab82d9a98-3"}, {"reasons": {"count": 0, "items": [{"summary": "This spot is popular", "type": "general", "reasonName": "globalInteractionReason"}]}, "venue": {"id": "4f71ff24e4b00bcde2f54e34", "name": "Article", "location": {"address": "96 Kingsland Road", "lat": 51.529894136335024, "lng": -0.07732209012312108, "labeledLatLngs": [{"label": "display", "lat": 51.529894136335024, "lng": -0.07732209012312108}], "distance": 386, "cc": "GB", "city": "London", "state": "Greater London", "country": "United Kingdom", "formattedAddress": ["96 Kingsland Road", "London", "Greater London", "United Kingdom"]}, "categories": [{"id": "4bf58dd8d48988d103951735", "name": "Clothing Store", "pluralName": "Clothing Stores", "shortName": "Apparel", "icon": {"prefix": "https://ss3.4sqi.net/img/categories_v2/shops/apparel_", "suffix": ".png"}, "primary": true}], "photos": {"count": 0, "groups": []}}, "referralId": "e-0-4f71ff24e4b00bcde2f54e34-4"}, {"reasons": {"count": 0, "items": [{"summary": "This spot is popular", "type": "general", "reasonName": "globalInteractionReason"}]}, "venue": {"id": "4fe9a489e4b0fba7c1d2dfc8", "name": "Poundland", "location": {"address": "142-146 Hoxton Street", "lat": 51.53211548991803, "lng": -0.07991842925548553, "labeledLatLngs": [{"label": "display", "lat": 51.53211548991803, "lng": -0.07991842925548553}], "distance": 237, "postalCode": "N1 6SH", "cc": "GB", "city": "Hoxton", "state": "Greater London", "country": "United Kingdom", "formattedAddress": ["142-146 Hoxton Street", "Hoxton", "Greater London", "N1 6SH", "United Kingdom"]}, "categories": [{"id": "52dea92d3cf9994f4e043dbb", "name": "Discount Store", "pluralName": "Discount Stores", "shortName": "Discount Store", "icon": {"prefix": "https://ss3.4sqi.net/img/categories_v2/shops/discountstore_", "suffix": ".png"}, "primary": true}], "photos": {"count": 0, "groups": []}}, "referralId": "e-0-4fe9a489e4b0fba7c1d2dfc8-5"}, {"reasons": {"count": 0, "items": [{"summary": "This spot is popular", "type": "general", "reasonName": "globalInteractionReason"}]}, "venue": {"id": "502931a7e4b042eaf9020b92", "name": "Hoxton Shoe Repair's", "location": {"address": "190 Hoxton Street", "lat": 51.5333316758031, "lng": -0.08023949392740097, "labeledLatLngs": [{"label": "display", "lat": 51.5333316758031, "lng": -0.08023949392740097}], "distance": 324, "postalCode": "N1 5LH", "cc": "GB", "city": "London", "state": "Greater London", "country": "United Kingdom", "formattedAddress": ["190 Hoxton Street", "London", "Greater London", "N1 5LH", "United Kingdom"]}, "categories": [{"id": "52f2ab2ebcbc57f1066b8b39", "name": "Shoe Repair", "pluralName": "Shoe Repair Shops", "shortName": "Shoe Repair", "icon": {"prefix": "https://ss3.4sqi.net/img/categories_v2/shops/apparel_shoestore_", "suffix": ".png"}, "primary": true}], "photos": {"count": 0, "groups": []}}, "referralId": "e-0-502931a7e4b042eaf9020b92-6"}, {"reasons": {"count": 0, "items": [{"summary": "This spot is popular", "type": "general", "reasonName": "globalInteractionReason"}]}, "venue": {"id": "5670535e498ee86ae9f055f8", "name": "Longdan", "location": {"address": "57-59 Kingsland Road", "lat": 51.52966233942758, "lng": -0.07747678912315731, "labeledLatLngs": [{"label": "display", "lat": 51.52966233942758, "lng": -0.07747678912315731}], "distance": 384, "cc": "GB", "neighborhood": "Hackney", "city": "London", "state": "Greater London", "country": "United Kingdom", "formattedAddress": ["57-59 Kingsland Road", "London", "Greater London", "United Kingdom"]}, "categories": [{"id": "4bf58dd8d48988d118951735", "name": "Grocery Store", "pluralName": "Grocery Stores", "shortName": "Grocery Store", "icon": {"prefix": "https://ss3.4sqi.net/img/categories_v2/shops/food_grocery_", "suffix": ".png"}, "primary": true}], "photos": {"count": 0, "groups": []}}, "referralId": "e-0-5670535e498ee86ae9f055f8-7"}, {"reasons": {"count": 0, "items": [{"summary": "This spot is popular", "type": "general", "reasonName": "globalInteractionReason"}]}, "venue": {"id": "4bcd8ee068f976b0b0606483", "name": "Iceland", "location": {"address": "209-223 Hoxton St", "crossStreet": "Purcell St", "lat": 51.53317758608139, "lng": -0.07830813797610903, "labeledLatLngs": [{"label": "display", "lat": 51.53317758608139, "lng": -0.07830813797610903}], "distance": 398, "postalCode": "N1 5LX", "cc": "GB", "city": "Shoreditch", "state": "Greater London", "country": "United Kingdom", "formattedAddress": ["209-223 Hoxton St (Purcell St)", "Shoreditch", "Greater London", "N1 5LX", "United Kingdom"]}, "categories": [{"id": "4bf58dd8d48988d118951735", "name": "Grocery Store", "pluralName": "Grocery Stores", "shortName": "Grocery Store", "icon": {"prefix": "https://ss3.4sqi.net/img/categories_v2/shops/food_grocery_", "suffix": ".png"}, "primary": true}], "photos": {"count": 0, "groups": []}}, "referralId": "e-0-4bcd8ee068f976b0b0606483-8"}, {"reasons": {"count": 0, "items": [{"summary": "This spot is popular", "type": "general", "reasonName": "globalInteractionReason"}]}, "venue": {"id": "4b643b76f964a52078a52ae3", "name": "Hoxton Street Market", "location": {"address": "Hoxton St", "lat": 51.532208093655534, "lng": -0.08017659187316895, "labeledLatLngs": [{"label": "display", "lat": 51.532208093655534, "lng": -0.08017659187316895}], "distance": 230, "postalCode": "N1", "cc": "GB", "city": "Hoxton", "state": "Greater London", "country": "United Kingdom", "formattedAddress": ["Hoxton St", "Hoxton", "Greater London", "N1", "United Kingdom"]}, "categories": [{"id": "50be8ee891d4fa8dcc7199a7", "name": "Market", "pluralName": "Markets", "shortName": "Market", "icon": {"prefix": "https://ss3.4sqi.net/img/categories_v2/shops/market_", "suffix": ".png"}, "primary": true}], "photos": {"count": 0, "groups": []}}, "referralId": "e-0-4b643b76f964a52078a52ae3-9"}, {"reasons": {"count": 0, "items": [{"summary": "This spot is popular", "type": "general", "reasonName": "globalInteractionReason"}]}, "venue": {"id": "51da97575019117a961c633b", "name": "Flanders", "location": {"address": "86 Hoxton Street", "lat": 51.5304661107123, "lng": -0.08007466793060303, "labeledLatLngs": [{"label": "display", "lat": 51.5304661107123, "lng": -0.08007466793060303}], "distance": 185, "postalCode": "N1 6LP", "cc": "GB", "city": "London", "state": "Greater London", "country": "United Kingdom", "formattedAddress": ["86 Hoxton Street", "London", "Greater London", "N1 6LP", "United Kingdom"]}, "categories": [{"id": "4bf58dd8d48988d101951735", "name": "Thrift / Vintage Store", "pluralName": "Thrift / Vintage Stores", "shortName": "Thrift / Vintage", "icon": {"prefix": "https://ss3.4sqi.net/img/categories_v2/shops/default_", "suffix": ".png"}, "primary": true}], "photos": {"count": 0, "groups": []}, "venuePage": {"id": "60944273"}}, "referralId": "e-0-51da97575019117a961c633b-10"}, {"reasons": {"count": 0, "items": [{"summary": "This spot is popular", "type": "general", "reasonName": "globalInteractionReason"}]}, "venue": {"id": "4c309f913ffc952185da8ff5", "name": "City Supermarket", "location": {"address": "55 Pitfield Street", "lat": 51.52930475171809, "lng": -0.08385658264160156, "labeledLatLngs": [{"label": "display", "lat": 51.52930475171809, "lng": -0.08385658264160156}], "distance": 190, "postalCode": "N1 6NP", "cc": "GB", "city": "London", "state": "Greater London", "country": "United Kingdom", "formattedAddress": ["55 Pitfield Street", "London", "Greater London", "N1 6NP", "United Kingdom"]}, "categories": [{"id": "4bf58dd8d48988d118951735", "name": "Grocery Store", "pluralName": "Grocery Stores", "shortName": "Grocery Store", "icon": {"prefix": "https://ss3.4sqi.net/img/categories_v2/shops/food_grocery_", "suffix": ".png"}, "primary": true}], "photos": {"count": 0, "groups": []}}, "referralId": "e-0-4c309f913ffc952185da8ff5-11"}, {"reasons": {"count": 0, "items": [{"summary": "This spot is popular", "type": "general", "reasonName": "globalInteractionReason"}]}, "venue": {"id": "5d11fb483e8ac4002df5c7b8", "name": "Big Bang Bouncy Castle Hire", "location": {"address": "2 Purcell St", "lat": 51.5327601, "lng": -0.08270360000005894, "labeledLatLngs": [{"label": "display", "lat": 51.5327601, "lng": -0.08270360000005894}], "distance": 212, "postalCode": "N1 6RD", "cc": "GB", "city": "2 Purcell Street London N1 6RD", "country": "United Kingdom", "formattedAddress": ["2 Purcell St", "2 Purcell Street London N1 6RD", "N1 6RD", "United Kingdom"]}, "categories": [{"id": "5454152e498ef71e2b9132c6", "name": "Event Service", "pluralName": "Event Services", "shortName": "Event Services", "icon": {"prefix": "https://ss3.4sqi.net/img/categories_v2/event/default_", "suffix": ".png"}, "primary": true}], "photos": {"count": 0, "groups": []}, "venuePage": {"id": "544379722"}}, "referralId": "e-0-5d11fb483e8ac4002df5c7b8-12"}, {"reasons": {"count": 0, "items": [{"summary": "This spot is popular", "type": "general", "reasonName": "globalInteractionReason"}]}, "venue": {"id": "4dc95417c65bdbb2ee92c6e3", "name": "Zeyno Supermarket", "location": {"lat": 51.530601078853394, "lng": -0.08609861229357435, "labeledLatLngs": [{"label": "display", "lat": 51.530601078853394, "lng": -0.08609861229357435}], "distance": 237, "cc": "GB", "city": "Hackney", "state": "Greater London", "country": "United Kingdom", "formattedAddress": ["Hackney", "Greater London", "United Kingdom"]}, "categories": [{"id": "4d954b0ea243a5684a65b473", "name": "Convenience Store", "pluralName": "Convenience Stores", "shortName": "Convenience Store", "icon": {"prefix": "https://ss3.4sqi.net/img/categories_v2/shops/conveniencestore_", "suffix": ".png"}, "primary": true}], "photos": {"count": 0, "groups": []}}, "referralId": "e-0-4dc95417c65bdbb2ee92c6e3-13"}, {"reasons": {"count": 0, "items": [{"summary": "This spot is popular", "type": "general", "reasonName": "globalInteractionReason"}]}, "venue": {"id": "4d78fa45f20c236a494ea341", "name": "Yours Food Centre", "location": {"address": "51-53 Pitfield St", "lat": 51.52861417873337, "lng": -0.08363436057094387, "labeledLatLngs": [{"label": "display", "lat": 51.52861417873337, "lng": -0.08363436057094387}], "distance": 257, "postalCode": "N1 6BU", "cc": "GB", "neighborhood": "Hoxton, London, Greater London", "city": "London", "state": "Greater London", "country": "United Kingdom", "formattedAddress": ["51-53 Pitfield St", "London", "Greater London", "N1 6BU", "United Kingdom"]}, "categories": [{"id": "4bf58dd8d48988d118951735", "name": "Grocery Store", "pluralName": "Grocery Stores", "shortName": "Grocery Store", "icon": {"prefix": "https://ss3.4sqi.net/img/categories_v2/shops/food_grocery_", "suffix": ".png"}, "primary": true}], "photos": {"count": 0, "groups": []}}, "referralId": "e-0-4d78fa45f20c236a494ea341-14"}, {"reasons": {"count": 0, "items": [{"summary": "This spot is popular", "type": "general", "reasonName": "globalInteractionReason"}]}, "venue": {"id": "5a7deefbc0f163521eb086a5", "name": "Shop And Go Oriental Supermarket", "location": {"lat": 51.52979, "lng": -0.08695554, "labeledLatLngs": [{"label": "display", "lat": 51.52979, "lng": -0.08695554}], "distance": 318, "postalCode": "N1 6AQ", "cc": "GB", "city": "London", "state": "Greater London", "country": "United Kingdom", "formattedAddress": ["London", "Greater London", "N1 6AQ", "United Kingdom"]}, "categories": [{"id": "52f2ab2ebcbc57f1066b8b46", "name": "Supermarket", "pluralName": "Supermarkets", "shortName": "Supermarket", "icon": {"prefix": "https://ss3.4sqi.net/img/categories_v2/shops/food_grocery_", "suffix": ".png"}, "primary": true}], "photos": {"count": 0, "groups": []}}, "referralId": "e-0-5a7deefbc0f163521eb086a5-15"}, {"reasons": {"count": 0, "items": [{"summary": "This spot is popular", "type": "general", "reasonName": "globalInteractionReason"}]}, "venue": {"id": "57307d2d498e52414d2be5e0", "name": "KND Photography", "location": {"address": "16 Allerton Street", "lat": 51.53021210000001, "lng": -0.0878743, "labeledLatLngs": [{"label": "display", "lat": 51.53021210000001, "lng": -0.0878743}], "distance": 366, "postalCode": "N1 7QX", "cc": "GB", "city": "London", "state": "Greater London", "country": "United Kingdom", "formattedAddress": ["16 Allerton Street", "London", "Greater London", "N1 7QX", "United Kingdom"]}, "categories": [{"id": "554a5e17498efabeda6cc559", "name": "Photography Studio", "pluralName": "Photography Studios", "shortName": "Photo Studio", "icon": {"prefix": "https://ss3.4sqi.net/img/categories_v2/shops/camerastore_", "suffix": ".png"}, "primary": true}], "photos": {"count": 0, "groups": []}, "venuePage": {"id": "191261019"}}, "referralId": "e-0-57307d2d498e52414d2be5e0-16"}, {"reasons": {"count": 0, "items": [{"summary": "This spot is popular", "type": "general", "reasonName": "globalInteractionReason"}]}, "venue": {"id": "4ad7853cf964a520bd0b21e3", "name": "Flowers East", "location": {"address": "Kingsland Road", "lat": 51.531565148133566, "lng": -0.07742234375286955, "labeledLatLngs": [{"label": "display", "lat": 51.531565148133566, "lng": -0.07742234375286955}], "distance": 373, "cc": "GB", "city": "London", "state": "Greater London", "country": "United Kingdom", "formattedAddress": ["Kingsland Road", "London", "Greater London", "United Kingdom"]}, "categories": [{"id": "4bf58dd8d48988d11b951735", "name": "Flower Shop", "pluralName": "Flower Shops", "shortName": "Flower Shop", "icon": {"prefix": "https://ss3.4sqi.net/img/categories_v2/shops/flowershop_", "suffix": ".png"}, "primary": true}], "photos": {"count": 0, "groups": []}}, "referralId": "e-0-4ad7853cf964a520bd0b21e3-17"}, {"reasons": {"count": 0, "items": [{"summary": "This spot is popular", "type": "general", "reasonName": "globalInteractionReason"}]}, "venue": {"id": "59bbc9132955130fbfbea091", "name": "Tetra Live-In Care", "location": {"address": "Flat 6, 1, Coronet St", "lat": 51.527402, "lng": -0.083379, "labeledLatLngs": [{"label": "display", "lat": 51.527402, "lng": -0.083379}], "distance": 386, "postalCode": "N1 6AE", "cc": "GB", "city": "London", "state": "Greater London", "country": "United Kingdom", "formattedAddress": ["Flat 6, 1, Coronet St", "London", "Greater London", "N1 6AE", "United Kingdom"]}, "categories": [{"id": "545419b1498ea6ccd0202f58", "name": "Home Service", "pluralName": "Home Services & Repairs", "shortName": "Home Services", "icon": {"prefix": "https://ss3.4sqi.net/img/categories_v2/shops/hardware_", "suffix": ".png"}, "primary": true}], "photos": {"count": 0, "groups": []}}, "referralId": "e-0-59bbc9132955130fbfbea091-18"}, {"reasons": {"count": 0, "items": [{"summary": "This spot is popular", "type": "general", "reasonName": "globalInteractionReason"}]}, "venue": {"id": "4bfe861cf7c82d7fa5b08f04", "name": "Paintworks", "location": {"address": "99-101 Kingsland Road", "lat": 51.530776601338275, "lng": -0.07708680242319639, "labeledLatLngs": [{"label": "display", "lat": 51.530776601338275, "lng": -0.07708680242319639}], "distance": 387, "postalCode": "E2 8AG", "cc": "GB", "city": "Hackney", "state": "Greater London", "country": "United Kingdom", "formattedAddress": ["99-101 Kingsland Road", "Hackney", "Greater London", "E2 8AG", "United Kingdom"]}, "categories": [{"id": "4bf58dd8d48988d127951735", "name": "Arts & Crafts Store", "pluralName": "Arts & Crafts Stores", "shortName": "Arts & Crafts", "icon": {"prefix": "https://ss3.4sqi.net/img/categories_v2/shops/artstore_", "suffix": ".png"}, "primary": true}], "photos": {"count": 0, "groups": []}}, "referralId": "e-0-4bfe861cf7c82d7fa5b08f04-19"}, {"reasons": {"count": 0, "items": [{"summary": "This spot is popular", "type": "general", "reasonName": "globalInteractionReason"}]}, "venue": {"id": "4f8d8f91e4b05426ef8319c2", "name": "The Grayston Centre Ethical Property", "location": {"address": "28 Charles Square", "lat": 51.52746530216066, "lng": -0.0842979734400269, "labeledLatLngs": [{"label": "display", "lat": 51.52746530216066, "lng": -0.0842979734400269}], "distance": 393, "postalCode": "N1 6HT", "cc": "GB", "city": "London", "state": "Greater London", "country": "United Kingdom", "formattedAddress": ["28 Charles Square", "London", "Greater London", "N1 6HT", "United Kingdom"]}, "categories": [{"id": "5453de49498eade8af355881", "name": "Business Service", "pluralName": "Business Services", "shortName": "Business Services", "icon": {"prefix": "https://ss3.4sqi.net/img/categories_v2/building/default_", "suffix": ".png"}, "primary": true}], "photos": {"count": 0, "groups": []}, "venuePage": {"id": "578623894"}}, "referralId": "e-0-4f8d8f91e4b05426ef8319c2-20"}, {"reasons": {"count": 0, "items": [{"summary": "This spot is popular", "type": "general", "reasonName": "globalInteractionReason"}]}, "venue": {"id": "4ca2057e79d9b1f78640c499", "name": "A-Z Dry Cleaners", "location": {"lat": 51.527395532353154, "lng": -0.08143402150963525, "labeledLatLngs": [{"label": "display", "lat": 51.527395532353154, "lng": -0.08143402150963525}], "distance": 394, "cc": "GB", "city": "Hackney", "state": "Greater London", "country": "United Kingdom", "formattedAddress": ["Hackney", "Greater London", "United Kingdom"]}, "categories": [{"id": "52f2ab2ebcbc57f1066b8b1d", "name": "Dry Cleaner", "pluralName": "Dry Cleaners", "shortName": "Dry Cleaner", "icon": {"prefix": "https://ss3.4sqi.net/img/categories_v2/shops/drycleaner_", "suffix": ".png"}, "primary": true}], "photos": {"count": 0, "groups": []}}, "referralId": "e-0-4ca2057e79d9b1f78640c499-21"}, {"reasons": {"count": 0, "items": [{"summary": "This spot is popular", "type": "general", "reasonName": "globalInteractionReason"}]}, "venue": {"id": "50589d20e4b018f7e6444a84", "name": "Poundland", "location": {"address": "142 - 146 Hoxton St", "crossStreet": "Wilks Pl", "lat": 51.53315936805221, "lng": -0.07825164440435839, "labeledLatLngs": [{"label": "display", "lat": 51.53315936805221, "lng": -0.07825164440435839}], "distance": 400, "postalCode": "N1 6SH", "cc": "GB", "city": "London", "state": "Greater London", "country": "United Kingdom", "formattedAddress": ["142 - 146 Hoxton St (Wilks Pl)", "London", "Greater London", "N1 6SH", "United Kingdom"]}, "categories": [{"id": "52dea92d3cf9994f4e043dbb", "name": "Discount Store", "pluralName": "Discount Stores", "shortName": "Discount Store", "icon": {"prefix": "https://ss3.4sqi.net/img/categories_v2/shops/discountstore_", "suffix": ".png"}, "primary": true}], "photos": {"count": 0, "groups": []}}, "referralId": "e-0-50589d20e4b018f7e6444a84-22"}, {"reasons": {"count": 0, "items": [{"summary": "This spot is popular", "type": "general", "reasonName": "globalInteractionReason"}]}, "venue": {"id": "4b542c40f964a520bbb327e3", "name": "Tesco Express", "location": {"address": "100 E Rd", "lat": 51.5301688, "lng": -0.0862951, "labeledLatLngs": [{"label": "display", "lat": 51.5301688, "lng": -0.0862951}], "distance": 261, "postalCode": "N1 6AA", "cc": "GB", "city": "London", "state": "Greater London", "country": "United Kingdom", "formattedAddress": ["100 E Rd", "London", "Greater London", "N1 6AA", "United Kingdom"]}, "categories": [{"id": "4bf58dd8d48988d118951735", "name": "Grocery Store", "pluralName": "Grocery Stores", "shortName": "Grocery Store", "icon": {"prefix": "https://ss3.4sqi.net/img/categories_v2/shops/food_grocery_", "suffix": ".png"}, "primary": true}], "photos": {"count": 0, "groups": []}}, "referralId": "e-0-4b542c40f964a520bbb327e3-23"}, {"reasons": {"count": 0, "items": [{"summary": "This spot is popular", "type": "general", "reasonName": "globalInteractionReason"}]}, "venue": {"id": "56d8dc58498ef1500ae31f8d", "name": "Pie Web Ltd", "location": {"address": "The Safe House,truman Brewery,91 Brick Lane", "lat": 51.532695303009504, "lng": -0.07829904556274414, "labeledLatLngs": [{"label": "display", "lat": 51.532695303009504, "lng": -0.07829904556274414}], "distance": 366, "postalCode": "E1 6QL", "cc": "GB", "city": "London", "state": "Greater London", "country": "United Kingdom", "formattedAddress": ["The Safe House,truman Brewery,91 Brick Lane", "London", "Greater London", "E1 6QL", "United Kingdom"]}, "categories": [{"id": "52f2ab2ebcbc57f1066b8b36", "name": "IT Services", "pluralName": "IT Services", "shortName": "IT Services", "icon": {"prefix": "https://ss3.4sqi.net/img/categories_v2/shops/technology_", "suffix": ".png"}, "primary": true}], "photos": {"count": 0, "groups": []}, "venuePage": {"id": "167755750"}}, "referralId": "e-0-56d8dc58498ef1500ae31f8d-24"}, {"reasons": {"count": 0, "items": [{"summary": "This spot is popular", "type": "general", "reasonName": "globalInteractionReason"}]}, "venue": {"id": "56e17725498e19fc5c4e4075", "name": "hoxton brothers supermarket", "location": {"lat": 51.533902, "lng": -0.080042, "labeledLatLngs": [{"label": "display", "lat": 51.533902, "lng": -0.080042}], "distance": 385, "cc": "GB", "country": "United Kingdom", "formattedAddress": ["United Kingdom"]}, "categories": [{"id": "52f2ab2ebcbc57f1066b8b46", "name": "Supermarket", "pluralName": "Supermarkets", "shortName": "Supermarket", "icon": {"prefix": "https://ss3.4sqi.net/img/categories_v2/shops/food_grocery_", "suffix": ".png"}, "primary": true}], "photos": {"count": 0, "groups": []}}, "referralId": "e-0-56e17725498e19fc5c4e4075-25"}]}]}}