{"meta": {"code": 200, "requestId": "5feddc21499ac81c6067c083"}, "response": {"warning": {"text": "There aren't a lot of results near you. Try something more general, reset your filters, or expand the search area."}, "headerLocation": "Wick", "headerFullLocation": "Wick, London", "headerLocationGranularity": "neighborhood", "query": "arts entertainment", "totalResults": 3, "suggestedBounds": {"ne": {"lat": 51.5477800036, "lng": -0.01781219253019458}, "sw": {"lat": 51.54057999639999, "lng": -0.02936780746980542}}, "groups": [{"type": "Recommended Places", "name": "recommended", "items": [{"reasons": {"count": 0, "items": [{"summary": "This spot is popular", "type": "general", "reasonName": "globalInteractionReason"}]}, "venue": {"id": "4fbe78b4e4b0a3912ddfb4b9", "name": "The White Building", "location": {"address": "Unit 7, Queens Yard", "lat": 51.54305325096762, "lng": -0.022062999338229684, "labeledLatLngs": [{"label": "display", "lat": 51.54305325096762, "lng": -0.022062999338229684}], "distance": 164, "cc": "GB", "country": "United Kingdom", "formattedAddress": ["Unit 7, Queens Yard", "United Kingdom"]}, "categories": [{"id": "4bf58dd8d48988d1e2931735", "name": "Art Gallery", "pluralName": "Art Galleries", "shortName": "Art Gallery", "icon": {"prefix": "https://ss3.4sqi.net/img/categories_v2/arts_entertainment/artgallery_", "suffix": ".png"}, "primary": true}], "photos": {"count": 0, "groups": []}}, "referralId": "e-0-4fbe78b4e4b0a3912ddfb4b9-0"}, {"reasons": {"count": 0, "items": [{"summary": "This spot is popular", "type": "general", "reasonName": "globalInteractionReason"}]}, "venue": {"id": "4e29e63ce4cd3bc166842640", "name": "The Yard Theatre", "location": {"address": "Queen's Yard", "crossStreet": "White Post Lane", "lat": 51.54269762245317, "lng": -0.023313698071683587, "labeledLatLngs": [{"label": "display", "lat": 51.54269762245317, "lng": -0.023313698071683587}], "distance": 166, "cc": "GB", "city": "Poplar", "state": "Greater London", "country": "United Kingdom", "formattedAddress": ["Queen's Yard (White Post Lane)", "Poplar", "Greater London", "United Kingdom"]}, "categories": [{"id": "4bf58dd8d48988d137941735", "name": "Theater", "pluralName": "Theaters", "shortName": "Theater", "icon": {"prefix": "https://ss3.4sqi.net/img/categories_v2/arts_entertainment/performingarts_theater_", "suffix": ".png"}, "primary": true}], "photos": {"count": 0, "groups": []}}, "referralId": "e-0-4e29e63ce4cd3bc166842640-1"}, {"reasons": {"count": 0, "items": [{"summary": "This spot is popular", "type": "general", "reasonName": "globalInteractionReason"}]}, "venue": {"id": "4e73b80ffa76812398fd3270", "name": "Queens Yard", "location": {"lat": 51.543133778540366, "lng": -0.023870889720404048, "labeledLatLngs": [{"label": "display", "lat": 51.543133778540366, "lng": -0.023870889720404048}], "distance": 118, "cc": "GB", "city": "Poplar", "state": "Greater London", "country": "United Kingdom", "formattedAddress": ["Poplar", "Greater London", "United Kingdom"]}, "categories": [{"id": "4bf58dd8d48988d1e2931735", "name": "Art Gallery", "pluralName": "Art Galleries", "shortName": "Art Gallery", "icon": {"prefix": "https://ss3.4sqi.net/img/categories_v2/arts_entertainment/artgallery_", "suffix": ".png"}, "primary": true}], "photos": {"count": 0, "groups": []}}, "referralId": "e-0-4e73b80ffa76812398fd3270-2"}]}]}}