{"meta": {"code": 200, "requestId": "5feddc72ba6fa474b869c5d7"}, "response": {"headerLocation": "Havering", "headerFullLocation": "Havering, London", "headerLocationGranularity": "neighborhood", "query": "travel", "totalResults": 4, "suggestedBounds": {"ne": {"lat": 51.5699400036, "lng": 0.19295062306852215}, "sw": {"lat": 51.56273999639999, "lng": 0.18138937693147786}}, "groups": [{"type": "Recommended Places", "name": "recommended", "items": [{"reasons": {"count": 0, "items": [{"summary": "This spot is popular", "type": "general", "reasonName": "globalInteractionReason"}]}, "venue": {"id": "527141b9498e7158e501bb19", "name": "Bus Stop RA", "location": {"address": "Roneo Corner", "lat": 51.565679, "lng": 0.187525, "labeledLatLngs": [{"label": "display", "lat": 51.565679, "lng": 0.187525}], "distance": 77, "cc": "GB", "country": "United Kingdom", "formattedAddress": ["Roneo Corner", "United Kingdom"]}, "categories": [{"id": "52f2ab2ebcbc57f1066b8b4f", "name": "Bus Stop", "pluralName": "Bus Stops", "shortName": "Bus Stop", "icon": {"prefix": "https://ss3.4sqi.net/img/categories_v2/travel/busstation_", "suffix": ".png"}, "primary": true}], "photos": {"count": 0, "groups": []}}, "referralId": "e-0-527141b9498e7158e501bb19-0"}, {"reasons": {"count": 0, "items": [{"summary": "This spot is popular", "type": "general", "reasonName": "globalInteractionReason"}]}, "venue": {"id": "4adcc2c7f964a520832f21e3", "name": "YMCA", "location": {"address": "Rush Green Rd.", "lat": 51.565583671827575, "lng": 0.18529162389851084, "labeledLatLngs": [{"label": "display", "lat": 51.565583671827575, "lng": 0.18529162389851084}], "distance": 154, "postalCode": "RM7 0PH", "cc": "GB", "city": "Rush Green", "state": "Greater London", "country": "United Kingdom", "formattedAddress": ["Rush Green Rd.", "Rush Green", "Greater London", "RM7 0PH", "United Kingdom"]}, "categories": [{"id": "4bf58dd8d48988d1ee931735", "name": "Hostel", "pluralName": "Hostels", "shortName": "Hostel", "icon": {"prefix": "https://ss3.4sqi.net/img/categories_v2/travel/hostel_", "suffix": ".png"}, "primary": true}], "photos": {"count": 0, "groups": []}}, "referralId": "e-0-4adcc2c7f964a520832f21e3-1"}, {"reasons": {"count": 0, "items": [{"summary": "This spot is popular", "type": "general", "reasonName": "globalInteractionReason"}]}, "venue": {"id": "50df6f16e4b0f21675932fb4", "name": "Clydesdale Road Bus Stop", "location": {"address": "Clydesdale Road", "lat": 51.566972827901694, "lng": 0.18797476020756562, "labeledLatLngs": [{"label": "display", "lat": 51.566972827901694, "lng": 0.18797476020756562}], "distance": 89, "cc": "GB", "city": "Romford", "state": "Greater London", "country": "United Kingdom", "formattedAddress": ["Clydesdale Road", "Romford", "Greater London", "United Kingdom"]}, "categories": [{"id": "52f2ab2ebcbc57f1066b8b4f", "name": "Bus Stop", "pluralName": "Bus Stops", "shortName": "Bus Stop", "icon": {"prefix": "https://ss3.4sqi.net/img/categories_v2/travel/busstation_", "suffix": ".png"}, "primary": true}], "photos": {"count": 0, "groups": []}}, "referralId": "e-0-50df6f16e4b0f21675932fb4-2"}, {"reasons": {"count": 0, "items": [{"summary": "This spot is popular", "type": "general", "reasonName": "globalInteractionReason"}]}, "venue": {"id": "52fe6eb711d256ddd8fd5390", "name": "Hayburn Way Bus Stop", "location": {"lat": 51.563583211569394, "lng": 0.19060156537197706, "labeledLatLngs": [{"label": "display", "lat": 51.563583211569394, "lng": 0.19060156537197706}], "distance": 388, "cc": "GB", "country": "United Kingdom", "formattedAddress": ["United Kingdom"]}, "categories": [{"id": "52f2ab2ebcbc57f1066b8b4f", "name": "Bus Stop", "pluralName": "Bus Stops", "shortName": "Bus Stop", "icon": {"prefix": "https://ss3.4sqi.net/img/categories_v2/travel/busstation_", "suffix": ".png"}, "primary": true}], "photos": {"count": 0, "groups": []}}, "referralId": "e-0-52fe6eb711d256ddd8fd5390-3"}]}]}}