{"meta": {"code": 200, "requestId": "5fedd9f3fb7e627cbe958e7d"}, "response": {"suggestedFilters": {"header": "Tap to show:", "filters": [{"name": "Open now", "key": "openNow"}]}, "headerLocation": "Lambeth", "headerFullLocation": "Lambeth, London", "headerLocationGranularity": "neighborhood", "query": "arts entertainment", "totalResults": 5, "suggestedBounds": {"ne": {"lat": 51.494980003600006, "lng": -0.11589888666080324}, "sw": {"lat": 51.48777999639999, "lng": -0.12744111333919678}}, "groups": [{"type": "Recommended Places", "name": "recommended", "items": [{"reasons": {"count": 0, "items": [{"summary": "This spot is popular", "type": "general", "reasonName": "globalInteractionReason"}]}, "venue": {"id": "5616766d498e52c7305e148f", "name": "Newport Street Gallery", "location": {"address": "Newport St", "lat": 51.493466071643546, "lng": -0.1170402521691333, "labeledLatLngs": [{"label": "display", "lat": 51.493466071643546, "lng": -0.1170402521691333}], "distance": 396, "postalCode": "SE11 6AJ", "cc": "GB", "city": "London", "state": "Greater London", "country": "United Kingdom", "formattedAddress": ["Newport St", "London", "Greater London", "SE11 6AJ", "United Kingdom"]}, "categories": [{"id": "4bf58dd8d48988d1e2931735", "name": "Art Gallery", "pluralName": "Art Galleries", "shortName": "Art Gallery", "icon": {"prefix": "https://ss3.4sqi.net/img/categories_v2/arts_entertainment/artgallery_", "suffix": ".png"}, "primary": true}], "photos": {"count": 0, "groups": []}}, "referralId": "e-0-5616766d498e52c7305e148f-0"}, {"reasons": {"count": 0, "items": [{"summary": "This spot is popular", "type": "general", "reasonName": "globalInteractionReason"}]}, "venue": {"id": "4e9ed02761afec1907f016cd", "name": "Beaconsfield", "location": {"address": "22 Newport St", "lat": 51.491931525138114, "lng": -0.11894109208640546, "labeledLatLngs": [{"label": "display", "lat": 51.491931525138114, "lng": -0.11894109208640546}], "distance": 198, "postalCode": "SE11 6AY", "cc": "GB", "city": "London", "state": "Greater London", "country": "United Kingdom", "formattedAddress": ["22 Newport St", "London", "Greater London", "SE11 6AY", "United Kingdom"]}, "categories": [{"id": "4bf58dd8d48988d1e2931735", "name": "Art Gallery", "pluralName": "Art Galleries", "shortName": "Art Gallery", "icon": {"prefix": "https://ss3.4sqi.net/img/categories_v2/arts_entertainment/artgallery_", "suffix": ".png"}, "primary": true}], "photos": {"count": 0, "groups": []}}, "referralId": "e-0-4e9ed02761afec1907f016cd-1"}, {"reasons": {"count": 0, "items": [{"summary": "This spot is popular", "type": "general", "reasonName": "globalInteractionReason"}]}, "venue": {"id": "58bff21d8cb34e395a4e7dcf", "name": "The workshop", "location": {"lat": 51.49282, "lng": -0.1202327, "labeledLatLngs": [{"label": "display", "lat": 51.49282, "lng": -0.1202327}], "distance": 188, "postalCode": "S E11", "cc": "GB", "city": "London", "state": "Greater London", "country": "United Kingdom", "formattedAddress": ["London", "Greater London", "S E11", "United Kingdom"]}, "categories": [{"id": "4bf58dd8d48988d181941735", "name": "Museum", "pluralName": "Museums", "shortName": "Museum", "icon": {"prefix": "https://ss3.4sqi.net/img/categories_v2/arts_entertainment/museum_", "suffix": ".png"}, "primary": true}], "photos": {"count": 0, "groups": []}}, "referralId": "e-0-58bff21d8cb34e395a4e7dcf-2"}, {"reasons": {"count": 0, "items": [{"summary": "This spot is popular", "type": "general", "reasonName": "globalInteractionReason"}]}, "venue": {"id": "5aeed4c6dd12f8002cf3f76b", "name": "Base Dance Studios", "location": {"lat": 51.489719, "lng": -0.121973, "labeledLatLngs": [{"label": "display", "lat": 51.489719, "lng": -0.121973}], "distance": 186, "postalCode": "SE11 5EJ", "cc": "GB", "city": "London", "state": "Greater London", "country": "United Kingdom", "formattedAddress": ["London", "Greater London", "SE11 5EJ", "United Kingdom"]}, "categories": [{"id": "4bf58dd8d48988d134941735", "name": "Dance Studio", "pluralName": "Dance Studios", "shortName": "Dance Studio", "icon": {"prefix": "https://ss3.4sqi.net/img/categories_v2/arts_entertainment/performingarts_dancestudio_", "suffix": ".png"}, "primary": true}], "photos": {"count": 0, "groups": []}}, "referralId": "e-0-5aeed4c6dd12f8002cf3f76b-3"}, {"reasons": {"count": 0, "items": [{"summary": "This spot is popular", "type": "general", "reasonName": "globalInteractionReason"}]}, "venue": {"id": "53e12b93498e8db166a365b9", "name": "Reels Cinema Cafe Bar", "location": {"address": "21-24 Millbank", "lat": 51.491893220197646, "lng": -0.12535976646749217, "labeledLatLngs": [{"label": "display", "lat": 51.491893220197646, "lng": -0.12535976646749217}], "distance": 262, "postalCode": "SW1P 4QP", "cc": "GB", "city": "London", "state": "Greater London", "country": "United Kingdom", "formattedAddress": ["21-24 Millbank", "London", "Greater London", "SW1P 4QP", "United Kingdom"]}, "categories": [{"id": "4bf58dd8d48988d17e941735", "name": "Indie Movie Theater", "pluralName": "Indie Movie Theaters", "shortName": "Indie Movies", "icon": {"prefix": "https://ss3.4sqi.net/img/categories_v2/arts_entertainment/movietheater_", "suffix": ".png"}, "primary": true}], "photos": {"count": 0, "groups": []}}, "referralId": "e-0-53e12b93498e8db166a365b9-4"}]}]}}