{"meta": {"code": 200, "requestId": "5fedda5a8ed5f550e580d4a7"}, "response": {"suggestedFilters": {"header": "Tap to show:", "filters": [{"name": "Open now", "key": "openNow"}]}, "headerLocation": "Hackney", "headerFullLocation": "Hackney, London", "headerLocationGranularity": "neighborhood", "query": "food", "totalResults": 17, "suggestedBounds": {"ne": {"lat": 51.53486000360001, "lng": -0.06292383245173602}, "sw": {"lat": 51.5276599964, "lng": -0.07447616754826397}}, "groups": [{"type": "Recommended Places", "name": "recommended", "items": [{"reasons": {"count": 0, "items": [{"summary": "This spot is popular", "type": "general", "reasonName": "globalInteractionReason"}]}, "venue": {"id": "572dcf4b498e6743a25b14dc", "name": "Morito", "location": {"address": "195 Hackney Rd", "lat": 51.530903807600346, "lng": -0.0721104801932266, "labeledLatLngs": [{"label": "display", "lat": 51.530903807600346, "lng": -0.0721104801932266}], "distance": 239, "postalCode": "E2 8JL", "cc": "GB", "neighborhood": "Hackney", "city": "London", "state": "Greater London", "country": "United Kingdom", "formattedAddress": ["195 Hackney Rd", "London", "Greater London", "E2 8JL", "United Kingdom"]}, "categories": [{"id": "4bf58dd8d48988d1db931735", "name": "Tapas Restaurant", "pluralName": "Tapas Restaurants", "shortName": "Tapas", "icon": {"prefix": "https://ss3.4sqi.net/img/categories_v2/food/tapas_", "suffix": ".png"}, "primary": true}], "photos": {"count": 0, "groups": []}, "venuePage": {"id": "354125193"}}, "referralId": "e-0-572dcf4b498e6743a25b14dc-0"}, {"reasons": {"count": 0, "items": [{"summary": "This spot is popular", "type": "general", "reasonName": "globalInteractionReason"}]}, "venue": {"id": "4b08090bf964a520ad0223e3", "name": "Premises Cafe Bistro", "location": {"address": "209 Hackney Rd", "crossStreet": "near Ravenscroft Street", "lat": 51.531008017168325, "lng": -0.07147688077628597, "labeledLatLngs": [{"label": "display", "lat": 51.531008017168325, "lng": -0.07147688077628597}], "distance": 194, "postalCode": "E2 8JL", "cc": "GB", "city": "London", "state": "Greater London", "country": "United Kingdom", "formattedAddress": ["209 Hackney Rd (near Ravenscroft Street)", "Haggerston", "Greater London", "E2 8JL", "United Kingdom"]}, "categories": [{"id": "4bf58dd8d48988d16d941735", "name": "Caf\u00e9", "pluralName": "Caf\u00e9s", "shortName": "Caf\u00e9", "icon": {"prefix": "https://ss3.4sqi.net/img/categories_v2/food/cafe_", "suffix": ".png"}, "primary": true}], "photos": {"count": 0, "groups": []}}, "referralId": "e-0-4b08090bf964a520ad0223e3-1"}, {"reasons": {"count": 0, "items": [{"summary": "This spot is popular", "type": "general", "reasonName": "globalInteractionReason"}]}, "venue": {"id": "4bb5fb2cf562ef3b93732f97", "name": "Campania Gastronomia", "location": {"address": "95 Columbia Road", "crossStreet": "Barnet Grove", "lat": 51.529850795667194, "lng": -0.06868630681944737, "labeledLatLngs": [{"label": "display", "lat": 51.529850795667194, "lng": -0.06868630681944737}], "distance": 156, "postalCode": "E2  7RG", "cc": "GB", "neighborhood": "Tower Hamlets", "city": "Bethnal Green", "state": "Greater London", "country": "United Kingdom", "formattedAddress": ["95 Columbia Road (Barnet Grove)", "Bethnal Green", "Greater London", "E2  7RG", "United Kingdom"]}, "categories": [{"id": "4bf58dd8d48988d110941735", "name": "Italian Restaurant", "pluralName": "Italian Restaurants", "shortName": "Italian", "icon": {"prefix": "https://ss3.4sqi.net/img/categories_v2/food/italian_", "suffix": ".png"}, "primary": true}], "photos": {"count": 0, "groups": []}}, "referralId": "e-0-4bb5fb2cf562ef3b93732f97-2"}, {"reasons": {"count": 0, "items": [{"summary": "This spot is popular", "type": "general", "reasonName": "globalInteractionReason"}]}, "venue": {"id": "4ceed4e213aea143e6e16f9f", "name": "Brawn", "location": {"address": "49 Columbia Rd", "lat": 51.528912924034444, "lng": -0.0703129817333181, "labeledLatLngs": [{"label": "display", "lat": 51.528912924034444, "lng": -0.0703129817333181}], "distance": 284, "postalCode": "E2 7RG", "cc": "GB", "city": "Shoreditch", "state": "Greater London", "country": "United Kingdom", "formattedAddress": ["49 Columbia Rd", "Shoreditch", "Greater London", "E2 7RG", "United Kingdom"]}, "categories": [{"id": "4bf58dd8d48988d1c4941735", "name": "Restaurant", "pluralName": "Restaurants", "shortName": "Restaurant", "icon": {"prefix": "https://ss3.4sqi.net/img/categories_v2/food/default_", "suffix": ".png"}, "primary": true}], "photos": {"count": 0, "groups": []}}, "referralId": "e-0-4ceed4e213aea143e6e16f9f-3"}, {"reasons": {"count": 0, "items": [{"summary": "This spot is popular", "type": "general", "reasonName": "globalInteractionReason"}]}, "venue": {"id": "555a43d5498e549e358f3625", "name": "Marksman", "location": {"address": "254 Hackney Rd", "crossStreet": "Queensbridge Rd", "lat": 51.530947, "lng": -0.069542, "labeledLatLngs": [{"label": "display", "lat": 51.530947, "lng": -0.069542}], "distance": 67, "postalCode": "E2 7SJ", "cc": "GB", "city": "London", "state": "Greater London", "country": "United Kingdom", "formattedAddress": ["254 Hackney Rd (Queensbridge Rd)", "London", "Greater London", "E2 7SJ", "United Kingdom"]}, "categories": [{"id": "4bf58dd8d48988d155941735", "name": "Gastropub", "pluralName": "Gastropubs", "shortName": "Gastropub", "icon": {"prefix": "https://ss3.4sqi.net/img/categories_v2/food/gastropub_", "suffix": ".png"}, "primary": true}], "photos": {"count": 0, "groups": []}}, "referralId": "e-0-555a43d5498e549e358f3625-4"}, {"reasons": {"count": 0, "items": [{"summary": "This spot is popular", "type": "general", "reasonName": "globalInteractionReason"}]}, "venue": {"id": "4b127df2f964a5203a8a23e3", "name": "Laxeiro", "location": {"address": "93 Columbia Rd.", "lat": 51.52981414968927, "lng": -0.06869989303600905, "labeledLatLngs": [{"label": "display", "lat": 51.52981414968927, "lng": -0.06869989303600905}], "distance": 160, "postalCode": "E2 7RG", "cc": "GB", "city": "London", "state": "Greater London", "country": "United Kingdom", "formattedAddress": ["93 Columbia Rd.", "London", "Greater London", "E2 7RG", "United Kingdom"]}, "categories": [{"id": "4bf58dd8d48988d1db931735", "name": "Tapas Restaurant", "pluralName": "Tapas Restaurants", "shortName": "Tapas", "icon": {"prefix": "https://ss3.4sqi.net/img/categories_v2/food/tapas_", "suffix": ".png"}, "primary": true}], "photos": {"count": 0, "groups": []}}, "referralId": "e-0-4b127df2f964a5203a8a23e3-5"}, {"reasons": {"count": 0, "items": [{"summary": "This spot is popular", "type": "general", "reasonName": "globalInteractionReason"}]}, "venue": {"id": "4af55318f964a520cef821e3", "name": "Frizzante", "location": {"address": "Hackney City Farm, 1a Goldsmiths Row", "crossStreet": "Hackney Road", "lat": 51.5316948795553, "lng": -0.06639513778714735, "labeledLatLngs": [{"label": "display", "lat": 51.5316948795553, "lng": -0.06639513778714735}], "distance": 166, "postalCode": "E2 8QA", "cc": "GB", "city": "London", "state": "Greater London", "country": "United Kingdom", "formattedAddress": ["Hackney City Farm, 1a Goldsmiths Row (Hackney Road)", "Haggerston", "Greater London", "E2 8QA", "United Kingdom"]}, "categories": [{"id": "4bf58dd8d48988d110941735", "name": "Italian Restaurant", "pluralName": "Italian Restaurants", "shortName": "Italian", "icon": {"prefix": "https://ss3.4sqi.net/img/categories_v2/food/italian_", "suffix": ".png"}, "primary": true}], "photos": {"count": 0, "groups": []}}, "referralId": "e-0-4af55318f964a520cef821e3-6"}, {"reasons": {"count": 0, "items": [{"summary": "This spot is popular", "type": "general", "reasonName": "globalInteractionReason"}]}, "venue": {"id": "529f9914498edf741fd295d2", "name": "Clutch", "location": {"address": "4 Ravenscroft St", "lat": 51.529822119951305, "lng": -0.07105610181975072, "labeledLatLngs": [{"label": "display", "lat": 51.529822119951305, "lng": -0.07105610181975072}], "distance": 228, "postalCode": "E2 7QG", "cc": "GB", "city": "London", "state": "Greater London", "country": "United Kingdom", "formattedAddress": ["4 Ravenscroft St", "Tower Hamlets", "Greater London", "E2 7QG", "United Kingdom"]}, "categories": [{"id": "4d4ae6fc7a7b7dea34424761", "name": "Fried Chicken Joint", "pluralName": "Fried Chicken Joints", "shortName": "Fried Chicken", "icon": {"prefix": "https://ss3.4sqi.net/img/categories_v2/food/friedchicken_", "suffix": ".png"}, "primary": true}], "photos": {"count": 0, "groups": []}}, "referralId": "e-0-529f9914498edf741fd295d2-7"}, {"reasons": {"count": 0, "items": [{"summary": "This spot is popular", "type": "general", "reasonName": "globalInteractionReason"}]}, "venue": {"id": "572f580c498e77d16cfe8945", "name": "Pavilion Bakery", "location": {"address": "Columbia Road", "lat": 51.52926176852781, "lng": -0.06958545795762676, "labeledLatLngs": [{"label": "display", "lat": 51.52926176852781, "lng": -0.06958545795762676}], "distance": 230, "cc": "GB", "city": "Hoxton", "state": "Greater London", "country": "United Kingdom", "formattedAddress": ["Columbia Road", "Hoxton", "Greater London", "United Kingdom"]}, "categories": [{"id": "4bf58dd8d48988d16a941735", "name": "Bakery", "pluralName": "Bakeries", "shortName": "Bakery", "icon": {"prefix": "https://ss3.4sqi.net/img/categories_v2/food/bakery_", "suffix": ".png"}, "primary": true}], "photos": {"count": 0, "groups": []}}, "referralId": "e-0-572f580c498e77d16cfe8945-8"}, {"reasons": {"count": 0, "items": [{"summary": "This spot is popular", "type": "general", "reasonName": "globalInteractionReason"}]}, "venue": {"id": "4acf0018f964a5203ed220e3", "name": "Little Georgia", "location": {"address": "87 Goldsmiths Row", "crossStreet": "Audrey Street", "lat": 51.53320754530001, "lng": -0.06508900200706333, "labeledLatLngs": [{"label": "display", "lat": 51.53320754530001, "lng": -0.06508900200706333}], "distance": 330, "postalCode": "E2 8QR", "cc": "GB", "city": "London", "state": "Greater London", "country": "United Kingdom", "formattedAddress": ["87 Goldsmiths Row (Audrey Street)", "Haggerston", "Greater London", "E2 8QR", "United Kingdom"]}, "categories": [{"id": "5293a7d53cf9994f4e043a45", "name": "Caucasian Restaurant", "pluralName": "Caucasian Restaurants", "shortName": "Caucasian", "icon": {"prefix": "https://ss3.4sqi.net/img/categories_v2/food/caucasian_", "suffix": ".png"}, "primary": true}], "photos": {"count": 0, "groups": []}}, "referralId": "e-0-4acf0018f964a5203ed220e3-9"}, {"reasons": {"count": 0, "items": [{"summary": "This spot is popular", "type": "general", "reasonName": "globalInteractionReason"}]}, "venue": {"id": "4ad210abf964a5202bdf20e3", "name": "Stringray Globe", "location": {"address": "109 Columbia Rd", "lat": 51.53035356916949, "lng": -0.06815007972602627, "labeledLatLngs": [{"label": "display", "lat": 51.53035356916949, "lng": -0.06815007972602627}], "distance": 107, "postalCode": "E2 7RL", "cc": "GB", "city": "London", "state": "Greater London", "country": "United Kingdom", "formattedAddress": ["109 Columbia Rd", "London", "Greater London", "E2 7RL", "United Kingdom"]}, "categories": [{"id": "4bf58dd8d48988d1ca941735", "name": "Pizza Place", "pluralName": "Pizza Places", "shortName": "Pizza", "icon": {"prefix": "https://ss3.4sqi.net/img/categories_v2/food/pizza_", "suffix": ".png"}, "primary": true}], "photos": {"count": 0, "groups": []}}, "referralId": "e-0-4ad210abf964a5202bdf20e3-10"}, {"reasons": {"count": 0, "items": [{"summary": "This spot is popular", "type": "general", "reasonName": "globalInteractionReason"}]}, "venue": {"id": "4e07092918a8382643b1bca3", "name": "Long White Cloud", "location": {"address": "151 Hackney Rd.", "lat": 51.53038835195166, "lng": -0.07357744459981226, "labeledLatLngs": [{"label": "display", "lat": 51.53038835195166, "lng": -0.07357744459981226}], "distance": 351, "postalCode": "E2 8JL", "cc": "GB", "city": "Hoxton", "state": "Greater London", "country": "United Kingdom", "formattedAddress": ["151 Hackney Rd.", "Hoxton", "Greater London", "E2 8JL", "United Kingdom"]}, "categories": [{"id": "4bf58dd8d48988d16d941735", "name": "Caf\u00e9", "pluralName": "Caf\u00e9s", "shortName": "Caf\u00e9", "icon": {"prefix": "https://ss3.4sqi.net/img/categories_v2/food/cafe_", "suffix": ".png"}, "primary": true}], "photos": {"count": 0, "groups": []}}, "referralId": "e-0-4e07092918a8382643b1bca3-11"}, {"reasons": {"count": 0, "items": [{"summary": "This spot is popular", "type": "general", "reasonName": "globalInteractionReason"}]}, "venue": {"id": "4c39c3501e06d13a4e107a3e", "name": "Cafe Columbia", "location": {"address": "138 Columbia Rd.", "lat": 51.52933880684907, "lng": -0.06930033524705101, "labeledLatLngs": [{"label": "display", "lat": 51.52933880684907, "lng": -0.06930033524705101}], "distance": 217, "postalCode": "E2 7RG", "cc": "GB", "city": "London", "state": "Greater London", "country": "United Kingdom", "formattedAddress": ["138 Columbia Rd.", "London", "Greater London", "E2 7RG", "United Kingdom"]}, "categories": [{"id": "4bf58dd8d48988d16d941735", "name": "Caf\u00e9", "pluralName": "Caf\u00e9s", "shortName": "Caf\u00e9", "icon": {"prefix": "https://ss3.4sqi.net/img/categories_v2/food/cafe_", "suffix": ".png"}, "primary": true}], "photos": {"count": 0, "groups": []}}, "referralId": "e-0-4c39c3501e06d13a4e107a3e-12"}, {"reasons": {"count": 0, "items": [{"summary": "This spot is popular", "type": "general", "reasonName": "globalInteractionReason"}]}, "venue": {"id": "514a0834e4b05d081df5ae1b", "name": "Shisha Garden Grill", "location": {"lat": 51.53148115271826, "lng": -0.06360517167842739, "labeledLatLngs": [{"label": "display", "lat": 51.53148115271826, "lng": -0.06360517167842739}], "distance": 353, "cc": "GB", "city": "London", "state": "Greater London", "country": "United Kingdom", "formattedAddress": ["London", "Greater London", "United Kingdom"]}, "categories": [{"id": "4f04af1f2fb6e1c99f3db0bb", "name": "Turkish Restaurant", "pluralName": "Turkish Restaurants", "shortName": "Turkish", "icon": {"prefix": "https://ss3.4sqi.net/img/categories_v2/food/turkish_", "suffix": ".png"}, "primary": true}], "photos": {"count": 0, "groups": []}}, "referralId": "e-0-514a0834e4b05d081df5ae1b-13"}, {"reasons": {"count": 0, "items": [{"summary": "This spot is popular", "type": "general", "reasonName": "globalInteractionReason"}]}, "venue": {"id": "4e371e95fa7606f143f817c7", "name": "Golden Grill", "location": {"address": "184 Hackney Rd", "lat": 51.53068952639183, "lng": -0.0725217918425268, "labeledLatLngs": [{"label": "display", "lat": 51.53068952639183, "lng": -0.0725217918425268}], "distance": 272, "postalCode": "E2 7QL", "cc": "GB", "city": "Hackney", "state": "Greater London", "country": "United Kingdom", "formattedAddress": ["184 Hackney Rd", "Hackney", "Greater London", "E2 7QL", "United Kingdom"]}, "categories": [{"id": "4bf58dd8d48988d115941735", "name": "Middle Eastern Restaurant", "pluralName": "Middle Eastern Restaurants", "shortName": "Middle Eastern", "icon": {"prefix": "https://ss3.4sqi.net/img/categories_v2/food/middleeastern_", "suffix": ".png"}, "primary": true}], "photos": {"count": 0, "groups": []}}, "referralId": "e-0-4e371e95fa7606f143f817c7-14"}, {"reasons": {"count": 0, "items": [{"summary": "This spot is popular", "type": "general", "reasonName": "globalInteractionReason"}]}, "venue": {"id": "5d3eb69bc9c00d0007514fd8", "name": "Yard Sale Pizza", "location": {"address": "184 Hackney Rd", "lat": 51.53063297020267, "lng": -0.07259130477905273, "labeledLatLngs": [{"label": "display", "lat": 51.53063297020267, "lng": -0.07259130477905273}], "distance": 278, "postalCode": "E2 7QL", "cc": "GB", "neighborhood": "Tower Hamlets", "city": "London", "state": "Greater London", "country": "United Kingdom", "formattedAddress": ["184 Hackney Rd", "London", "Greater London", "E2 7QL", "United Kingdom"]}, "categories": [{"id": "4bf58dd8d48988d1ca941735", "name": "Pizza Place", "pluralName": "Pizza Places", "shortName": "Pizza", "icon": {"prefix": "https://ss3.4sqi.net/img/categories_v2/food/pizza_", "suffix": ".png"}, "primary": true}], "photos": {"count": 0, "groups": []}}, "referralId": "e-0-5d3eb69bc9c00d0007514fd8-15"}, {"reasons": {"count": 0, "items": [{"summary": "This spot is popular", "type": "general", "reasonName": "globalInteractionReason"}]}, "venue": {"id": "4f456517e4b080c0396d0d5b", "name": "US Way Pizza", "location": {"address": "196 Hackney Rd", "lat": 51.53051950581574, "lng": -0.0726771354675293, "labeledLatLngs": [{"label": "display", "lat": 51.53051950581574, "lng": -0.0726771354675293}], "distance": 287, "postalCode": "E2 7QL", "cc": "GB", "city": "London", "state": "Greater London", "country": "United Kingdom", "formattedAddress": ["196 Hackney Rd", "London", "Greater London", "E2 7QL", "United Kingdom"]}, "categories": [{"id": "4bf58dd8d48988d1ca941735", "name": "Pizza Place", "pluralName": "Pizza Places", "shortName": "Pizza", "icon": {"prefix": "https://ss3.4sqi.net/img/categories_v2/food/pizza_", "suffix": ".png"}, "primary": true}], "photos": {"count": 0, "groups": []}}, "referralId": "e-0-4f456517e4b080c0396d0d5b-16"}]}]}}