{"meta": {"code": 200, "requestId": "5fedda7d30b6ce4dff3ef237"}, "response": {"warning": {"text": "There aren't a lot of results near you. Try something more general, reset your filters, or expand the search area."}, "headerLocation": "Islington", "headerFullLocation": "Islington, London", "headerLocationGranularity": "neighborhood", "query": "college education", "totalResults": 3, "suggestedBounds": {"ne": {"lat": 51.577349003600006, "lng": -0.11300343475576495}, "sw": {"lat": 51.57014899639999, "lng": -0.12456656524423505}}, "groups": [{"type": "Recommended Places", "name": "recommended", "items": [{"reasons": {"count": 0, "items": [{"summary": "This spot is popular", "type": "general", "reasonName": "globalInteractionReason"}]}, "venue": {"id": "4dbefccdcda109aa6cd6985b", "name": "7 In 1 Supermarket", "location": {"lat": 51.572974923110976, "lng": -0.12014189860065645, "labeledLatLngs": [{"label": "display", "lat": 51.572974923110976, "lng": -0.12014189860065645}], "distance": 127, "cc": "GB", "city": "Islington", "state": "Greater London", "country": "United Kingdom", "formattedAddress": ["Islington", "Greater London", "United Kingdom"]}, "categories": [{"id": "4d954b0ea243a5684a65b473", "name": "Convenience Store", "pluralName": "Convenience Stores", "shortName": "Convenience Store", "icon": {"prefix": "https://ss3.4sqi.net/img/categories_v2/shops/conveniencestore_", "suffix": ".png"}, "primary": true}], "photos": {"count": 0, "groups": []}}, "referralId": "e-0-4dbefccdcda109aa6cd6985b-0"}, {"reasons": {"count": 0, "items": [{"summary": "This spot is popular", "type": "general", "reasonName": "globalInteractionReason"}]}, "venue": {"id": "5a5755ad491be76ec4e347fc", "name": "JW Healing Hands", "location": {"address": "63A Cecile Park, Crouch End", "lat": 51.57708953989286, "lng": -0.1199108362197876, "labeledLatLngs": [{"label": "display", "lat": 51.57708953989286, "lng": -0.1199108362197876}], "distance": 379, "postalCode": "N8 9AX", "cc": "GB", "city": "London", "state": "Greater London", "country": "United Kingdom", "formattedAddress": ["63A Cecile Park, Crouch End", "London", "Greater London", "N8 9AX", "United Kingdom"]}, "categories": [{"id": "52f2ab2ebcbc57f1066b8b3c", "name": "Massage Studio", "pluralName": "Massage Studios", "shortName": "Massage Studio", "icon": {"prefix": "https://ss3.4sqi.net/img/categories_v2/shops/spa_", "suffix": ".png"}, "primary": true}], "photos": {"count": 0, "groups": []}}, "referralId": "e-0-5a5755ad491be76ec4e347fc-1"}, {"reasons": {"count": 0, "items": [{"summary": "This spot is popular", "type": "general", "reasonName": "globalInteractionReason"}]}, "venue": {"id": "5fbb0efc999f5138190c2054", "name": "Blomma Beauty", "location": {"address": "10a Crouch Hill, Finsbury Park", "lat": 51.57076450788709, "lng": -0.11571384966373444, "labeledLatLngs": [{"label": "display", "lat": 51.57076450788709, "lng": -0.11571384966373444}], "distance": 394, "postalCode": "N4 4AU", "cc": "GB", "city": "London", "state": "Greater London", "country": "United Kingdom", "formattedAddress": ["10a Crouch Hill, Finsbury Park", "London", "Greater London", "N4 4AU", "United Kingdom"]}, "categories": [{"id": "54541900498ea6ccd0202697", "name": "Health & Beauty Service", "pluralName": "Health & Beauty Services", "shortName": "Health & Beauty", "icon": {"prefix": "https://ss3.4sqi.net/img/categories_v2/shops/salon_barber_", "suffix": ".png"}, "primary": true}], "photos": {"count": 0, "groups": []}}, "referralId": "e-0-5fbb0efc999f5138190c2054-2"}]}]}}