{"meta": {"code": 200, "requestId": "5feddc303a674158420c34cf"}, "response": {"warning": {"text": "There aren't a lot of results near you. Try something more general, reset your filters, or expand the search area."}, "headerLocation": "Havering", "headerFullLocation": "Havering, London", "headerLocationGranularity": "neighborhood", "query": "college education", "totalResults": 3, "suggestedBounds": {"ne": {"lat": 51.530060003600006, "lng": 0.17099555860144244}, "sw": {"lat": 51.522859996399994, "lng": 0.15944444139855757}}, "groups": [{"type": "Recommended Places", "name": "recommended", "items": [{"reasons": {"count": 0, "items": [{"summary": "This spot is popular", "type": "general", "reasonName": "globalInteractionReason"}]}, "venue": {"id": "5e4b8b7b31cdff00085150fc", "name": "J.M.T. Decorators", "location": {"address": "9 South St", "lat": 51.52676, "lng": 0.16771, "labeledLatLngs": [{"label": "display", "lat": 51.52676, "lng": 0.16771}], "distance": 175, "postalCode": "RM13 8PJ", "cc": "GB", "city": "Rainham", "state": "Greater London", "country": "United Kingdom", "formattedAddress": ["9 South St", "Rainham", "Greater London", "RM13 8PJ", "United Kingdom"]}, "categories": [{"id": "5454144b498ec1f095bff2f2", "name": "Construction & Landscaping", "pluralName": "Construction & Landscaping", "shortName": "Construction", "icon": {"prefix": "https://ss3.4sqi.net/img/categories_v2/shops/realestate_", "suffix": ".png"}, "primary": true}], "photos": {"count": 0, "groups": []}}, "referralId": "e-0-5e4b8b7b31cdff00085150fc-0"}, {"reasons": {"count": 0, "items": [{"summary": "This spot is popular", "type": "general", "reasonName": "globalInteractionReason"}]}, "venue": {"id": "5f3f08dc6443fc0631969ac1", "name": "M & N Carpet & Flooring Ltd", "location": {"address": "41 New Rd", "lat": 51.5259463, "lng": 0.1683105, "labeledLatLngs": [{"label": "display", "lat": 51.5259463, "lng": 0.1683105}], "distance": 221, "postalCode": "RM13 8DR", "cc": "GB", "city": "Rainham", "state": "Greater London", "country": "United Kingdom", "formattedAddress": ["41 New Rd", "Rainham", "Greater London", "RM13 8DR", "United Kingdom"]}, "categories": [{"id": "52f2ab2ebcbc57f1066b8b2a", "name": "Carpet Store", "pluralName": "Carpet Stores", "shortName": "Carpet Store", "icon": {"prefix": "https://ss3.4sqi.net/img/categories_v2/shops/default_", "suffix": ".png"}, "primary": true}], "photos": {"count": 0, "groups": []}}, "referralId": "e-0-5f3f08dc6443fc0631969ac1-1"}, {"reasons": {"count": 0, "items": [{"summary": "This spot is popular", "type": "general", "reasonName": "globalInteractionReason"}]}, "venue": {"id": "57f74bc7498e09f469ff2e99", "name": "Rainham Fencing", "location": {"address": "16 Barley Court, Lower Mardyke Avenue", "lat": 51.52857983217964, "lng": 0.16812385648347572, "labeledLatLngs": [{"label": "display", "lat": 51.52857983217964, "lng": 0.16812385648347572}], "distance": 310, "postalCode": "RM13 8FT", "cc": "GB", "city": "Rainham", "state": "Greater London", "country": "United Kingdom", "formattedAddress": ["16 Barley Court, Lower Mardyke Avenue", "Rainham", "Greater London", "RM13 8FT", "United Kingdom"]}, "categories": [{"id": "5454144b498ec1f095bff2f2", "name": "Construction & Landscaping", "pluralName": "Construction & Landscaping", "shortName": "Construction", "icon": {"prefix": "https://ss3.4sqi.net/img/categories_v2/shops/realestate_", "suffix": ".png"}, "primary": true}], "photos": {"count": 0, "groups": []}}, "referralId": "e-0-57f74bc7498e09f469ff2e99-2"}]}]}}