{"meta": {"code": 200, "requestId": "5feddc25bec16445af303be1"}, "response": {"warning": {"text": "There aren't a lot of results near you. Try something more general, reset your filters, or expand the search area."}, "headerLocation": "Royal Docks", "headerFullLocation": "Royal Docks, London", "headerLocationGranularity": "neighborhood", "query": "college education", "totalResults": 3, "suggestedBounds": {"ne": {"lat": 51.5034210036, "lng": 0.032902182141645864}, "sw": {"lat": 51.49622099639999, "lng": 0.021357817858354135}}, "groups": [{"type": "Recommended Places", "name": "recommended", "items": [{"reasons": {"count": 0, "items": [{"summary": "This spot is popular", "type": "general", "reasonName": "globalInteractionReason"}]}, "venue": {"id": "5a293bd34940bc7540392195", "name": "Sainsbury's Local", "location": {"address": "11 Royal Crest Avenue, Newham", "lat": 51.50055931504855, "lng": 0.02960809049878499, "labeledLatLngs": [{"label": "display", "lat": 51.50055931504855, "lng": 0.02960809049878499}], "distance": 190, "postalCode": "E16 2PG", "cc": "GB", "city": "London", "state": "Greater London", "country": "United Kingdom", "formattedAddress": ["11 Royal Crest Avenue, Newham", "London", "Greater London", "E16 2PG", "United Kingdom"]}, "categories": [{"id": "4bf58dd8d48988d118951735", "name": "Grocery Store", "pluralName": "Grocery Stores", "shortName": "Grocery Store", "icon": {"prefix": "https://ss3.4sqi.net/img/categories_v2/shops/food_grocery_", "suffix": ".png"}, "primary": true}], "photos": {"count": 0, "groups": []}}, "referralId": "e-0-5a293bd34940bc7540392195-0"}, {"reasons": {"count": 0, "items": [{"summary": "This spot is popular", "type": "general", "reasonName": "globalInteractionReason"}]}, "venue": {"id": "5a5b374eb3d8e24d0a37243b", "name": "Al-Amin Electrical Contractor", "location": {"address": "20 Peninsula Court. 2 Montford Place", "lat": 51.50084971484982, "lng": 0.026677921414375305, "labeledLatLngs": [{"label": "display", "lat": 51.50084971484982, "lng": 0.026677921414375305}], "distance": 118, "postalCode": "E15 2QW", "cc": "GB", "city": "London", "state": "Greater London", "country": "United Kingdom", "formattedAddress": ["20 Peninsula Court. 2 Montford Place", "London", "Greater London", "E15 2QW", "United Kingdom"]}, "categories": [{"id": "545419b1498ea6ccd0202f58", "name": "Home Service", "pluralName": "Home Services & Repairs", "shortName": "Home Services", "icon": {"prefix": "https://ss3.4sqi.net/img/categories_v2/shops/hardware_", "suffix": ".png"}, "primary": true}], "photos": {"count": 0, "groups": []}}, "referralId": "e-0-5a5b374eb3d8e24d0a37243b-1"}, {"reasons": {"count": 0, "items": [{"summary": "This spot is popular", "type": "general", "reasonName": "globalInteractionReason"}]}, "venue": {"id": "58be95bb01f4335fe017c434", "name": "PartyTools", "location": {"address": "Unit 6 Greenshields Industrial Estate", "crossStreet": "Bradfield Rd", "lat": 51.50172378564354, "lng": 0.023244023323059082, "labeledLatLngs": [{"label": "display", "lat": 51.50172378564354, "lng": 0.023244023323059082}], "distance": 342, "postalCode": "E16 2AU", "cc": "GB", "city": "London", "state": "Greater London", "country": "United Kingdom", "formattedAddress": ["Unit 6 Greenshields Industrial Estate (Bradfield Rd)", "London", "Greater London", "E16 2AU", "United Kingdom"]}, "categories": [{"id": "5454152e498ef71e2b9132c6", "name": "Event Service", "pluralName": "Event Services", "shortName": "Event Services", "icon": {"prefix": "https://ss3.4sqi.net/img/categories_v2/event/default_", "suffix": ".png"}, "primary": true}], "photos": {"count": 0, "groups": []}, "venuePage": {"id": "404925696"}}, "referralId": "e-0-58be95bb01f4335fe017c434-2"}]}]}}