{"meta": {"code": 200, "requestId": "5fedda3b78a7474f01696a75"}, "response": {"warning": {"text": "There aren't a lot of results near you. Try something more general, reset your filters, or expand the search area."}, "headerLocation": "Sands End", "headerFullLocation": "Sands End, London", "headerLocationGranularity": "neighborhood", "query": "arts entertainment", "totalResults": 3, "suggestedBounds": {"ne": {"lat": 51.478790003600004, "lng": -0.17848093518688182}, "sw": {"lat": 51.47158999639999, "lng": -0.19001906481311817}}, "groups": [{"type": "Recommended Places", "name": "recommended", "items": [{"reasons": {"count": 0, "items": [{"summary": "This spot is popular", "type": "general", "reasonName": "globalInteractionReason"}]}, "venue": {"id": "4ac518c8f964a52085a520e3", "name": "606 Club", "location": {"address": "90 Lots Rd", "lat": 51.47834400591403, "lng": -0.1814882943054072, "labeledLatLngs": [{"label": "display", "lat": 51.47834400591403, "lng": -0.1814882943054072}], "distance": 399, "postalCode": "SW10 0QD", "cc": "GB", "city": "London", "state": "Greater London", "country": "United Kingdom", "formattedAddress": ["90 Lots Rd", "London", "Greater London", "SW10 0QD", "United Kingdom"]}, "categories": [{"id": "4bf58dd8d48988d1e7931735", "name": "Jazz Club", "pluralName": "Jazz Clubs", "shortName": "Jazz Club", "icon": {"prefix": "https://ss3.4sqi.net/img/categories_v2/arts_entertainment/musicvenue_jazzclub_", "suffix": ".png"}, "primary": true}], "photos": {"count": 0, "groups": []}}, "referralId": "e-0-4ac518c8f964a52085a520e3-0"}, {"reasons": {"count": 0, "items": [{"summary": "This spot is popular", "type": "general", "reasonName": "globalInteractionReason"}]}, "venue": {"id": "4b8904e2f964a520761832e3", "name": "Karen Hardy Dance Studio", "location": {"address": "Imperial Wharf", "crossStreet": "Fulham", "lat": 51.47301679093139, "lng": -0.18162471762017673, "labeledLatLngs": [{"label": "display", "lat": 51.47301679093139, "lng": -0.18162471762017673}], "distance": 302, "cc": "GB", "city": "London", "state": "Greater London", "country": "United Kingdom", "formattedAddress": ["Imperial Wharf (Fulham)", "London", "Greater London", "United Kingdom"]}, "categories": [{"id": "4bf58dd8d48988d134941735", "name": "Dance Studio", "pluralName": "Dance Studios", "shortName": "Dance Studio", "icon": {"prefix": "https://ss3.4sqi.net/img/categories_v2/arts_entertainment/performingarts_dancestudio_", "suffix": ".png"}, "primary": true}], "photos": {"count": 0, "groups": []}}, "referralId": "e-0-4b8904e2f964a520761832e3-1"}, {"reasons": {"count": 0, "items": [{"summary": "This spot is popular", "type": "general", "reasonName": "globalInteractionReason"}]}, "venue": {"id": "4d791a9cece5a1cd9b13a0a4", "name": "Hidde van Seggelen Gallery", "location": {"lat": 51.477028000706795, "lng": -0.18832886300880985, "labeledLatLngs": [{"label": "display", "lat": 51.477028000706795, "lng": -0.18832886300880985}], "distance": 349, "cc": "GB", "country": "United Kingdom", "formattedAddress": ["United Kingdom"]}, "categories": [{"id": "4bf58dd8d48988d1e2931735", "name": "Art Gallery", "pluralName": "Art Galleries", "shortName": "Art Gallery", "icon": {"prefix": "https://ss3.4sqi.net/img/categories_v2/arts_entertainment/artgallery_", "suffix": ".png"}, "primary": true}], "photos": {"count": 0, "groups": []}}, "referralId": "e-0-4d791a9cece5a1cd9b13a0a4-2"}]}]}}