{"meta": {"code": 200, "requestId": "5fedda438c47f042d7c2e4a3"}, "response": {"headerLocation": "Golders Green", "headerFullLocation": "Golders Green, London", "headerLocationGranularity": "neighborhood", "query": "travel", "totalResults": 5, "suggestedBounds": {"ne": {"lat": 51.5682430036, "lng": -0.218103592676001}, "sw": {"lat": 51.56104299639999, "lng": -0.229664407323999}}, "groups": [{"type": "Recommended Places", "name": "recommended", "items": [{"reasons": {"count": 0, "items": [{"summary": "This spot is popular", "type": "general", "reasonName": "globalInteractionReason"}]}, "venue": {"id": "5824ed612db9f34c9d2b4ac0", "name": "Bus Stop SD", "location": {"address": "Dollis Hill Lane", "lat": 51.564053, "lng": -0.22318192, "labeledLatLngs": [{"label": "display", "lat": 51.564053, "lng": -0.22318192}], "distance": 81, "cc": "GB", "country": "United Kingdom", "formattedAddress": ["Dollis Hill Lane", "United Kingdom"]}, "categories": [{"id": "52f2ab2ebcbc57f1066b8b4f", "name": "Bus Stop", "pluralName": "Bus Stops", "shortName": "Bus Stop", "icon": {"prefix": "https://ss3.4sqi.net/img/categories_v2/travel/busstation_", "suffix": ".png"}, "primary": true}], "photos": {"count": 0, "groups": []}}, "referralId": "e-0-5824ed612db9f34c9d2b4ac0-0"}, {"reasons": {"count": 0, "items": [{"summary": "This spot is popular", "type": "general", "reasonName": "globalInteractionReason"}]}, "venue": {"id": "56e847f6498e5562c6f71cd4", "name": "JH Hires Ltd", "location": {"address": "101 Cricklewood Broadway", "lat": 51.5656665842659, "lng": -0.2224302291870117, "labeledLatLngs": [{"label": "display", "lat": 51.5656665842659, "lng": -0.2224302291870117}], "distance": 151, "postalCode": "NW2 3JG", "cc": "GB", "city": "London", "state": "Greater London", "country": "United Kingdom", "formattedAddress": ["101 Cricklewood Broadway", "London", "Greater London", "NW2 3JG", "United Kingdom"]}, "categories": [{"id": "4bf58dd8d48988d1ef941735", "name": "Rental Car Location", "pluralName": "Rental Car Locations", "shortName": "Rental Car", "icon": {"prefix": "https://ss3.4sqi.net/img/categories_v2/shops/airport_rentalcar_", "suffix": ".png"}, "primary": true}], "photos": {"count": 0, "groups": []}, "venuePage": {"id": "168165364"}}, "referralId": "e-0-56e847f6498e5562c6f71cd4-1"}, {"reasons": {"count": 0, "items": [{"summary": "This spot is popular", "type": "general", "reasonName": "globalInteractionReason"}]}, "venue": {"id": "5b8eab126fd626002c9afa64", "name": "Bus Stop BS", "location": {"lat": 51.562862, "lng": -0.22197694, "labeledLatLngs": [{"label": "display", "lat": 51.562862, "lng": -0.22197694}], "distance": 238, "postalCode": "NW2 6JP", "cc": "GB", "city": "London", "state": "Greater London", "country": "United Kingdom", "formattedAddress": ["London", "Greater London", "NW2 6JP", "United Kingdom"]}, "categories": [{"id": "52f2ab2ebcbc57f1066b8b4f", "name": "Bus Stop", "pluralName": "Bus Stops", "shortName": "Bus Stop", "icon": {"prefix": "https://ss3.4sqi.net/img/categories_v2/travel/busstation_", "suffix": ".png"}, "primary": true}], "photos": {"count": 0, "groups": []}}, "referralId": "e-0-5b8eab126fd626002c9afa64-2"}, {"reasons": {"count": 0, "items": [{"summary": "This spot is popular", "type": "general", "reasonName": "globalInteractionReason"}]}, "venue": {"id": "5597f56e498e9ad796e3a2da", "name": "Humber Road Bus Stop SF", "location": {"address": "Edgeware Rd", "crossStreet": "Humber Rd", "lat": 51.5665318910033, "lng": -0.226692594587803, "labeledLatLngs": [{"label": "display", "lat": 51.5665318910033, "lng": -0.226692594587803}], "distance": 286, "cc": "GB", "city": "London", "state": "Greater London", "country": "United Kingdom", "formattedAddress": ["Edgeware Rd (Humber Rd)", "Brent", "Greater London", "United Kingdom"]}, "categories": [{"id": "52f2ab2ebcbc57f1066b8b4f", "name": "Bus Stop", "pluralName": "Bus Stops", "shortName": "Bus Stop", "icon": {"prefix": "https://ss3.4sqi.net/img/categories_v2/travel/busstation_", "suffix": ".png"}, "primary": true}], "photos": {"count": 0, "groups": []}}, "referralId": "e-0-5597f56e498e9ad796e3a2da-3"}, {"reasons": {"count": 0, "items": [{"summary": "This spot is popular", "type": "general", "reasonName": "globalInteractionReason"}]}, "venue": {"id": "4ba0d741f964a520648137e3", "name": "Cricklewood Bus Garage", "location": {"address": "329 Edgware Road", "lat": 51.56234899940192, "lng": -0.22165605596746302, "labeledLatLngs": [{"label": "display", "lat": 51.56234899940192, "lng": -0.22165605596746302}], "distance": 298, "postalCode": "NW2 6JP", "cc": "GB", "city": "London", "state": "Greater London", "country": "United Kingdom", "formattedAddress": ["329 Edgware Road", "Brent", "Greater London", "NW2 6JP", "United Kingdom"]}, "categories": [{"id": "4bf58dd8d48988d1fe931735", "name": "Bus Station", "pluralName": "Bus Stations", "shortName": "Bus Station", "icon": {"prefix": "https://ss3.4sqi.net/img/categories_v2/travel/busstation_", "suffix": ".png"}, "primary": true}], "photos": {"count": 0, "groups": []}}, "referralId": "e-0-4ba0d741f964a520648137e3-4"}]}]}}