{"meta": {"code": 200, "requestId": "5feddcda4536486d2a502925"}, "response": {"suggestedFilters": {"header": "Tap to show:", "filters": [{"name": "Open now", "key": "openNow"}]}, "headerLocation": "Lambeth", "headerFullLocation": "Lambeth, London", "headerLocationGranularity": "neighborhood", "query": "food", "totalResults": 20, "suggestedBounds": {"ne": {"lat": 51.49275000360001, "lng": -0.11699916893719667}, "sw": {"lat": 51.485549996399996, "lng": -0.12854083106280334}}, "groups": [{"type": "Recommended Places", "name": "recommended", "items": [{"reasons": {"count": 0, "items": [{"summary": "This spot is popular", "type": "general", "reasonName": "globalInteractionReason"}]}, "venue": {"id": "4ad31e36f964a5201ee320e3", "name": "Kennington Lane Cafe", "location": {"address": "383 Kennington Lane", "lat": 51.48611805798087, "lng": -0.12123679722217301, "labeledLatLngs": [{"label": "display", "lat": 51.48611805798087, "lng": -0.12123679722217301}], "distance": 353, "postalCode": "SE11 5QY", "cc": "GB", "city": "London", "state": "Greater London", "country": "United Kingdom", "formattedAddress": ["383 Kennington Lane", "London", "Greater London", "SE11 5QY", "United Kingdom"]}, "categories": [{"id": "4bf58dd8d48988d16d941735", "name": "Caf\u00e9", "pluralName": "Caf\u00e9s", "shortName": "Caf\u00e9", "icon": {"prefix": "https://ss3.4sqi.net/img/categories_v2/food/cafe_", "suffix": ".png"}, "primary": true}], "photos": {"count": 0, "groups": []}}, "referralId": "e-0-4ad31e36f964a5201ee320e3-0"}, {"reasons": {"count": 0, "items": [{"summary": "This spot is popular", "type": "general", "reasonName": "globalInteractionReason"}]}, "venue": {"id": "4ad71b60f964a520b30821e3", "name": "Casa Madeira", "location": {"address": "46 Albert Embankment", "lat": 51.488609637771205, "lng": -0.12309667248996244, "labeledLatLngs": [{"label": "display", "lat": 51.488609637771205, "lng": -0.12309667248996244}], "distance": 64, "postalCode": "SE1 7TN", "cc": "GB", "city": "London", "state": "Greater London", "country": "United Kingdom", "formattedAddress": ["46 Albert Embankment", "London", "Greater London", "SE1 7TN", "United Kingdom"]}, "categories": [{"id": "4def73e84765ae376e57713a", "name": "Portuguese Restaurant", "pluralName": "Portuguese Restaurants", "shortName": "Portuguese", "icon": {"prefix": "https://ss3.4sqi.net/img/categories_v2/food/portuguese_", "suffix": ".png"}, "primary": true}], "photos": {"count": 0, "groups": []}}, "referralId": "e-0-4ad71b60f964a520b30821e3-1"}, {"reasons": {"count": 0, "items": [{"summary": "This spot is popular", "type": "general", "reasonName": "globalInteractionReason"}]}, "venue": {"id": "4d457345bbb1a1433e5f5272", "name": "Tate Britain Members Room", "location": {"address": "Millbank", "crossStreet": "Tate Britain", "lat": 51.490792718841796, "lng": -0.12734314086960544, "labeledLatLngs": [{"label": "display", "lat": 51.490792718841796, "lng": -0.12734314086960544}], "distance": 365, "postalCode": "SW1P 4RG", "cc": "GB", "city": "London", "state": "Greater London", "country": "United Kingdom", "formattedAddress": ["Millbank (Tate Britain)", "London", "Greater London", "SW1P 4RG", "United Kingdom"]}, "categories": [{"id": "4bf58dd8d48988d16d941735", "name": "Caf\u00e9", "pluralName": "Caf\u00e9s", "shortName": "Caf\u00e9", "icon": {"prefix": "https://ss3.4sqi.net/img/categories_v2/food/cafe_", "suffix": ".png"}, "primary": true}], "photos": {"count": 0, "groups": []}}, "referralId": "e-0-4d457345bbb1a1433e5f5272-2"}, {"reasons": {"count": 0, "items": [{"summary": "This spot is popular", "type": "general", "reasonName": "globalInteractionReason"}]}, "venue": {"id": "4bf2b16eaf659c749205d847", "name": "Pret A Manger", "location": {"address": "Unit 21, St George's Wharf, Vauxhall", "lat": 51.486243543916615, "lng": -0.12483731327522785, "labeledLatLngs": [{"label": "display", "lat": 51.486243543916615, "lng": -0.12483731327522785}], "distance": 353, "postalCode": "SW8 2JW", "cc": "GB", "city": "London", "state": "Greater London", "country": "United Kingdom", "formattedAddress": ["Unit 21, St George's Wharf, Vauxhall", "London", "Greater London", "SW8 2JW", "United Kingdom"]}, "categories": [{"id": "4bf58dd8d48988d1c5941735", "name": "Sandwich Place", "pluralName": "Sandwich Places", "shortName": "Sandwiches", "icon": {"prefix": "https://ss3.4sqi.net/img/categories_v2/food/deli_", "suffix": ".png"}, "primary": true}], "photos": {"count": 0, "groups": []}}, "referralId": "e-0-4bf2b16eaf659c749205d847-3"}, {"reasons": {"count": 0, "items": [{"summary": "This spot is popular", "type": "general", "reasonName": "globalInteractionReason"}]}, "venue": {"id": "598821e4bfc6d0756dcd3fa8", "name": "Park Plaza Riverbank Restaurant", "location": {"address": "Park Plaza Riverbank Hotel", "lat": 51.491482979898926, "lng": -0.12150662548881307, "labeledLatLngs": [{"label": "display", "lat": 51.491482979898926, "lng": -0.12150662548881307}], "distance": 274, "postalCode": "SE1 7TJ", "cc": "GB", "city": "London", "state": "Greater London", "country": "United Kingdom", "formattedAddress": ["Park Plaza Riverbank Hotel", "London", "Greater London", "SE1 7TJ", "United Kingdom"]}, "categories": [{"id": "4bf58dd8d48988d1c4941735", "name": "Restaurant", "pluralName": "Restaurants", "shortName": "Restaurant", "icon": {"prefix": "https://ss3.4sqi.net/img/categories_v2/food/default_", "suffix": ".png"}, "primary": true}], "photos": {"count": 0, "groups": []}}, "referralId": "e-0-598821e4bfc6d0756dcd3fa8-4"}, {"reasons": {"count": 0, "items": [{"summary": "This spot is popular", "type": "general", "reasonName": "globalInteractionReason"}]}, "venue": {"id": "5a38406d8c35dc150692065d", "name": "Daebak", "location": {"address": "Herbert House, 316-318 Kennington Lane", "lat": 51.486525, "lng": -0.119016, "labeledLatLngs": [{"label": "display", "lat": 51.486525, "lng": -0.119016}], "distance": 391, "postalCode": "SE11 5HY", "cc": "GB", "neighborhood": "Kennington", "city": "London", "state": "Greater London", "country": "United Kingdom", "formattedAddress": ["Herbert House, 316-318 Kennington Lane", "London", "Greater London", "SE11 5HY", "United Kingdom"]}, "categories": [{"id": "4bf58dd8d48988d113941735", "name": "Korean Restaurant", "pluralName": "Korean Restaurants", "shortName": "Korean", "icon": {"prefix": "https://ss3.4sqi.net/img/categories_v2/food/korean_", "suffix": ".png"}, "primary": true}], "photos": {"count": 0, "groups": []}}, "referralId": "e-0-5a38406d8c35dc150692065d-5"}, {"reasons": {"count": 0, "items": [{"summary": "This spot is popular", "type": "general", "reasonName": "globalInteractionReason"}]}, "venue": {"id": "4b16c598f964a52037bd23e3", "name": "Pizza Express", "location": {"address": "25 Millbank", "lat": 51.49198098695869, "lng": -0.1259089270009781, "labeledLatLngs": [{"label": "display", "lat": 51.49198098695869, "lng": -0.1259089270009781}], "distance": 382, "postalCode": "SW1P 4QP", "cc": "GB", "city": "Millbank", "state": "Greater London", "country": "United Kingdom", "formattedAddress": ["25 Millbank", "Millbank", "Greater London", "SW1P 4QP", "United Kingdom"]}, "categories": [{"id": "4bf58dd8d48988d1ca941735", "name": "Pizza Place", "pluralName": "Pizza Places", "shortName": "Pizza", "icon": {"prefix": "https://ss3.4sqi.net/img/categories_v2/food/pizza_", "suffix": ".png"}, "primary": true}], "photos": {"count": 0, "groups": []}}, "referralId": "e-0-4b16c598f964a52037bd23e3-6"}, {"reasons": {"count": 0, "items": [{"summary": "This spot is popular", "type": "general", "reasonName": "globalInteractionReason"}]}, "venue": {"id": "581688bd38fab433ac745c20", "name": "Jihwaja", "location": {"address": "353 Kennington Lane", "lat": 51.48630161399672, "lng": -0.11948114634378725, "labeledLatLngs": [{"label": "display", "lat": 51.48630161399672, "lng": -0.11948114634378725}], "distance": 390, "postalCode": "SE11 5QY", "cc": "GB", "city": "London", "state": "Greater London", "country": "United Kingdom", "formattedAddress": ["353 Kennington Lane", "London", "Greater London", "SE11 5QY", "United Kingdom"]}, "categories": [{"id": "4bf58dd8d48988d113941735", "name": "Korean Restaurant", "pluralName": "Korean Restaurants", "shortName": "Korean", "icon": {"prefix": "https://ss3.4sqi.net/img/categories_v2/food/korean_", "suffix": ".png"}, "primary": true}], "photos": {"count": 0, "groups": []}}, "referralId": "e-0-581688bd38fab433ac745c20-7"}, {"reasons": {"count": 0, "items": [{"summary": "This spot is popular", "type": "general", "reasonName": "globalInteractionReason"}]}, "venue": {"id": "52134ee811d29d953d8af7ca", "name": "Dirty Burger", "location": {"address": "Arch 54, 6 South Lambeth Rd", "lat": 51.485643, "lng": -0.122356, "labeledLatLngs": [{"label": "display", "lat": 51.485643, "lng": -0.122356}], "distance": 391, "postalCode": "SW8 1SS", "cc": "GB", "city": "Vauxhall", "state": "Greater London", "country": "United Kingdom", "formattedAddress": ["Arch 54, 6 South Lambeth Rd", "Vauxhall", "Greater London", "SW8 1SS", "United Kingdom"]}, "categories": [{"id": "4bf58dd8d48988d16c941735", "name": "Burger Joint", "pluralName": "Burger Joints", "shortName": "Burgers", "icon": {"prefix": "https://ss3.4sqi.net/img/categories_v2/food/burger_", "suffix": ".png"}, "primary": true}], "photos": {"count": 0, "groups": []}}, "referralId": "e-0-52134ee811d29d953d8af7ca-8"}, {"reasons": {"count": 0, "items": [{"summary": "This spot is popular", "type": "general", "reasonName": "globalInteractionReason"}]}, "venue": {"id": "5d010e93419a9e002cc241f0", "name": "Mezemiso", "location": {"address": "Crowne Plaza London", "crossStreet": "15th Floor", "lat": 51.491888, "lng": -0.121383, "labeledLatLngs": [{"label": "display", "lat": 51.491888, "lng": -0.121383}], "distance": 319, "postalCode": "SE1 7SP", "cc": "GB", "city": "South Bank", "state": "Greater London", "country": "United Kingdom", "formattedAddress": ["Crowne Plaza London (15th Floor)", "South Bank", "Greater London", "SE1 7SP", "United Kingdom"]}, "categories": [{"id": "4bf58dd8d48988d1c4941735", "name": "Restaurant", "pluralName": "Restaurants", "shortName": "Restaurant", "icon": {"prefix": "https://ss3.4sqi.net/img/categories_v2/food/default_", "suffix": ".png"}, "primary": true}], "photos": {"count": 0, "groups": []}}, "referralId": "e-0-5d010e93419a9e002cc241f0-9"}, {"reasons": {"count": 0, "items": [{"summary": "This spot is popular", "type": "general", "reasonName": "globalInteractionReason"}]}, "venue": {"id": "4acf113af964a5205dd220e3", "name": "Sirena's", "location": {"address": "Black Prince Road", "lat": 51.4921927022502, "lng": -0.12049410887936866, "labeledLatLngs": [{"label": "display", "lat": 51.4921927022502, "lng": -0.12049410887936866}], "distance": 373, "postalCode": "Se1 7sj", "cc": "GB", "city": "London", "state": "Greater London", "country": "United Kingdom", "formattedAddress": ["Black Prince Road", "London", "Greater London", "Se1 7sj", "United Kingdom"]}, "categories": [{"id": "4bf58dd8d48988d110941735", "name": "Italian Restaurant", "pluralName": "Italian Restaurants", "shortName": "Italian", "icon": {"prefix": "https://ss3.4sqi.net/img/categories_v2/food/italian_", "suffix": ".png"}, "primary": true}], "photos": {"count": 0, "groups": []}}, "referralId": "e-0-4acf113af964a5205dd220e3-10"}, {"reasons": {"count": 0, "items": [{"summary": "This spot is popular", "type": "general", "reasonName": "globalInteractionReason"}]}, "venue": {"id": "4b51d576f964a520495727e3", "name": "Rex Whistler", "location": {"address": "Millbank", "crossStreet": "Tate Britain", "lat": 51.49081631885529, "lng": -0.12744719919282943, "labeledLatLngs": [{"label": "display", "lat": 51.49081631885529, "lng": -0.12744719919282943}], "distance": 373, "postalCode": "SW1P 4RG", "cc": "GB", "city": "London", "state": "Greater London", "country": "United Kingdom", "formattedAddress": ["Millbank (Tate Britain)", "London", "Greater London", "SW1P 4RG", "United Kingdom"]}, "categories": [{"id": "4bf58dd8d48988d1c4941735", "name": "Restaurant", "pluralName": "Restaurants", "shortName": "Restaurant", "icon": {"prefix": "https://ss3.4sqi.net/img/categories_v2/food/default_", "suffix": ".png"}, "primary": true}], "photos": {"count": 0, "groups": []}}, "referralId": "e-0-4b51d576f964a520495727e3-11"}, {"reasons": {"count": 0, "items": [{"summary": "This spot is popular", "type": "general", "reasonName": "globalInteractionReason"}]}, "venue": {"id": "4ad6f281f964a520670821e3", "name": "Queens Head", "location": {"address": "71 Black Prince Rd", "lat": 51.491710295453096, "lng": -0.11884029019178509, "labeledLatLngs": [{"label": "display", "lat": 51.491710295453096, "lng": -0.11884029019178509}], "distance": 394, "postalCode": "SE11 6ab", "cc": "GB", "city": "London", "state": "Greater London", "country": "United Kingdom", "formattedAddress": ["71 Black Prince Rd", "London", "Greater London", "SE11 6ab", "United Kingdom"]}, "categories": [{"id": "4bf58dd8d48988d16d941735", "name": "Caf\u00e9", "pluralName": "Caf\u00e9s", "shortName": "Caf\u00e9", "icon": {"prefix": "https://ss3.4sqi.net/img/categories_v2/food/cafe_", "suffix": ".png"}, "primary": true}], "photos": {"count": 0, "groups": []}}, "referralId": "e-0-4ad6f281f964a520670821e3-12"}, {"reasons": {"count": 0, "items": [{"summary": "This spot is popular", "type": "general", "reasonName": "globalInteractionReason"}]}, "venue": {"id": "4ac518c2f964a520fba320e3", "name": "Chino Latino", "location": {"address": "18 Albert Embankment", "lat": 51.491542592532774, "lng": -0.12173547166968025, "labeledLatLngs": [{"label": "display", "lat": 51.491542592532774, "lng": -0.12173547166968025}], "distance": 275, "postalCode": "SE1 7TJ", "cc": "GB", "city": "London", "state": "Greater London", "country": "United Kingdom", "formattedAddress": ["18 Albert Embankment", "London", "Greater London", "SE1 7TJ", "United Kingdom"]}, "categories": [{"id": "4bf58dd8d48988d142941735", "name": "Asian Restaurant", "pluralName": "Asian Restaurants", "shortName": "Asian", "icon": {"prefix": "https://ss3.4sqi.net/img/categories_v2/food/asian_", "suffix": ".png"}, "primary": true}], "photos": {"count": 0, "groups": []}, "venuePage": {"id": "353142993"}}, "referralId": "e-0-4ac518c2f964a520fba320e3-13"}, {"reasons": {"count": 0, "items": [{"summary": "This spot is popular", "type": "general", "reasonName": "globalInteractionReason"}]}, "venue": {"id": "4c434a5dcc410f472300ae61", "name": "Pico Bar & Grill", "location": {"address": "74 Albert Embankment", "lat": 51.48775215879393, "lng": -0.12322807076796248, "labeledLatLngs": [{"label": "display", "lat": 51.48775215879393, "lng": -0.12322807076796248}], "distance": 158, "postalCode": "SE1 7TL", "cc": "GB", "city": "Vauxhall", "state": "Greater London", "country": "United Kingdom", "formattedAddress": ["74 Albert Embankment", "Vauxhall", "Greater London", "SE1 7TL", "United Kingdom"]}, "categories": [{"id": "4def73e84765ae376e57713a", "name": "Portuguese Restaurant", "pluralName": "Portuguese Restaurants", "shortName": "Portuguese", "icon": {"prefix": "https://ss3.4sqi.net/img/categories_v2/food/portuguese_", "suffix": ".png"}, "primary": true}], "photos": {"count": 0, "groups": []}}, "referralId": "e-0-4c434a5dcc410f472300ae61-14"}, {"reasons": {"count": 0, "items": [{"summary": "This spot is popular", "type": "general", "reasonName": "globalInteractionReason"}]}, "venue": {"id": "4c5492d8ca8e76b007c70ddf", "name": "The Coriander", "location": {"address": "332 Kennington Lane", "lat": 51.48639771172518, "lng": -0.11967910337237399, "labeledLatLngs": [{"label": "display", "lat": 51.48639771172518, "lng": -0.11967910337237399}], "distance": 373, "postalCode": "SE11 5HY", "cc": "GB", "city": "London", "state": "Greater London", "country": "United Kingdom", "formattedAddress": ["332 Kennington Lane", "London", "Greater London", "SE11 5HY", "United Kingdom"]}, "categories": [{"id": "4bf58dd8d48988d10f941735", "name": "Indian Restaurant", "pluralName": "Indian Restaurants", "shortName": "Indian", "icon": {"prefix": "https://ss3.4sqi.net/img/categories_v2/food/indian_", "suffix": ".png"}, "primary": true}], "photos": {"count": 0, "groups": []}}, "referralId": "e-0-4c5492d8ca8e76b007c70ddf-15"}, {"reasons": {"count": 0, "items": [{"summary": "This spot is popular", "type": "general", "reasonName": "globalInteractionReason"}]}, "venue": {"id": "4acef8d8f964a52028d220e3", "name": "Cafe 89", "location": {"address": "89 Albert Embankment", "lat": 51.487803196440694, "lng": -0.12328522465288184, "labeledLatLngs": [{"label": "display", "lat": 51.487803196440694, "lng": -0.12328522465288184}], "distance": 154, "postalCode": "SE1 7TP", "cc": "GB", "city": "London", "state": "Greater London", "country": "United Kingdom", "formattedAddress": ["89 Albert Embankment", "London", "Greater London", "SE1 7TP", "United Kingdom"]}, "categories": [{"id": "4bf58dd8d48988d16d941735", "name": "Caf\u00e9", "pluralName": "Caf\u00e9s", "shortName": "Caf\u00e9", "icon": {"prefix": "https://ss3.4sqi.net/img/categories_v2/food/cafe_", "suffix": ".png"}, "primary": true}], "photos": {"count": 0, "groups": []}}, "referralId": "e-0-4acef8d8f964a52028d220e3-16"}, {"reasons": {"count": 0, "items": [{"summary": "This spot is popular", "type": "general", "reasonName": "globalInteractionReason"}]}, "venue": {"id": "4de8b6af52b1741cdb086f7f", "name": "Mick Darnald's", "location": {"lat": 51.491136025967535, "lng": -0.11996766055833397, "labeledLatLngs": [{"label": "display", "lat": 51.491136025967535, "lng": -0.11996766055833397}], "distance": 294, "cc": "GB", "city": "London", "state": "Greater London", "country": "United Kingdom", "formattedAddress": ["London", "Greater London", "United Kingdom"]}, "categories": [{"id": "4bf58dd8d48988d16c941735", "name": "Burger Joint", "pluralName": "Burger Joints", "shortName": "Burgers", "icon": {"prefix": "https://ss3.4sqi.net/img/categories_v2/food/burger_", "suffix": ".png"}, "primary": true}], "photos": {"count": 0, "groups": []}}, "referralId": "e-0-4de8b6af52b1741cdb086f7f-17"}, {"reasons": {"count": 0, "items": [{"summary": "This spot is popular", "type": "general", "reasonName": "globalInteractionReason"}]}, "venue": {"id": "59181479a22db716fd64de7b", "name": "Knot Artisan Coffee & Pretzel", "location": {"lat": 51.486029, "lng": -0.122761, "labeledLatLngs": [{"label": "display", "lat": 51.486029, "lng": -0.122761}], "distance": 347, "postalCode": "SW8 1SR", "cc": "GB", "city": "London", "state": "Greater London", "country": "United Kingdom", "formattedAddress": ["London", "Greater London", "SW8 1SR", "United Kingdom"]}, "categories": [{"id": "4bf58dd8d48988d16a941735", "name": "Bakery", "pluralName": "Bakeries", "shortName": "Bakery", "icon": {"prefix": "https://ss3.4sqi.net/img/categories_v2/food/bakery_", "suffix": ".png"}, "primary": true}], "photos": {"count": 0, "groups": []}}, "referralId": "e-0-59181479a22db716fd64de7b-18"}, {"reasons": {"count": 0, "items": [{"summary": "This spot is popular", "type": "general", "reasonName": "globalInteractionReason"}]}, "venue": {"id": "4c7cf23748c6236a3fee6211", "name": "O Alentejano", "location": {"address": "351 Kennington Lane", "lat": 51.48636355913379, "lng": -0.11939661728961308, "labeledLatLngs": [{"label": "display", "lat": 51.48636355913379, "lng": -0.11939661728961308}], "distance": 388, "postalCode": "SE11 5QY", "cc": "GB", "city": "London", "state": "Greater London", "country": "United Kingdom", "formattedAddress": ["351 Kennington Lane", "London", "Greater London", "SE11 5QY", "United Kingdom"]}, "categories": [{"id": "4bf58dd8d48988d1c5941735", "name": "Sandwich Place", "pluralName": "Sandwich Places", "shortName": "Sandwiches", "icon": {"prefix": "https://ss3.4sqi.net/img/categories_v2/food/deli_", "suffix": ".png"}, "primary": true}], "photos": {"count": 0, "groups": []}}, "referralId": "e-0-4c7cf23748c6236a3fee6211-19"}]}]}}