{"meta": {"code": 200, "requestId": "5fedda32ba978f642709ffa1"}, "response": {"suggestedFilters": {"header": "Tap to show:", "filters": [{"name": "Open now", "key": "openNow"}]}, "headerLocation": "Highbury East", "headerFullLocation": "Highbury East, London", "headerLocationGranularity": "neighborhood", "query": "college education", "totalResults": 10, "suggestedBounds": {"ne": {"lat": 51.55440000360001, "lng": -0.10306135178607571}, "sw": {"lat": 51.547199996399996, "lng": -0.1146186482139243}}, "groups": [{"type": "Recommended Places", "name": "recommended", "items": [{"reasons": {"count": 0, "items": [{"summary": "This spot is popular", "type": "general", "reasonName": "globalInteractionReason"}]}, "venue": {"id": "56463348498e1dffc7051e6d", "name": "Provisions Wine & Cheese", "location": {"address": "167 Holloway Rd", "lat": 51.54991358219765, "lng": -0.10872970818339095, "labeledLatLngs": [{"label": "display", "lat": 51.54991358219765, "lng": -0.10872970818339095}], "distance": 98, "cc": "GB", "city": "London", "state": "Greater London", "country": "United Kingdom", "formattedAddress": ["167 Holloway Rd", "London", "Greater London", "United Kingdom"]}, "categories": [{"id": "4bf58dd8d48988d119951735", "name": "Wine Shop", "pluralName": "Wine Shops", "shortName": "Wine Shop", "icon": {"prefix": "https://ss3.4sqi.net/img/categories_v2/shops/food_wineshop_", "suffix": ".png"}, "primary": true}], "photos": {"count": 0, "groups": []}}, "referralId": "e-0-56463348498e1dffc7051e6d-0"}, {"reasons": {"count": 0, "items": [{"summary": "This spot is popular", "type": "general", "reasonName": "globalInteractionReason"}]}, "venue": {"id": "566dac30498e58ba3a592bce", "name": "Co-op Food", "location": {"address": "Benwell Rd", "crossStreet": "Queensland Rd", "lat": 51.55336415097031, "lng": -0.10983109474182129, "labeledLatLngs": [{"label": "display", "lat": 51.55336415097031, "lng": -0.10983109474182129}], "distance": 293, "postalCode": "N7 7QB", "cc": "GB", "neighborhood": "Islington", "city": "Highbury", "state": "Greater London", "country": "United Kingdom", "formattedAddress": ["Benwell Rd (Queensland Rd)", "Highbury", "Greater London", "N7 7QB", "United Kingdom"]}, "categories": [{"id": "4bf58dd8d48988d118951735", "name": "Grocery Store", "pluralName": "Grocery Stores", "shortName": "Grocery Store", "icon": {"prefix": "https://ss3.4sqi.net/img/categories_v2/shops/food_grocery_", "suffix": ".png"}, "primary": true}], "photos": {"count": 0, "groups": []}}, "referralId": "e-0-566dac30498e58ba3a592bce-1"}, {"reasons": {"count": 0, "items": [{"summary": "This spot is popular", "type": "general", "reasonName": "globalInteractionReason"}]}, "venue": {"id": "4d7d4768da568cfa40d676ff", "name": "Tesco Express", "location": {"address": "5-7 Hornsey St, Hornsey", "lat": 51.55223, "lng": -0.113399, "labeledLatLngs": [{"label": "display", "lat": 51.55223, "lng": -0.113399}], "distance": 353, "postalCode": "N7 8GA", "cc": "GB", "city": "London", "state": "Greater London", "country": "United Kingdom", "formattedAddress": ["5-7 Hornsey St, Hornsey", "London", "Greater London", "N7 8GA", "United Kingdom"]}, "categories": [{"id": "4bf58dd8d48988d118951735", "name": "Grocery Store", "pluralName": "Grocery Stores", "shortName": "Grocery Store", "icon": {"prefix": "https://ss3.4sqi.net/img/categories_v2/shops/food_grocery_", "suffix": ".png"}, "primary": true}], "photos": {"count": 0, "groups": []}}, "referralId": "e-0-4d7d4768da568cfa40d676ff-2"}, {"reasons": {"count": 0, "items": [{"summary": "This spot is popular", "type": "general", "reasonName": "globalInteractionReason"}]}, "venue": {"id": "518018e7e4b029dcc8ca7616", "name": "Moonlight Supermarket", "location": {"address": "135 Holloway Road", "lat": 51.549145472048274, "lng": -0.10771776845357924, "labeledLatLngs": [{"label": "display", "lat": 51.549145472048274, "lng": -0.10771776845357924}], "distance": 199, "postalCode": "N7 8LX", "cc": "GB", "neighborhood": "Lower Holloway", "country": "United Kingdom", "formattedAddress": ["135 Holloway Road", "N7 8LX", "United Kingdom"]}, "categories": [{"id": "4bf58dd8d48988d118951735", "name": "Grocery Store", "pluralName": "Grocery Stores", "shortName": "Grocery Store", "icon": {"prefix": "https://ss3.4sqi.net/img/categories_v2/shops/food_grocery_", "suffix": ".png"}, "primary": true}], "photos": {"count": 0, "groups": []}}, "referralId": "e-0-518018e7e4b029dcc8ca7616-3"}, {"reasons": {"count": 0, "items": [{"summary": "This spot is popular", "type": "general", "reasonName": "globalInteractionReason"}]}, "venue": {"id": "4f464862e4b0f8695e593a91", "name": "Upper Street London", "location": {"address": "11 Ronalds Rd, London Borough of Islington, London N5", "lat": 51.549736819116674, "lng": -0.10854524375707829, "labeledLatLngs": [{"label": "display", "lat": 51.549736819116674, "lng": -0.10854524375707829}], "distance": 120, "cc": "GB", "country": "United Kingdom", "formattedAddress": ["11 Ronalds Rd, London Borough of Islington, London N5", "United Kingdom"]}, "categories": [{"id": "4bf58dd8d48988d107951735", "name": "Shoe Store", "pluralName": "Shoe Stores", "shortName": "Shoes", "icon": {"prefix": "https://ss3.4sqi.net/img/categories_v2/shops/apparel_shoestore_", "suffix": ".png"}, "primary": true}], "photos": {"count": 0, "groups": []}}, "referralId": "e-0-4f464862e4b0f8695e593a91-4"}, {"reasons": {"count": 0, "items": [{"summary": "This spot is popular", "type": "general", "reasonName": "globalInteractionReason"}]}, "venue": {"id": "4c1360a6a5eb76b0ced4bfb7", "name": "Paddy Power", "location": {"address": "233 Holloway Road", "lat": 51.551582, "lng": -0.110873, "labeledLatLngs": [{"label": "display", "lat": 51.551582, "lng": -0.110873}], "distance": 165, "postalCode": "N7 8HG", "cc": "GB", "city": "London", "state": "Greater London", "country": "United Kingdom", "formattedAddress": ["233 Holloway Road", "London", "Greater London", "N7 8HG", "United Kingdom"]}, "categories": [{"id": "52f2ab2ebcbc57f1066b8b40", "name": "Betting Shop", "pluralName": "Betting Shops", "shortName": "Betting Shop", "icon": {"prefix": "https://ss3.4sqi.net/img/categories_v2/shops/financial_", "suffix": ".png"}, "primary": true}], "photos": {"count": 0, "groups": []}, "venuePage": {"id": "542609416"}}, "referralId": "e-0-4c1360a6a5eb76b0ced4bfb7-5"}, {"reasons": {"count": 0, "items": [{"summary": "This spot is popular", "type": "general", "reasonName": "globalInteractionReason"}]}, "venue": {"id": "502b9b0fe4b06a8c83f1328d", "name": "Egerton Pharmacy", "location": {"address": "147 Holloway Road", "lat": 51.54936, "lng": -0.10838, "labeledLatLngs": [{"label": "display", "lat": 51.54936, "lng": -0.10838}], "distance": 163, "postalCode": "N7 8LX", "cc": "GB", "city": "London", "state": "Greater London", "country": "United Kingdom", "formattedAddress": ["147 Holloway Road", "London", "Greater London", "N7 8LX", "United Kingdom"]}, "categories": [{"id": "4bf58dd8d48988d10f951735", "name": "Pharmacy", "pluralName": "Pharmacies", "shortName": "Pharmacy", "icon": {"prefix": "https://ss3.4sqi.net/img/categories_v2/shops/pharmacy_", "suffix": ".png"}, "primary": true}], "photos": {"count": 0, "groups": []}}, "referralId": "e-0-502b9b0fe4b06a8c83f1328d-6"}, {"reasons": {"count": 0, "items": [{"summary": "This spot is popular", "type": "general", "reasonName": "globalInteractionReason"}]}, "venue": {"id": "511388b6e4b0f41d6bca26c1", "name": "Hing Yip", "location": {"address": "90 Holloway Road", "lat": 51.54968438826288, "lng": -0.10821591693643365, "labeledLatLngs": [{"label": "display", "lat": 51.54968438826288, "lng": -0.10821591693643365}], "distance": 131, "cc": "GB", "city": "London", "state": "Greater London", "country": "United Kingdom", "formattedAddress": ["90 Holloway Road", "London", "Greater London", "United Kingdom"]}, "categories": [{"id": "4bf58dd8d48988d118951735", "name": "Grocery Store", "pluralName": "Grocery Stores", "shortName": "Grocery Store", "icon": {"prefix": "https://ss3.4sqi.net/img/categories_v2/shops/food_grocery_", "suffix": ".png"}, "primary": true}], "photos": {"count": 0, "groups": []}}, "referralId": "e-0-511388b6e4b0f41d6bca26c1-7"}, {"reasons": {"count": 0, "items": [{"summary": "This spot is popular", "type": "general", "reasonName": "globalInteractionReason"}]}, "venue": {"id": "51ceb1ab498e77bac0c8f0c4", "name": "Cowling & Wilcox", "location": {"address": "52 Holloway Road", "lat": 51.54846985063045, "lng": -0.10709833756657879, "labeledLatLngs": [{"label": "display", "lat": 51.54846985063045, "lng": -0.10709833756657879}], "distance": 286, "cc": "GB", "country": "United Kingdom", "formattedAddress": ["52 Holloway Road", "United Kingdom"]}, "categories": [{"id": "4bf58dd8d48988d127951735", "name": "Arts & Crafts Store", "pluralName": "Arts & Crafts Stores", "shortName": "Arts & Crafts", "icon": {"prefix": "https://ss3.4sqi.net/img/categories_v2/shops/artstore_", "suffix": ".png"}, "primary": true}], "photos": {"count": 0, "groups": []}}, "referralId": "e-0-51ceb1ab498e77bac0c8f0c4-8"}, {"reasons": {"count": 0, "items": [{"summary": "This spot is popular", "type": "general", "reasonName": "globalInteractionReason"}]}, "venue": {"id": "51096afce4b067e429449de4", "name": "Emirates Express", "location": {"lat": 51.554004, "lng": -0.110693, "labeledLatLngs": [{"label": "display", "lat": 51.554004, "lng": -0.110693}], "distance": 379, "cc": "GB", "country": "United Kingdom", "formattedAddress": ["United Kingdom"]}, "categories": [{"id": "4d954b0ea243a5684a65b473", "name": "Convenience Store", "pluralName": "Convenience Stores", "shortName": "Convenience Store", "icon": {"prefix": "https://ss3.4sqi.net/img/categories_v2/shops/conveniencestore_", "suffix": ".png"}, "primary": true}], "photos": {"count": 0, "groups": []}}, "referralId": "e-0-51096afce4b067e429449de4-9"}]}]}}