{"meta": {"code": 200, "requestId": "5feddc5cba6fa474b869748e"}, "response": {"suggestedFilters": {"header": "Tap to show:", "filters": [{"name": "Open now", "key": "openNow"}]}, "headerLocation": "Islington", "headerFullLocation": "Islington, London", "headerLocationGranularity": "neighborhood", "query": "food", "totalResults": 20, "suggestedBounds": {"ne": {"lat": 51.531668003600004, "lng": -0.0898882374201897}, "sw": {"lat": 51.52446799639999, "lng": -0.1014397625798103}}, "groups": [{"type": "Recommended Places", "name": "recommended", "items": [{"reasons": {"count": 0, "items": [{"summary": "This spot is popular", "type": "general", "reasonName": "globalInteractionReason"}]}, "venue": {"id": "4b728badf964a520ef7d2de3", "name": "King Square Bakery", "location": {"address": "143-145 Central Street", "lat": 51.527393497758126, "lng": -0.09730072032193196, "labeledLatLngs": [{"label": "display", "lat": 51.527393497758126, "lng": -0.09730072032193196}], "distance": 135, "cc": "GB", "city": "Islington", "state": "Greater London", "country": "United Kingdom", "formattedAddress": ["143-145 Central Street", "Islington", "Greater London", "United Kingdom"]}, "categories": [{"id": "4bf58dd8d48988d16a941735", "name": "Bakery", "pluralName": "Bakeries", "shortName": "Bakery", "icon": {"prefix": "https://ss3.4sqi.net/img/categories_v2/food/bakery_", "suffix": ".png"}, "primary": true}], "photos": {"count": 0, "groups": []}}, "referralId": "e-0-4b728badf964a520ef7d2de3-0"}, {"reasons": {"count": 0, "items": [{"summary": "This spot is popular", "type": "general", "reasonName": "globalInteractionReason"}]}, "venue": {"id": "4b50e0fcf964a5209f3627e3", "name": "Fish Central", "location": {"address": "149-151 Central St", "lat": 51.527214, "lng": -0.097064, "labeledLatLngs": [{"label": "display", "lat": 51.527214, "lng": -0.097064}], "distance": 135, "postalCode": "EC1V 8BY", "cc": "GB", "neighborhood": "Islington", "city": "London", "state": "Greater London", "country": "United Kingdom", "formattedAddress": ["149-151 Central St", "St. Luke's", "Greater London", "EC1V 8BY", "United Kingdom"]}, "categories": [{"id": "4bf58dd8d48988d1ce941735", "name": "Seafood Restaurant", "pluralName": "Seafood Restaurants", "shortName": "Seafood", "icon": {"prefix": "https://ss3.4sqi.net/img/categories_v2/food/seafood_", "suffix": ".png"}, "primary": true}], "photos": {"count": 0, "groups": []}}, "referralId": "e-0-4b50e0fcf964a5209f3627e3-1"}, {"reasons": {"count": 0, "items": [{"summary": "This spot is popular", "type": "general", "reasonName": "globalInteractionReason"}]}, "venue": {"id": "4bade718f964a52038713be3", "name": "Kennedy's Fish Restaurant", "location": {"address": "184-186 Goswell Rd", "lat": 51.52618910379098, "lng": -0.10004330924719573, "labeledLatLngs": [{"label": "display", "lat": 51.52618910379098, "lng": -0.10004330924719573}], "distance": 368, "postalCode": "EC1 7DT", "cc": "GB", "city": "Islington", "state": "Greater London", "country": "United Kingdom", "formattedAddress": ["184-186 Goswell Rd", "Islington", "Greater London", "EC1 7DT", "United Kingdom"]}, "categories": [{"id": "4edd64a0c7ddd24ca188df1a", "name": "Fish & Chips Shop", "pluralName": "Fish & Chips Shops", "shortName": "Fish & Chips", "icon": {"prefix": "https://ss3.4sqi.net/img/categories_v2/food/fishandchips_", "suffix": ".png"}, "primary": true}], "photos": {"count": 0, "groups": []}}, "referralId": "e-0-4bade718f964a52038713be3-2"}, {"reasons": {"count": 0, "items": [{"summary": "This spot is popular", "type": "general", "reasonName": "globalInteractionReason"}]}, "venue": {"id": "4b711490f964a52036392de3", "name": "Central Cafe", "location": {"address": "Old Street", "lat": 51.52465906683677, "lng": -0.09423260142499386, "labeledLatLngs": [{"label": "display", "lat": 51.52465906683677, "lng": -0.09423260142499386}], "distance": 392, "cc": "GB", "city": "Islington", "state": "Greater London", "country": "United Kingdom", "formattedAddress": ["Old Street", "Islington", "Greater London", "United Kingdom"]}, "categories": [{"id": "4bf58dd8d48988d16d941735", "name": "Caf\u00e9", "pluralName": "Caf\u00e9s", "shortName": "Caf\u00e9", "icon": {"prefix": "https://ss3.4sqi.net/img/categories_v2/food/cafe_", "suffix": ".png"}, "primary": true}], "photos": {"count": 0, "groups": []}}, "referralId": "e-0-4b711490f964a52036392de3-3"}, {"reasons": {"count": 0, "items": [{"summary": "This spot is popular", "type": "general", "reasonName": "globalInteractionReason"}]}, "venue": {"id": "58c51f3130ecc64ec66ed1ee", "name": "Fast Break", "location": {"address": "Old Street", "crossStreet": "Helmet Row", "lat": 51.524708, "lng": -0.09439, "labeledLatLngs": [{"label": "display", "lat": 51.524708, "lng": -0.09439}], "distance": 384, "cc": "GB", "city": "London", "state": "Greater London", "country": "United Kingdom", "formattedAddress": ["Old Street (Helmet Row)", "London", "Greater London", "United Kingdom"]}, "categories": [{"id": "4bf58dd8d48988d143941735", "name": "Breakfast Spot", "pluralName": "Breakfast Spots", "shortName": "Breakfast", "icon": {"prefix": "https://ss3.4sqi.net/img/categories_v2/food/breakfast_", "suffix": ".png"}, "primary": true}], "photos": {"count": 0, "groups": []}}, "referralId": "e-0-58c51f3130ecc64ec66ed1ee-4"}, {"reasons": {"count": 0, "items": [{"summary": "This spot is popular", "type": "general", "reasonName": "globalInteractionReason"}]}, "venue": {"id": "4b484a94f964a520324b26e3", "name": "Aquila Cafe", "location": {"address": "214 City Road", "lat": 51.528455159859625, "lng": -0.09218653461982049, "labeledLatLngs": [{"label": "display", "lat": 51.528455159859625, "lng": -0.09218653461982049}], "distance": 244, "postalCode": "EC1V 2PN", "cc": "GB", "city": "London", "state": "Greater London", "country": "United Kingdom", "formattedAddress": ["214 City Road", "London", "Greater London", "EC1V 2PN", "United Kingdom"]}, "categories": [{"id": "4bf58dd8d48988d1c5941735", "name": "Sandwich Place", "pluralName": "Sandwich Places", "shortName": "Sandwiches", "icon": {"prefix": "https://ss3.4sqi.net/img/categories_v2/food/deli_", "suffix": ".png"}, "primary": true}], "photos": {"count": 0, "groups": []}}, "referralId": "e-0-4b484a94f964a520324b26e3-5"}, {"reasons": {"count": 0, "items": [{"summary": "This spot is popular", "type": "general", "reasonName": "globalInteractionReason"}]}, "venue": {"id": "587d1b806431e516ca5b8f2c", "name": "Palatino", "location": {"address": "71 Central Street", "lat": 51.52666023160683, "lng": -0.09672226058439458, "labeledLatLngs": [{"label": "display", "lat": 51.52666023160683, "lng": -0.09672226058439458}], "distance": 173, "postalCode": "EC1V 8AB", "cc": "GB", "city": "London", "state": "Greater London", "country": "United Kingdom", "formattedAddress": ["71 Central Street", "London", "Greater London", "EC1V 8AB", "United Kingdom"]}, "categories": [{"id": "4bf58dd8d48988d110941735", "name": "Italian Restaurant", "pluralName": "Italian Restaurants", "shortName": "Italian", "icon": {"prefix": "https://ss3.4sqi.net/img/categories_v2/food/italian_", "suffix": ".png"}, "primary": true}], "photos": {"count": 0, "groups": []}}, "referralId": "e-0-587d1b806431e516ca5b8f2c-6"}, {"reasons": {"count": 0, "items": [{"summary": "This spot is popular", "type": "general", "reasonName": "globalInteractionReason"}]}, "venue": {"id": "557ade61498e2f0253159e93", "name": "Bodean's", "location": {"address": "201 City Rd", "lat": 51.52816150642481, "lng": -0.09101245115579085, "labeledLatLngs": [{"label": "display", "lat": 51.52816150642481, "lng": -0.09101245115579085}], "distance": 322, "postalCode": "EC1V 1JN", "cc": "GB", "city": "London", "state": "Greater London", "country": "United Kingdom", "formattedAddress": ["201 City Rd", "London", "Greater London", "EC1V 1JN", "United Kingdom"]}, "categories": [{"id": "4bf58dd8d48988d1df931735", "name": "BBQ Joint", "pluralName": "BBQ Joints", "shortName": "BBQ", "icon": {"prefix": "https://ss3.4sqi.net/img/categories_v2/food/bbqalt_", "suffix": ".png"}, "primary": true}], "photos": {"count": 0, "groups": []}}, "referralId": "e-0-557ade61498e2f0253159e93-7"}, {"reasons": {"count": 0, "items": [{"summary": "This spot is popular", "type": "general", "reasonName": "globalInteractionReason"}]}, "venue": {"id": "52798c5711d254701e02f7e5", "name": "Thai Thai East Restaurant", "location": {"address": "110 Old St", "lat": 51.524867217440594, "lng": -0.09320692461328152, "labeledLatLngs": [{"label": "display", "lat": 51.524867217440594, "lng": -0.09320692461328152}], "distance": 394, "postalCode": "EC1V 9BD", "cc": "GB", "city": "London", "state": "Greater London", "country": "United Kingdom", "formattedAddress": ["110 Old St", "London", "Greater London", "EC1V 9BD", "United Kingdom"]}, "categories": [{"id": "4bf58dd8d48988d149941735", "name": "Thai Restaurant", "pluralName": "Thai Restaurants", "shortName": "Thai", "icon": {"prefix": "https://ss3.4sqi.net/img/categories_v2/food/thai_", "suffix": ".png"}, "primary": true}], "photos": {"count": 0, "groups": []}, "venuePage": {"id": "75472081"}}, "referralId": "e-0-52798c5711d254701e02f7e5-8"}, {"reasons": {"count": 0, "items": [{"summary": "This spot is popular", "type": "general", "reasonName": "globalInteractionReason"}]}, "venue": {"id": "4ac5dfc6f964a52084b220e3", "name": "McDonald's", "location": {"address": "241 CITY ROAD", "lat": 51.529572, "lng": -0.094651, "labeledLatLngs": [{"label": "display", "lat": 51.529572, "lng": -0.094651}], "distance": 181, "postalCode": "EC1V 1JQ", "cc": "GB", "city": "London", "state": "Greater London", "country": "United Kingdom", "formattedAddress": ["241 CITY ROAD", "London", "Greater London", "EC1V 1JQ", "United Kingdom"]}, "categories": [{"id": "4bf58dd8d48988d16e941735", "name": "Fast Food Restaurant", "pluralName": "Fast Food Restaurants", "shortName": "Fast Food", "icon": {"prefix": "https://ss3.4sqi.net/img/categories_v2/food/fastfood_", "suffix": ".png"}, "primary": true}], "photos": {"count": 0, "groups": []}, "venuePage": {"id": "556468720"}}, "referralId": "e-0-4ac5dfc6f964a52084b220e3-9"}, {"reasons": {"count": 0, "items": [{"summary": "This spot is popular", "type": "general", "reasonName": "globalInteractionReason"}]}, "venue": {"id": "4b4b89c1f964a5208a9f26e3", "name": "William IV Pub", "location": {"address": "7 Sheperdess Walk", "lat": 51.53034756865413, "lng": -0.09238349317083247, "labeledLatLngs": [{"label": "display", "lat": 51.53034756865413, "lng": -0.09238349317083247}], "distance": 340, "postalCode": "N1 7QE", "cc": "GB", "city": "London", "state": "Greater London", "country": "United Kingdom", "formattedAddress": ["7 Sheperdess Walk", "London", "Greater London", "N1 7QE", "United Kingdom"]}, "categories": [{"id": "4bf58dd8d48988d155941735", "name": "Gastropub", "pluralName": "Gastropubs", "shortName": "Gastropub", "icon": {"prefix": "https://ss3.4sqi.net/img/categories_v2/food/gastropub_", "suffix": ".png"}, "primary": true}], "photos": {"count": 0, "groups": []}}, "referralId": "e-0-4b4b89c1f964a5208a9f26e3-10"}, {"reasons": {"count": 0, "items": [{"summary": "This spot is popular", "type": "general", "reasonName": "globalInteractionReason"}]}, "venue": {"id": "4e24351fd16474063221626f", "name": "Chicken Diner", "location": {"lat": 51.52708613365291, "lng": -0.09675599458481282, "labeledLatLngs": [{"label": "display", "lat": 51.52708613365291, "lng": -0.09675599458481282}], "distance": 132, "cc": "GB", "city": "London", "state": "Greater London", "country": "United Kingdom", "formattedAddress": ["London", "Greater London", "United Kingdom"]}, "categories": [{"id": "4d4ae6fc7a7b7dea34424761", "name": "Fried Chicken Joint", "pluralName": "Fried Chicken Joints", "shortName": "Fried Chicken", "icon": {"prefix": "https://ss3.4sqi.net/img/categories_v2/food/friedchicken_", "suffix": ".png"}, "primary": true}], "photos": {"count": 0, "groups": []}}, "referralId": "e-0-4e24351fd16474063221626f-11"}, {"reasons": {"count": 0, "items": [{"summary": "This spot is popular", "type": "general", "reasonName": "globalInteractionReason"}]}, "venue": {"id": "52c0067911d2a95b1bd55aef", "name": "Breakfast at Thistle Barbican", "location": {"lat": 51.527332, "lng": -0.096225, "labeledLatLngs": [{"label": "display", "lat": 51.527332, "lng": -0.096225}], "distance": 90, "cc": "GB", "country": "United Kingdom", "formattedAddress": ["United Kingdom"]}, "categories": [{"id": "4bf58dd8d48988d143941735", "name": "Breakfast Spot", "pluralName": "Breakfast Spots", "shortName": "Breakfast", "icon": {"prefix": "https://ss3.4sqi.net/img/categories_v2/food/breakfast_", "suffix": ".png"}, "primary": true}], "photos": {"count": 0, "groups": []}}, "referralId": "e-0-52c0067911d2a95b1bd55aef-12"}, {"reasons": {"count": 0, "items": [{"summary": "This spot is popular", "type": "general", "reasonName": "globalInteractionReason"}]}, "venue": {"id": "4d3c20a6d2c8f04dabe55e72", "name": "Barbican Cafe", "location": {"address": "99-101 Lever St", "lat": 51.52721908084012, "lng": -0.09601231507352387, "labeledLatLngs": [{"label": "display", "lat": 51.52721908084012, "lng": -0.09601231507352387}], "distance": 97, "postalCode": "EC1 V 8", "cc": "GB", "city": "Islington", "state": "Greater London", "country": "United Kingdom", "formattedAddress": ["99-101 Lever St", "Islington", "Greater London", "EC1 V 8", "United Kingdom"]}, "categories": [{"id": "4bf58dd8d48988d16d941735", "name": "Caf\u00e9", "pluralName": "Caf\u00e9s", "shortName": "Caf\u00e9", "icon": {"prefix": "https://ss3.4sqi.net/img/categories_v2/food/cafe_", "suffix": ".png"}, "primary": true}], "photos": {"count": 0, "groups": []}}, "referralId": "e-0-4d3c20a6d2c8f04dabe55e72-13"}, {"reasons": {"count": 0, "items": [{"summary": "This spot is popular", "type": "general", "reasonName": "globalInteractionReason"}]}, "venue": {"id": "4f74b1a6e4b0f06c04c51ae2", "name": "Food At 52", "location": {"address": "96 Central Street", "lat": 51.52679, "lng": -0.096791, "labeledLatLngs": [{"label": "display", "lat": 51.52679, "lng": -0.096791}], "distance": 162, "postalCode": "Ec1v 8aj", "cc": "GB", "city": "London", "state": "Greater London", "country": "United Kingdom", "formattedAddress": ["96 Central Street", "London", "Greater London", "Ec1v 8aj", "United Kingdom"]}, "categories": [{"id": "4bf58dd8d48988d1c4941735", "name": "Restaurant", "pluralName": "Restaurants", "shortName": "Restaurant", "icon": {"prefix": "https://ss3.4sqi.net/img/categories_v2/food/default_", "suffix": ".png"}, "primary": true}], "photos": {"count": 0, "groups": []}}, "referralId": "e-0-4f74b1a6e4b0f06c04c51ae2-14"}, {"reasons": {"count": 0, "items": [{"summary": "This spot is popular", "type": "general", "reasonName": "globalInteractionReason"}]}, "venue": {"id": "4dd030c0ae603b786d5abd42", "name": "Magic Wok", "location": {"address": "Lever Street", "lat": 51.52772771955539, "lng": -0.09614112917653424, "labeledLatLngs": [{"label": "display", "lat": 51.52772771955539, "lng": -0.09614112917653424}], "distance": 50, "postalCode": "EC1V 3RQ", "cc": "GB", "city": "Islington", "state": "Greater London", "country": "United Kingdom", "formattedAddress": ["Lever Street", "Islington", "Greater London", "EC1V 3RQ", "United Kingdom"]}, "categories": [{"id": "4bf58dd8d48988d145941735", "name": "Chinese Restaurant", "pluralName": "Chinese Restaurants", "shortName": "Chinese", "icon": {"prefix": "https://ss3.4sqi.net/img/categories_v2/food/asian_", "suffix": ".png"}, "primary": true}], "photos": {"count": 0, "groups": []}}, "referralId": "e-0-4dd030c0ae603b786d5abd42-15"}, {"reasons": {"count": 0, "items": [{"summary": "This spot is popular", "type": "general", "reasonName": "globalInteractionReason"}]}, "venue": {"id": "4b484a24f964a5202d4b26e3", "name": "La Lampara Sandwich Shop", "location": {"address": "216 City Road", "lat": 51.52851807290212, "lng": -0.09248422260986003, "labeledLatLngs": [{"label": "display", "lat": 51.52851807290212, "lng": -0.09248422260986003}], "distance": 225, "postalCode": "EC1V 2PN", "cc": "GB", "city": "London", "state": "Greater London", "country": "United Kingdom", "formattedAddress": ["216 City Road", "London", "Greater London", "EC1V 2PN", "United Kingdom"]}, "categories": [{"id": "4bf58dd8d48988d1c5941735", "name": "Sandwich Place", "pluralName": "Sandwich Places", "shortName": "Sandwiches", "icon": {"prefix": "https://ss3.4sqi.net/img/categories_v2/food/deli_", "suffix": ".png"}, "primary": true}], "photos": {"count": 0, "groups": []}}, "referralId": "e-0-4b484a24f964a5202d4b26e3-16"}, {"reasons": {"count": 0, "items": [{"summary": "This spot is popular", "type": "general", "reasonName": "globalInteractionReason"}]}, "venue": {"id": "57d576dd498e432cab3b79f4", "name": "Kitchen Head", "location": {"address": "277 City Road", "lat": 51.530017, "lng": -0.098241, "labeledLatLngs": [{"label": "display", "lat": 51.530017, "lng": -0.098241}], "distance": 280, "postalCode": "EC1V 1LA", "cc": "GB", "city": "London", "state": "Greater London", "country": "United Kingdom", "formattedAddress": ["277 City Road", "London", "Greater London", "EC1V 1LA", "United Kingdom"]}, "categories": [{"id": "4bf58dd8d48988d1c0941735", "name": "Mediterranean Restaurant", "pluralName": "Mediterranean Restaurants", "shortName": "Mediterranean", "icon": {"prefix": "https://ss3.4sqi.net/img/categories_v2/food/mediterranean_", "suffix": ".png"}, "primary": true}], "photos": {"count": 0, "groups": []}}, "referralId": "e-0-57d576dd498e432cab3b79f4-17"}, {"reasons": {"count": 0, "items": [{"summary": "This spot is popular", "type": "general", "reasonName": "globalInteractionReason"}]}, "venue": {"id": "586ba1ce45c3ed5c6a57ac34", "name": "The Posh Burger Company", "location": {"address": "96 Old Street", "lat": 51.524745, "lng": -0.093608, "labeledLatLngs": [{"label": "display", "lat": 51.524745, "lng": -0.093608}], "distance": 396, "postalCode": "EC1V 9AY", "cc": "GB", "city": "London", "state": "Greater London", "country": "United Kingdom", "formattedAddress": ["96 Old Street", "London", "Greater London", "EC1V 9AY", "United Kingdom"]}, "categories": [{"id": "4bf58dd8d48988d16c941735", "name": "Burger Joint", "pluralName": "Burger Joints", "shortName": "Burgers", "icon": {"prefix": "https://ss3.4sqi.net/img/categories_v2/food/burger_", "suffix": ".png"}, "primary": true}], "photos": {"count": 0, "groups": []}}, "referralId": "e-0-586ba1ce45c3ed5c6a57ac34-18"}, {"reasons": {"count": 0, "items": [{"summary": "This spot is popular", "type": "general", "reasonName": "globalInteractionReason"}]}, "venue": {"id": "5d72e53031b76600082be802", "name": "Nando's", "location": {"address": "197 City Road", "lat": 51.528193, "lng": -0.090825, "labeledLatLngs": [{"label": "display", "lat": 51.528193, "lng": -0.090825}], "distance": 335, "postalCode": "EC1V 1JN", "cc": "GB", "city": "Hoxton", "state": "Greater London", "country": "United Kingdom", "formattedAddress": ["197 City Road", "Hoxton", "Greater London", "EC1V 1JN", "United Kingdom"]}, "categories": [{"id": "4def73e84765ae376e57713a", "name": "Portuguese Restaurant", "pluralName": "Portuguese Restaurants", "shortName": "Portuguese", "icon": {"prefix": "https://ss3.4sqi.net/img/categories_v2/food/portuguese_", "suffix": ".png"}, "primary": true}], "photos": {"count": 0, "groups": []}, "venuePage": {"id": "563460611"}}, "referralId": "e-0-5d72e53031b76600082be802-19"}]}]}}