{"meta": {"code": 200, "requestId": "5feddc64d98e3a6ad1017681"}, "response": {"warning": {"text": "There aren't a lot of results near you. Try something more general, reset your filters, or expand the search area."}, "headerLocation": "Woodside Park", "headerFullLocation": "Woodside Park, London", "headerLocationGranularity": "neighborhood", "query": "food", "totalResults": 3, "suggestedBounds": {"ne": {"lat": 51.6208730036, "lng": -0.18085289180345082}, "sw": {"lat": 51.61367299639999, "lng": -0.19242710819654918}}, "groups": [{"type": "Recommended Places", "name": "recommended", "items": [{"reasons": {"count": 0, "items": [{"summary": "This spot is popular", "type": "general", "reasonName": "globalInteractionReason"}]}, "venue": {"id": "4d7a1292ceaa224b9a940371", "name": "Vero Caffe", "location": {"address": "16 sussex ring", "lat": 51.615112166441996, "lng": -0.19073206865685788, "labeledLatLngs": [{"label": "display", "lat": 51.615112166441996, "lng": -0.19073206865685788}], "distance": 371, "postalCode": "N12 7HX", "cc": "GB", "city": "London", "state": "Greater London", "country": "United Kingdom", "formattedAddress": ["16 sussex ring", "London", "Greater London", "N12 7HX", "United Kingdom"]}, "categories": [{"id": "4bf58dd8d48988d16d941735", "name": "Caf\u00e9", "pluralName": "Caf\u00e9s", "shortName": "Caf\u00e9", "icon": {"prefix": "https://ss3.4sqi.net/img/categories_v2/food/cafe_", "suffix": ".png"}, "primary": true}], "photos": {"count": 0, "groups": []}}, "referralId": "e-0-4d7a1292ceaa224b9a940371-0"}, {"reasons": {"count": 0, "items": [{"summary": "This spot is popular", "type": "general", "reasonName": "globalInteractionReason"}]}, "venue": {"id": "520dd7bc11d2115030eb5b60", "name": "Michaels", "location": {"lat": 51.61518398585476, "lng": -0.1908528632543368, "labeledLatLngs": [{"label": "display", "lat": 51.61518398585476, "lng": -0.1908528632543368}], "distance": 372, "cc": "GB", "country": "United Kingdom", "formattedAddress": ["United Kingdom"]}, "categories": [{"id": "4bf58dd8d48988d16d941735", "name": "Caf\u00e9", "pluralName": "Caf\u00e9s", "shortName": "Caf\u00e9", "icon": {"prefix": "https://ss3.4sqi.net/img/categories_v2/food/cafe_", "suffix": ".png"}, "primary": true}], "photos": {"count": 0, "groups": []}}, "referralId": "e-0-520dd7bc11d2115030eb5b60-1"}, {"reasons": {"count": 0, "items": [{"summary": "This spot is popular", "type": "general", "reasonName": "globalInteractionReason"}]}, "venue": {"id": "4eaea7ff29c2a9bb981f3bd9", "name": "Han Restaurant & Bar", "location": {"address": "857 High Road", "lat": 51.61852721573961, "lng": -0.1855112320927651, "labeledLatLngs": [{"label": "display", "lat": 51.61852721573961, "lng": -0.1855112320927651}], "distance": 159, "postalCode": "N12", "cc": "GB", "city": "London", "state": "Greater London", "country": "United Kingdom", "formattedAddress": ["857 High Road", "London", "Greater London", " N12", "United Kingdom"]}, "categories": [{"id": "4bf58dd8d48988d16d941735", "name": "Caf\u00e9", "pluralName": "Caf\u00e9s", "shortName": "Caf\u00e9", "icon": {"prefix": "https://ss3.4sqi.net/img/categories_v2/food/cafe_", "suffix": ".png"}, "primary": true}], "photos": {"count": 0, "groups": []}}, "referralId": "e-0-4eaea7ff29c2a9bb981f3bd9-2"}]}]}}