{"meta": {"code": 200, "requestId": "5feddaa2fb7e627cbe9800c0"}, "response": {"suggestedFilters": {"header": "Tap to show:", "filters": [{"name": "Open now", "key": "openNow"}]}, "headerLocation": "Hackney Central", "headerFullLocation": "Hackney Central, London", "headerLocationGranularity": "neighborhood", "query": "college education", "totalResults": 32, "suggestedBounds": {"ne": {"lat": 51.552600003600006, "lng": -0.0492615804190503}, "sw": {"lat": 51.54539999639999, "lng": -0.0608184195809497}}, "groups": [{"type": "Recommended Places", "name": "recommended", "items": [{"reasons": {"count": 0, "items": [{"summary": "This spot is popular", "type": "general", "reasonName": "globalInteractionReason"}]}, "venue": {"id": "5bf816756f0aa2002cb33ef2", "name": "Bulk Market", "location": {"address": "6 Bohemia Place", "lat": 51.54721908796824, "lng": -0.0539901852607727, "labeledLatLngs": [{"label": "display", "lat": 51.54721908796824, "lng": -0.0539901852607727}], "distance": 211, "postalCode": "E8 1DU", "cc": "GB", "neighborhood": "Hackney Central", "city": "London", "state": "Greater London", "country": "United Kingdom", "formattedAddress": ["6 Bohemia Place", "London", "Greater London", "E8 1DU", "United Kingdom"]}, "categories": [{"id": "52f2ab2ebcbc57f1066b8b45", "name": "Organic Grocery", "pluralName": "Organic Groceries", "shortName": "Organic Grocery", "icon": {"prefix": "https://ss3.4sqi.net/img/categories_v2/shops/food_grocery_", "suffix": ".png"}, "primary": true}], "photos": {"count": 0, "groups": []}}, "referralId": "e-0-5bf816756f0aa2002cb33ef2-0"}, {"reasons": {"count": 0, "items": [{"summary": "This spot is popular", "type": "general", "reasonName": "globalInteractionReason"}]}, "venue": {"id": "4e181ad418a8166f73884a7b", "name": "Argun Printers & Stationers", "location": {"address": "344 Mare St", "lat": 51.54717238439618, "lng": -0.0548243522644043, "labeledLatLngs": [{"label": "display", "lat": 51.54717238439618, "lng": -0.0548243522644043}], "distance": 203, "postalCode": "E8 1HA", "cc": "GB", "city": "London", "state": "Greater London", "country": "United Kingdom", "formattedAddress": ["344 Mare St", "London", "Greater London", "E8 1HA", "United Kingdom"]}, "categories": [{"id": "4bf58dd8d48988d121951735", "name": "Paper / Office Supplies Store", "pluralName": "Paper / Office Supplies Stores", "shortName": "Office Supplies", "icon": {"prefix": "https://ss3.4sqi.net/img/categories_v2/shops/papergoods_", "suffix": ".png"}, "primary": true}], "photos": {"count": 0, "groups": []}, "venuePage": {"id": "56193348"}}, "referralId": "e-0-4e181ad418a8166f73884a7b-1"}, {"reasons": {"count": 0, "items": [{"summary": "This spot is popular", "type": "general", "reasonName": "globalInteractionReason"}]}, "venue": {"id": "4bf7dd13508c0f47ac143e31", "name": "Paper Dress Vintage", "location": {"address": "352A Mare St", "lat": 51.547195736188215, "lng": -0.05468487739562988, "labeledLatLngs": [{"label": "display", "lat": 51.547195736188215, "lng": -0.05468487739562988}], "distance": 202, "postalCode": "E8 1HR", "cc": "GB", "neighborhood": "Hackney", "city": "London", "state": "Greater London", "country": "United Kingdom", "formattedAddress": ["352A Mare St", "London", "Greater London", "E8 1HR", "United Kingdom"]}, "categories": [{"id": "4bf58dd8d48988d101951735", "name": "Thrift / Vintage Store", "pluralName": "Thrift / Vintage Stores", "shortName": "Thrift / Vintage", "icon": {"prefix": "https://ss3.4sqi.net/img/categories_v2/shops/default_", "suffix": ".png"}, "primary": true}], "photos": {"count": 0, "groups": []}}, "referralId": "e-0-4bf7dd13508c0f47ac143e31-2"}, {"reasons": {"count": 0, "items": [{"summary": "This spot is popular", "type": "general", "reasonName": "globalInteractionReason"}]}, "venue": {"id": "53495009498eee6dc97113b1", "name": "Clapton Craft", "location": {"address": "97 Lower Clapton Rd", "lat": 51.551971115434235, "lng": -0.05215281055758928, "labeledLatLngs": [{"label": "display", "lat": 51.551971115434235, "lng": -0.05215281055758928}], "distance": 386, "postalCode": "E5 0NP", "cc": "GB", "city": "London", "state": "Greater London", "country": "United Kingdom", "formattedAddress": ["97 Lower Clapton Rd", "London", "Greater London", "E5 0NP", "United Kingdom"]}, "categories": [{"id": "5370f356bcbc57f1066c94c2", "name": "Beer Store", "pluralName": "Beer Stores", "shortName": "Beer Store", "icon": {"prefix": "https://ss3.4sqi.net/img/categories_v2/nightlife/beergarden_", "suffix": ".png"}, "primary": true}], "photos": {"count": 0, "groups": []}}, "referralId": "e-0-53495009498eee6dc97113b1-3"}, {"reasons": {"count": 0, "items": [{"summary": "This spot is popular", "type": "general", "reasonName": "globalInteractionReason"}]}, "venue": {"id": "53efeb9e498ebbbeb8686829", "name": "P Franco", "location": {"address": "107 Lower Clapton Rd", "lat": 51.552170419815305, "lng": -0.05238648724412099, "labeledLatLngs": [{"label": "display", "lat": 51.552170419815305, "lng": -0.05238648724412099}], "distance": 397, "postalCode": "E5 0NP", "cc": "GB", "city": "London", "state": "Greater London", "country": "United Kingdom", "formattedAddress": ["107 Lower Clapton Rd", "London", "Greater London", "E5 0NP", "United Kingdom"]}, "categories": [{"id": "4bf58dd8d48988d119951735", "name": "Wine Shop", "pluralName": "Wine Shops", "shortName": "Wine Shop", "icon": {"prefix": "https://ss3.4sqi.net/img/categories_v2/shops/food_wineshop_", "suffix": ".png"}, "primary": true}], "photos": {"count": 0, "groups": []}}, "referralId": "e-0-53efeb9e498ebbbeb8686829-4"}, {"reasons": {"count": 0, "items": [{"summary": "This spot is popular", "type": "general", "reasonName": "globalInteractionReason"}]}, "venue": {"id": "50b77faee4b0bf041b1c5aec", "name": "Spandeli", "location": {"address": "246 Dalston Ln", "lat": 51.549546171819294, "lng": -0.059042779560571745, "labeledLatLngs": [{"label": "display", "lat": 51.549546171819294, "lng": -0.059042779560571745}], "distance": 283, "postalCode": "E8 1JG", "cc": "GB", "city": "London", "state": "Greater London", "country": "United Kingdom", "formattedAddress": ["246 Dalston Ln", "London", "Greater London", "E8 1JG", "United Kingdom"]}, "categories": [{"id": "4bf58dd8d48988d1f5941735", "name": "Gourmet Shop", "pluralName": "Gourmet Shops", "shortName": "Gourmet", "icon": {"prefix": "https://ss3.4sqi.net/img/categories_v2/shops/food_gourmet_", "suffix": ".png"}, "primary": true}], "photos": {"count": 0, "groups": []}}, "referralId": "e-0-50b77faee4b0bf041b1c5aec-5"}, {"reasons": {"count": 0, "items": [{"summary": "This spot is popular", "type": "general", "reasonName": "globalInteractionReason"}]}, "venue": {"id": "57504c8f498ed111af450913", "name": "Nike Hackney", "location": {"address": "107-117 Morning Lane", "lat": 51.5471942, "lng": -0.0509326, "labeledLatLngs": [{"label": "display", "lat": 51.5471942, "lng": -0.0509326}], "distance": 348, "postalCode": "E9 6LH", "cc": "GB", "city": "London", "state": "Greater London", "country": "United Kingdom", "formattedAddress": ["107-117 Morning Lane", "London", "Greater London", "E9 6LH", "United Kingdom"]}, "categories": [{"id": "4bf58dd8d48988d1f2941735", "name": "Sporting Goods Shop", "pluralName": "Sporting Goods Shops", "shortName": "Sporting Goods", "icon": {"prefix": "https://ss3.4sqi.net/img/categories_v2/shops/sports_outdoors_", "suffix": ".png"}, "primary": true}], "photos": {"count": 0, "groups": []}}, "referralId": "e-0-57504c8f498ed111af450913-6"}, {"reasons": {"count": 0, "items": [{"summary": "This spot is popular", "type": "general", "reasonName": "globalInteractionReason"}]}, "venue": {"id": "4e74684c2271ffa4e673db10", "name": "CHASE & SORENSEN", "location": {"address": "238B Dalston Ln", "crossStreet": "Amhurst Rd", "lat": 51.54959372486309, "lng": -0.059067446485669396, "labeledLatLngs": [{"label": "display", "lat": 51.54959372486309, "lng": -0.059067446485669396}], "distance": 286, "postalCode": "E8 1LQ", "cc": "GB", "city": "Hackney", "state": "Greater London", "country": "United Kingdom", "formattedAddress": ["238B Dalston Ln (Amhurst Rd)", "Hackney", "Greater London", "E8 1LQ", "United Kingdom"]}, "categories": [{"id": "4bf58dd8d48988d1f8941735", "name": "Furniture / Home Store", "pluralName": "Furniture / Home Stores", "shortName": "Furniture / Home", "icon": {"prefix": "https://ss3.4sqi.net/img/categories_v2/shops/furniture_", "suffix": ".png"}, "primary": true}], "photos": {"count": 0, "groups": []}, "venuePage": {"id": "62757890"}}, "referralId": "e-0-4e74684c2271ffa4e673db10-7"}, {"reasons": {"count": 0, "items": [{"summary": "This spot is popular", "type": "general", "reasonName": "globalInteractionReason"}]}, "venue": {"id": "4c37b73d1e06d13a277f763e", "name": "Marks & Spencer", "location": {"address": "351 Mare St", "lat": 51.54754511614256, "lng": -0.05525714574446257, "labeledLatLngs": [{"label": "display", "lat": 51.54754511614256, "lng": -0.05525714574446257}], "distance": 162, "postalCode": "E8 1JB", "cc": "GB", "city": "London", "state": "Greater London", "country": "United Kingdom", "formattedAddress": ["351 Mare St", "London", "Greater London", "E8 1JB", "United Kingdom"]}, "categories": [{"id": "4bf58dd8d48988d1f6941735", "name": "Department Store", "pluralName": "Department Stores", "shortName": "Department Store", "icon": {"prefix": "https://ss3.4sqi.net/img/categories_v2/shops/departmentstore_", "suffix": ".png"}, "primary": true}], "photos": {"count": 0, "groups": []}, "venuePage": {"id": "568613505"}}, "referralId": "e-0-4c37b73d1e06d13a277f763e-8"}, {"reasons": {"count": 0, "items": [{"summary": "This spot is popular", "type": "general", "reasonName": "globalInteractionReason"}]}, "venue": {"id": "5634e1fa498e430fcbc659ea", "name": "TK Maxx", "location": {"address": "7-19 Amhurst Rd", "lat": 51.547505448863895, "lng": -0.05589882613411332, "labeledLatLngs": [{"label": "display", "lat": 51.547505448863895, "lng": -0.05589882613411332}], "distance": 176, "postalCode": "E8 1LL", "cc": "GB", "city": "London", "state": "Greater London", "country": "United Kingdom", "formattedAddress": ["7-19 Amhurst Rd", "London", "Greater London", "E8 1LL", "United Kingdom"]}, "categories": [{"id": "4bf58dd8d48988d103951735", "name": "Clothing Store", "pluralName": "Clothing Stores", "shortName": "Apparel", "icon": {"prefix": "https://ss3.4sqi.net/img/categories_v2/shops/apparel_", "suffix": ".png"}, "primary": true}], "photos": {"count": 0, "groups": []}}, "referralId": "e-0-5634e1fa498e430fcbc659ea-9"}, {"reasons": {"count": 0, "items": [{"summary": "This spot is popular", "type": "general", "reasonName": "globalInteractionReason"}]}, "venue": {"id": "4b5a3ce9f964a52097b628e3", "name": "Primark", "location": {"address": "365 - 371 Mare Street, Hackney", "lat": 51.54794715709762, "lng": -0.05521997809410095, "labeledLatLngs": [{"label": "display", "lat": 51.54794715709762, "lng": -0.05521997809410095}], "distance": 117, "postalCode": "E8 1HY", "cc": "GB", "city": "London", "state": "Greater London", "country": "United Kingdom", "formattedAddress": ["365 - 371 Mare Street, Hackney", "London", "Greater London", "E8 1HY", "United Kingdom"]}, "categories": [{"id": "4bf58dd8d48988d103951735", "name": "Clothing Store", "pluralName": "Clothing Stores", "shortName": "Apparel", "icon": {"prefix": "https://ss3.4sqi.net/img/categories_v2/shops/apparel_", "suffix": ".png"}, "primary": true}], "photos": {"count": 0, "groups": []}}, "referralId": "e-0-4b5a3ce9f964a52097b628e3-10"}, {"reasons": {"count": 0, "items": [{"summary": "This spot is popular", "type": "general", "reasonName": "globalInteractionReason"}]}, "venue": {"id": "5307a2aa498e5b350d29c711", "name": "Boots", "location": {"address": "386-388 Mare St", "lat": 51.548813647030926, "lng": -0.05507979987855845, "labeledLatLngs": [{"label": "display", "lat": 51.548813647030926, "lng": -0.05507979987855845}], "distance": 20, "postalCode": "E8 1HR", "cc": "GB", "city": "London", "state": "Greater London", "country": "United Kingdom", "formattedAddress": ["386-388 Mare St", "London", "Greater London", "E8 1HR", "United Kingdom"]}, "categories": [{"id": "4bf58dd8d48988d10f951735", "name": "Pharmacy", "pluralName": "Pharmacies", "shortName": "Pharmacy", "icon": {"prefix": "https://ss3.4sqi.net/img/categories_v2/shops/pharmacy_", "suffix": ".png"}, "primary": true}], "photos": {"count": 0, "groups": []}}, "referralId": "e-0-5307a2aa498e5b350d29c711-11"}, {"reasons": {"count": 0, "items": [{"summary": "This spot is popular", "type": "general", "reasonName": "globalInteractionReason"}]}, "venue": {"id": "56633c20498e53d3226a7293", "name": "Co-op Food", "location": {"address": "Pembury Circus", "crossStreet": "Dalston Ln", "lat": 51.54963451766735, "lng": -0.058518575797199546, "labeledLatLngs": [{"label": "display", "lat": 51.54963451766735, "lng": -0.058518575797199546}], "distance": 250, "postalCode": "E8 1LQ", "cc": "GB", "city": "London", "state": "Greater London", "country": "United Kingdom", "formattedAddress": ["Pembury Circus (Dalston Ln)", "London", "Greater London", "E8 1LQ", "United Kingdom"]}, "categories": [{"id": "52f2ab2ebcbc57f1066b8b46", "name": "Supermarket", "pluralName": "Supermarkets", "shortName": "Supermarket", "icon": {"prefix": "https://ss3.4sqi.net/img/categories_v2/shops/food_grocery_", "suffix": ".png"}, "primary": true}], "photos": {"count": 0, "groups": []}}, "referralId": "e-0-56633c20498e53d3226a7293-12"}, {"reasons": {"count": 0, "items": [{"summary": "This spot is popular", "type": "general", "reasonName": "globalInteractionReason"}]}, "venue": {"id": "4c389f59dfb0e21e5cddaea8", "name": "Iceland", "location": {"address": "337 Mare St", "lat": 51.54692390034617, "lng": -0.05520557744371227, "labeledLatLngs": [{"label": "display", "lat": 51.54692390034617, "lng": -0.05520557744371227}], "distance": 231, "postalCode": "E8 1HY", "cc": "GB", "city": "London", "state": "Greater London", "country": "United Kingdom", "formattedAddress": ["337 Mare St", "London", "Greater London", "E8 1HY", "United Kingdom"]}, "categories": [{"id": "4bf58dd8d48988d118951735", "name": "Grocery Store", "pluralName": "Grocery Stores", "shortName": "Grocery Store", "icon": {"prefix": "https://ss3.4sqi.net/img/categories_v2/shops/food_grocery_", "suffix": ".png"}, "primary": true}], "photos": {"count": 0, "groups": []}}, "referralId": "e-0-4c389f59dfb0e21e5cddaea8-13"}, {"reasons": {"count": 0, "items": [{"summary": "This spot is popular", "type": "general", "reasonName": "globalInteractionReason"}]}, "venue": {"id": "54ad9b0a498e72e91db816fc", "name": "Hackney Fresh", "location": {"address": "334 Mare St", "lat": 51.546854383190926, "lng": -0.055044880208814685, "labeledLatLngs": [{"label": "display", "lat": 51.546854383190926, "lng": -0.055044880208814685}], "distance": 238, "postalCode": "E8 1HA", "cc": "GB", "neighborhood": "Hackney", "city": "London", "state": "Greater London", "country": "United Kingdom", "formattedAddress": ["334 Mare St", "London", "Greater London", "E8 1HA", "United Kingdom"]}, "categories": [{"id": "52f2ab2ebcbc57f1066b8b45", "name": "Organic Grocery", "pluralName": "Organic Groceries", "shortName": "Organic Grocery", "icon": {"prefix": "https://ss3.4sqi.net/img/categories_v2/shops/food_grocery_", "suffix": ".png"}, "primary": true}], "photos": {"count": 0, "groups": []}}, "referralId": "e-0-54ad9b0a498e72e91db816fc-14"}, {"reasons": {"count": 0, "items": [{"summary": "This spot is popular", "type": "general", "reasonName": "globalInteractionReason"}]}, "venue": {"id": "4efedc570e01089c54b78384", "name": "The Narrow Way", "location": {"address": "Mare St", "lat": 51.548587677352934, "lng": -0.05498679939037939, "labeledLatLngs": [{"label": "display", "lat": 51.548587677352934, "lng": -0.05498679939037939}], "distance": 46, "postalCode": "E8 1HL", "cc": "GB", "city": "London", "state": "Greater London", "country": "United Kingdom", "formattedAddress": ["Mare St", "London", "Greater London", "E8 1HL", "United Kingdom"]}, "categories": [{"id": "50be8ee891d4fa8dcc7199a7", "name": "Market", "pluralName": "Markets", "shortName": "Market", "icon": {"prefix": "https://ss3.4sqi.net/img/categories_v2/shops/market_", "suffix": ".png"}, "primary": true}], "photos": {"count": 0, "groups": []}}, "referralId": "e-0-4efedc570e01089c54b78384-15"}, {"reasons": {"count": 0, "items": [{"summary": "This spot is popular", "type": "general", "reasonName": "globalInteractionReason"}]}, "venue": {"id": "4caf41edeb65b1f7502462cd", "name": "O2 Shop Hackney", "location": {"address": "379 Mare St", "crossStreet": "Hackney", "lat": 51.54829659278245, "lng": -0.05499601364135742, "labeledLatLngs": [{"label": "display", "lat": 51.54829659278245, "lng": -0.05499601364135742}], "distance": 78, "postalCode": "E8 1HY", "cc": "GB", "city": "Hackney", "state": "Greater London", "country": "United Kingdom", "formattedAddress": ["379 Mare St (Hackney)", "Hackney", "Greater London", "E8 1HY", "United Kingdom"]}, "categories": [{"id": "4f04afc02fb6e1c99f3db0bc", "name": "Mobile Phone Shop", "pluralName": "Mobile Phone Shops", "shortName": "Mobile Phones", "icon": {"prefix": "https://ss3.4sqi.net/img/categories_v2/shops/mobilephoneshop_", "suffix": ".png"}, "primary": true}], "photos": {"count": 0, "groups": []}}, "referralId": "e-0-4caf41edeb65b1f7502462cd-16"}, {"reasons": {"count": 0, "items": [{"summary": "This spot is popular", "type": "general", "reasonName": "globalInteractionReason"}]}, "venue": {"id": "4cd55474fb595481146fdd50", "name": "The Pet Shop", "location": {"address": "40-42 Amhurst Rd", "lat": 51.54822704653706, "lng": -0.0569845673332249, "labeledLatLngs": [{"label": "display", "lat": 51.54822704653706, "lng": -0.0569845673332249}], "distance": 159, "postalCode": "E8 1JN", "cc": "GB", "city": "London", "state": "Greater London", "country": "United Kingdom", "formattedAddress": ["40-42 Amhurst Rd", "London", "Greater London", "E8 1JN", "United Kingdom"]}, "categories": [{"id": "4bf58dd8d48988d100951735", "name": "Pet Store", "pluralName": "Pet Stores", "shortName": "Pet Store", "icon": {"prefix": "https://ss3.4sqi.net/img/categories_v2/shops/pet_store_", "suffix": ".png"}, "primary": true}], "photos": {"count": 0, "groups": []}}, "referralId": "e-0-4cd55474fb595481146fdd50-17"}, {"reasons": {"count": 0, "items": [{"summary": "This spot is popular", "type": "general", "reasonName": "globalInteractionReason"}]}, "venue": {"id": "4dbeb70ea86e0e98a217540e", "name": "JD Sports", "location": {"address": "331 Mare St", "lat": 51.54679708609462, "lng": -0.055403709411621094, "labeledLatLngs": [{"label": "display", "lat": 51.54679708609462, "lng": -0.055403709411621094}], "distance": 246, "postalCode": "E8 1HY", "cc": "GB", "city": "London", "state": "Greater London", "country": "United Kingdom", "formattedAddress": ["331 Mare St", "London", "Greater London", "E8 1HY", "United Kingdom"]}, "categories": [{"id": "4bf58dd8d48988d1f2941735", "name": "Sporting Goods Shop", "pluralName": "Sporting Goods Shops", "shortName": "Sporting Goods", "icon": {"prefix": "https://ss3.4sqi.net/img/categories_v2/shops/sports_outdoors_", "suffix": ".png"}, "primary": true}], "photos": {"count": 0, "groups": []}}, "referralId": "e-0-4dbeb70ea86e0e98a217540e-18"}, {"reasons": {"count": 0, "items": [{"summary": "This spot is popular", "type": "general", "reasonName": "globalInteractionReason"}]}, "venue": {"id": "52e5391411d272d8ac73c3b6", "name": "ICEMAN Signs and Print", "location": {"address": "31 Lower Clapton Rd", "crossStreet": "Urswick Rd & Clapton Sq", "lat": 51.55077222192504, "lng": -0.05267654654744547, "labeledLatLngs": [{"label": "display", "lat": 51.55077222192504, "lng": -0.05267654654744547}], "distance": 256, "postalCode": "E5 0NS", "cc": "GB", "city": "London", "state": "Greater London", "country": "United Kingdom", "formattedAddress": ["31 Lower Clapton Rd (Urswick Rd & Clapton Sq)", "London", "Greater London", "E5 0NS", "United Kingdom"]}, "categories": [{"id": "52f2ab2ebcbc57f1066b8b28", "name": "Print Shop", "pluralName": "Print Shops", "shortName": "Print Shop", "icon": {"prefix": "https://ss3.4sqi.net/img/categories_v2/shops/default_", "suffix": ".png"}, "primary": true}], "photos": {"count": 0, "groups": []}, "venuePage": {"id": "83568861"}}, "referralId": "e-0-52e5391411d272d8ac73c3b6-19"}, {"reasons": {"count": 0, "items": [{"summary": "This spot is popular", "type": "general", "reasonName": "globalInteractionReason"}]}, "venue": {"id": "4e84630f1081cfa1e1b70d81", "name": "Microtimes Ltd", "location": {"address": "230 Graham Road", "crossStreet": "Mare Street", "lat": 51.54661860981621, "lng": -0.05555391311645508, "labeledLatLngs": [{"label": "display", "lat": 51.54661860981621, "lng": -0.05555391311645508}], "distance": 267, "postalCode": "e8 1bp", "cc": "GB", "city": "Hackney Central", "state": "Greater London", "country": "United Kingdom", "formattedAddress": ["230 Graham Road (Mare Street)", "Hackney Central", "Greater London", "e8 1bp", "United Kingdom"]}, "categories": [{"id": "4bf58dd8d48988d122951735", "name": "Electronics Store", "pluralName": "Electronics Stores", "shortName": "Electronics", "icon": {"prefix": "https://ss3.4sqi.net/img/categories_v2/shops/technology_", "suffix": ".png"}, "primary": true}], "photos": {"count": 0, "groups": []}, "venuePage": {"id": "43883850"}}, "referralId": "e-0-4e84630f1081cfa1e1b70d81-20"}, {"reasons": {"count": 0, "items": [{"summary": "This spot is popular", "type": "general", "reasonName": "globalInteractionReason"}]}, "venue": {"id": "4b9c0ce0f964a520de4436e3", "name": "Burberry Outlet", "location": {"address": "29-31 Chatham Pl", "crossStreet": "Morning Ln", "lat": 51.5464343, "lng": -0.0511574, "labeledLatLngs": [{"label": "display", "lat": 51.5464343, "lng": -0.0511574}], "distance": 392, "postalCode": "E9 6LP", "cc": "GB", "city": "London", "state": "Greater London", "country": "United Kingdom", "formattedAddress": ["29-31 Chatham Pl (Morning Ln)", "London", "Greater London", "E9 6LP", "United Kingdom"]}, "categories": [{"id": "4bf58dd8d48988d104951735", "name": "Boutique", "pluralName": "Boutiques", "shortName": "Boutique", "icon": {"prefix": "https://ss3.4sqi.net/img/categories_v2/shops/apparel_boutique_", "suffix": ".png"}, "primary": true}], "photos": {"count": 0, "groups": []}}, "referralId": "e-0-4b9c0ce0f964a520de4436e3-21"}, {"reasons": {"count": 0, "items": [{"summary": "This spot is popular", "type": "general", "reasonName": "globalInteractionReason"}]}, "venue": {"id": "4e3143e4152071f36460b67a", "name": "Scope Charity Shop", "location": {"address": "4 Morning Lane", "lat": 51.54601311965528, "lng": -0.054623186588287354, "labeledLatLngs": [{"label": "display", "lat": 51.54601311965528, "lng": -0.054623186588287354}], "distance": 333, "postalCode": "E9 6NA", "cc": "GB", "city": "Hackney", "state": "Greater London", "country": "United Kingdom", "formattedAddress": ["4 Morning Lane", "Hackney", "Greater London", "E9 6NA", "United Kingdom"]}, "categories": [{"id": "4bf58dd8d48988d101951735", "name": "Thrift / Vintage Store", "pluralName": "Thrift / Vintage Stores", "shortName": "Thrift / Vintage", "icon": {"prefix": "https://ss3.4sqi.net/img/categories_v2/shops/default_", "suffix": ".png"}, "primary": true}], "photos": {"count": 0, "groups": []}}, "referralId": "e-0-4e3143e4152071f36460b67a-22"}, {"reasons": {"count": 0, "items": [{"summary": "This spot is popular", "type": "general", "reasonName": "globalInteractionReason"}]}, "venue": {"id": "50a8d6b1e4b01c6763c46214", "name": "Pringle of Scotland Outlet", "location": {"address": "Chatham Place", "crossStreet": "Morning Lane", "lat": 51.546853435961154, "lng": -0.05127290581012357, "labeledLatLngs": [{"label": "display", "lat": 51.546853435961154, "lng": -0.05127290581012357}], "distance": 353, "cc": "GB", "city": "Hackney", "state": "Greater London", "country": "United Kingdom", "formattedAddress": ["Chatham Place (Morning Lane)", "Hackney", "Greater London", "United Kingdom"]}, "categories": [{"id": "4bf58dd8d48988d104951735", "name": "Boutique", "pluralName": "Boutiques", "shortName": "Boutique", "icon": {"prefix": "https://ss3.4sqi.net/img/categories_v2/shops/apparel_boutique_", "suffix": ".png"}, "primary": true}], "photos": {"count": 0, "groups": []}}, "referralId": "e-0-50a8d6b1e4b01c6763c46214-23"}, {"reasons": {"count": 0, "items": [{"summary": "This spot is popular", "type": "general", "reasonName": "globalInteractionReason"}]}, "venue": {"id": "57d1c6ea498ebd10a52e1244", "name": "Hackney Walk", "location": {"address": "Morning Ln", "lat": 51.54715704572719, "lng": -0.050748083814571514, "labeledLatLngs": [{"label": "display", "lat": 51.54715704572719, "lng": -0.050748083814571514}], "distance": 361, "postalCode": "E9 6LS", "cc": "GB", "city": "London", "state": "Greater London", "country": "United Kingdom", "formattedAddress": ["Morning Ln", "London", "Greater London", "E9 6LS", "United Kingdom"]}, "categories": [{"id": "5744ccdfe4b0c0459246b4dc", "name": "Shopping Plaza", "pluralName": "Shopping Plazas", "shortName": "Shopping Plaza", "icon": {"prefix": "https://ss3.4sqi.net/img/categories_v2/shops/mall_", "suffix": ".png"}, "primary": true}], "photos": {"count": 0, "groups": []}}, "referralId": "e-0-57d1c6ea498ebd10a52e1244-24"}, {"reasons": {"count": 0, "items": [{"summary": "This spot is popular", "type": "general", "reasonName": "globalInteractionReason"}]}, "venue": {"id": "4ca32d9ea73cb60c2b331678", "name": "Holland & Barrett", "location": {"address": "376 Mare St", "lat": 51.54854, "lng": -0.054891407, "labeledLatLngs": [{"label": "display", "lat": 51.54854, "lng": -0.054891407}], "distance": 52, "postalCode": "E8 1HR", "cc": "GB", "neighborhood": "Hackney Central", "city": "London", "state": "Greater London", "country": "United Kingdom", "formattedAddress": ["376 Mare St", "London", "Greater London", "E8 1HR", "United Kingdom"]}, "categories": [{"id": "50aa9e744b90af0d42d5de0e", "name": "Health Food Store", "pluralName": "Health Food Stores", "shortName": "Health Food Store", "icon": {"prefix": "https://ss3.4sqi.net/img/categories_v2/shops/food_grocery_", "suffix": ".png"}, "primary": true}], "photos": {"count": 0, "groups": []}}, "referralId": "e-0-4ca32d9ea73cb60c2b331678-25"}, {"reasons": {"count": 0, "items": [{"summary": "This spot is popular", "type": "general", "reasonName": "globalInteractionReason"}]}, "venue": {"id": "5ed620c94e3045000866c189", "name": "H and T Pawnbrokers", "location": {"address": "384 Mare Street", "lat": 51.54874848, "lng": -0.05494934, "labeledLatLngs": [{"label": "display", "lat": 51.54874848, "lng": -0.05494934}], "distance": 28, "postalCode": "E8 1HR", "cc": "GB", "city": "London", "state": "Greater London", "country": "United Kingdom", "formattedAddress": ["384 Mare Street", "London", "Greater London", "E8 1HR", "United Kingdom"]}, "categories": [{"id": "52f2ab2ebcbc57f1066b8b34", "name": "Pawn Shop", "pluralName": "Pawn Shops", "shortName": "Pawn Shop", "icon": {"prefix": "https://ss3.4sqi.net/img/categories_v2/shops/default_", "suffix": ".png"}, "primary": true}], "photos": {"count": 0, "groups": []}, "venuePage": {"id": "583780069"}}, "referralId": "e-0-5ed620c94e3045000866c189-26"}, {"reasons": {"count": 0, "items": [{"summary": "This spot is popular", "type": "general", "reasonName": "globalInteractionReason"}]}, "venue": {"id": "4e7fc95c8b81da9462fe92dd", "name": "Paddy Power", "location": {"address": "339 Mare Street", "lat": 51.547396042257034, "lng": -0.05468556099440709, "labeledLatLngs": [{"label": "display", "lat": 51.547396042257034, "lng": -0.05468556099440709}], "distance": 180, "postalCode": "E8 1HY", "cc": "GB", "city": "Hackney", "state": "Greater London", "country": "United Kingdom", "formattedAddress": ["339 Mare Street", "Hackney", "Greater London", "E8 1HY", "United Kingdom"]}, "categories": [{"id": "52f2ab2ebcbc57f1066b8b40", "name": "Betting Shop", "pluralName": "Betting Shops", "shortName": "Betting Shop", "icon": {"prefix": "https://ss3.4sqi.net/img/categories_v2/shops/financial_", "suffix": ".png"}, "primary": true}], "photos": {"count": 0, "groups": []}, "venuePage": {"id": "549609473"}}, "referralId": "e-0-4e7fc95c8b81da9462fe92dd-27"}, {"reasons": {"count": 0, "items": [{"summary": "This spot is popular", "type": "general", "reasonName": "globalInteractionReason"}]}, "venue": {"id": "5c964e94598e64003923e6bb", "name": "Conservatory Archives", "location": {"address": "3-7 Lower Clapton Rd", "lat": 51.549917, "lng": -0.054335, "labeledLatLngs": [{"label": "display", "lat": 51.549917, "lng": -0.054335}], "distance": 113, "postalCode": "E5 0NS", "cc": "GB", "city": "London", "state": "Greater London", "country": "United Kingdom", "formattedAddress": ["3-7 Lower Clapton Rd", "London", "Greater London", "E5 0NS", "United Kingdom"]}, "categories": [{"id": "4bf58dd8d48988d11b951735", "name": "Flower Shop", "pluralName": "Flower Shops", "shortName": "Flower Shop", "icon": {"prefix": "https://ss3.4sqi.net/img/categories_v2/shops/flowershop_", "suffix": ".png"}, "primary": true}], "photos": {"count": 0, "groups": []}}, "referralId": "e-0-5c964e94598e64003923e6bb-28"}, {"reasons": {"count": 0, "items": [{"summary": "This spot is popular", "type": "general", "reasonName": "globalInteractionReason"}]}, "venue": {"id": "4cf93ad4951537043d786189", "name": "Tesco Express", "location": {"address": "230 Dalston Ln, Hackney", "crossStreet": "-", "lat": 51.54981, "lng": -0.05575, "labeledLatLngs": [{"label": "display", "lat": 51.54981, "lng": -0.05575}], "distance": 102, "postalCode": "E8 1LA", "cc": "GB", "city": "London", "state": "Greater London", "country": "United Kingdom", "formattedAddress": ["230 Dalston Ln, Hackney (-)", "London", "Greater London", "E8 1LA", "United Kingdom"]}, "categories": [{"id": "4bf58dd8d48988d118951735", "name": "Grocery Store", "pluralName": "Grocery Stores", "shortName": "Grocery Store", "icon": {"prefix": "https://ss3.4sqi.net/img/categories_v2/shops/food_grocery_", "suffix": ".png"}, "primary": true}], "photos": {"count": 0, "groups": []}}, "referralId": "e-0-4cf93ad4951537043d786189-29"}, {"reasons": {"count": 0, "items": [{"summary": "This spot is popular", "type": "general", "reasonName": "globalInteractionReason"}]}, "venue": {"id": "532206f0498e8e92fda2a3b5", "name": "Sainsbury's Local", "location": {"address": "Unit 4, Airdrie Retail Park, Gartlea Road", "lat": 51.550019926478406, "lng": -0.05436889303147563, "labeledLatLngs": [{"label": "display", "lat": 51.550019926478406, "lng": -0.05436889303147563}], "distance": 122, "postalCode": "E5 0NS", "cc": "GB", "city": "London", "country": "United Kingdom", "formattedAddress": ["Unit 4, Airdrie Retail Park, Gartlea Road", "London", "E5 0NS", "United Kingdom"]}, "categories": [{"id": "4bf58dd8d48988d118951735", "name": "Grocery Store", "pluralName": "Grocery Stores", "shortName": "Grocery Store", "icon": {"prefix": "https://ss3.4sqi.net/img/categories_v2/shops/food_grocery_", "suffix": ".png"}, "primary": true}], "photos": {"count": 0, "groups": []}}, "referralId": "e-0-532206f0498e8e92fda2a3b5-30"}, {"reasons": {"count": 0, "items": [{"summary": "This spot is popular", "type": "general", "reasonName": "globalInteractionReason"}]}, "venue": {"id": "4b361886f964a5201c3025e3", "name": "Tesco", "location": {"address": "55 Morning Ln", "lat": 51.5468265, "lng": -0.0529543, "labeledLatLngs": [{"label": "display", "lat": 51.5468265, "lng": -0.0529543}], "distance": 281, "postalCode": "E9 6ND", "cc": "GB", "city": "London", "state": "Greater London", "country": "United Kingdom", "formattedAddress": ["55 Morning Ln", "London", "Greater London", "E9 6ND", "United Kingdom"]}, "categories": [{"id": "52f2ab2ebcbc57f1066b8b46", "name": "Supermarket", "pluralName": "Supermarkets", "shortName": "Supermarket", "icon": {"prefix": "https://ss3.4sqi.net/img/categories_v2/shops/food_grocery_", "suffix": ".png"}, "primary": true}], "photos": {"count": 0, "groups": []}}, "referralId": "e-0-4b361886f964a5201c3025e3-31"}]}]}}