{"meta": {"code": 200, "requestId": "5feddc10e763db0b99ae195d"}, "response": {"suggestedFilters": {"header": "Tap to show:", "filters": [{"name": "Open now", "key": "openNow"}]}, "headerLocation": "Hackney", "headerFullLocation": "Hackney, London", "headerLocationGranularity": "neighborhood", "query": "arts entertainment", "totalResults": 20, "suggestedBounds": {"ne": {"lat": 51.525690003600005, "lng": -0.07397499564700244}, "sw": {"lat": 51.51848999639999, "lng": -0.08552500435299756}}, "groups": [{"type": "Recommended Places", "name": "recommended", "items": [{"reasons": {"count": 0, "items": [{"summary": "This spot is popular", "type": "general", "reasonName": "globalInteractionReason"}]}, "venue": {"id": "4ac518ebf964a52041ac20e3", "name": "Village Underground", "location": {"address": "54 Holywell Ln", "lat": 51.52355222406034, "lng": -0.0785581572500486, "labeledLatLngs": [{"label": "display", "lat": 51.52355222406034, "lng": -0.0785581572500486}], "distance": 182, "postalCode": "EC2A 3PQ", "cc": "GB", "city": "Shoreditch", "state": "Greater London", "country": "United Kingdom", "formattedAddress": ["54 Holywell Ln", "Shoreditch", "Greater London", "EC2A 3PQ", "United Kingdom"]}, "categories": [{"id": "4bf58dd8d48988d1e5931735", "name": "Music Venue", "pluralName": "Music Venues", "shortName": "Music Venue", "icon": {"prefix": "https://ss3.4sqi.net/img/categories_v2/arts_entertainment/musicvenue_", "suffix": ".png"}, "primary": true}], "photos": {"count": 0, "groups": []}, "venuePage": {"id": "72090689"}}, "referralId": "e-0-4ac518ebf964a52041ac20e3-0"}, {"reasons": {"count": 0, "items": [{"summary": "This spot is popular", "type": "general", "reasonName": "globalInteractionReason"}]}, "venue": {"id": "4ac518d4f964a5208fa720e3", "name": "Dennis Severs' House", "location": {"address": "18 Folgate St", "lat": 51.52106972433822, "lng": -0.07779691669683746, "labeledLatLngs": [{"label": "display", "lat": 51.52106972433822, "lng": -0.07779691669683746}], "distance": 176, "postalCode": "E1 6BX", "cc": "GB", "city": "London", "state": "Greater London", "country": "United Kingdom", "formattedAddress": ["18 Folgate St", "London", "Greater London", "E1 6BX", "United Kingdom"]}, "categories": [{"id": "4bf58dd8d48988d181941735", "name": "Museum", "pluralName": "Museums", "shortName": "Museum", "icon": {"prefix": "https://ss3.4sqi.net/img/categories_v2/arts_entertainment/museum_", "suffix": ".png"}, "primary": true}], "photos": {"count": 0, "groups": []}}, "referralId": "e-0-4ac518d4f964a5208fa720e3-1"}, {"reasons": {"count": 0, "items": [{"summary": "This spot is popular", "type": "general", "reasonName": "globalInteractionReason"}]}, "venue": {"id": "54c10a21498eb34a1c78cb15", "name": "Jealous Gallery", "location": {"address": "53 Curtain Rd", "lat": 51.52411601255718, "lng": -0.08020458135831798, "labeledLatLngs": [{"label": "display", "lat": 51.52411601255718, "lng": -0.08020458135831798}], "distance": 227, "postalCode": "EC2A 3PT", "cc": "GB", "country": "United Kingdom", "formattedAddress": ["53 Curtain Rd", "EC2A 3PT", "United Kingdom"]}, "categories": [{"id": "4bf58dd8d48988d1e2931735", "name": "Art Gallery", "pluralName": "Art Galleries", "shortName": "Art Gallery", "icon": {"prefix": "https://ss3.4sqi.net/img/categories_v2/arts_entertainment/artgallery_", "suffix": ".png"}, "primary": true}], "photos": {"count": 0, "groups": []}}, "referralId": "e-0-54c10a21498eb34a1c78cb15-2"}, {"reasons": {"count": 0, "items": [{"summary": "This spot is popular", "type": "general", "reasonName": "globalInteractionReason"}]}, "venue": {"id": "523b5641498ecbd0b1f08070", "name": "Howard Griffin Gallery", "location": {"address": "189 Shoreditch High St", "lat": 51.524020973483736, "lng": -0.07726636340078925, "labeledLatLngs": [{"label": "display", "lat": 51.524020973483736, "lng": -0.07726636340078925}], "distance": 275, "postalCode": "E1 6HU", "cc": "GB", "country": "United Kingdom", "formattedAddress": ["189 Shoreditch High St", "E1 6HU", "United Kingdom"]}, "categories": [{"id": "4bf58dd8d48988d1e2931735", "name": "Art Gallery", "pluralName": "Art Galleries", "shortName": "Art Gallery", "icon": {"prefix": "https://ss3.4sqi.net/img/categories_v2/arts_entertainment/artgallery_", "suffix": ".png"}, "primary": true}], "photos": {"count": 0, "groups": []}}, "referralId": "e-0-523b5641498ecbd0b1f08070-3"}, {"reasons": {"count": 0, "items": [{"summary": "This spot is popular", "type": "general", "reasonName": "globalInteractionReason"}]}, "venue": {"id": "4bbdb292f57ba5934051aeb9", "name": "Spitalfields Arts Market", "location": {"address": "Market St.", "crossStreet": "Brushfield St.", "lat": 51.519337103364094, "lng": -0.07693405791752103, "labeledLatLngs": [{"label": "display", "lat": 51.519337103364094, "lng": -0.07693405791752103}], "distance": 363, "postalCode": "E1 6AA", "cc": "GB", "city": "Spitalfields", "state": "Greater London", "country": "United Kingdom", "formattedAddress": ["Market St. (Brushfield St.)", "Spitalfields", "Greater London", "E1 6AA", "United Kingdom"]}, "categories": [{"id": "4bf58dd8d48988d1e2931735", "name": "Art Gallery", "pluralName": "Art Galleries", "shortName": "Art Gallery", "icon": {"prefix": "https://ss3.4sqi.net/img/categories_v2/arts_entertainment/artgallery_", "suffix": ".png"}, "primary": true}], "photos": {"count": 0, "groups": []}}, "referralId": "e-0-4bbdb292f57ba5934051aeb9-4"}, {"reasons": {"count": 0, "items": [{"summary": "This spot is popular", "type": "general", "reasonName": "globalInteractionReason"}]}, "venue": {"id": "500d904de4b07957c405c8d3", "name": "71a gallery", "location": {"address": "71a Leonard St", "lat": 51.52474254402463, "lng": -0.08315457136755083, "labeledLatLngs": [{"label": "display", "lat": 51.52474254402463, "lng": -0.08315457136755083}], "distance": 377, "postalCode": "EC2A 4QS", "cc": "GB", "city": "London", "state": "Greater London", "country": "United Kingdom", "formattedAddress": ["71a Leonard St", "London", "Greater London", "EC2A 4QS", "United Kingdom"]}, "categories": [{"id": "4bf58dd8d48988d1e2931735", "name": "Art Gallery", "pluralName": "Art Galleries", "shortName": "Art Gallery", "icon": {"prefix": "https://ss3.4sqi.net/img/categories_v2/arts_entertainment/artgallery_", "suffix": ".png"}, "primary": true}], "photos": {"count": 0, "groups": []}}, "referralId": "e-0-500d904de4b07957c405c8d3-5"}, {"reasons": {"count": 0, "items": [{"summary": "This spot is popular", "type": "general", "reasonName": "globalInteractionReason"}]}, "venue": {"id": "50c0f007e4b06f3d18b32747", "name": "Hot Tub Cinema", "location": {"address": "Plough Yard", "lat": 51.52291962402734, "lng": -0.07988245524571938, "labeledLatLngs": [{"label": "display", "lat": 51.52291962402734, "lng": -0.07988245524571938}], "distance": 92, "postalCode": "E C2A", "cc": "GB", "city": "London", "state": "Greater London", "country": "United Kingdom", "formattedAddress": ["Plough Yard", "London", "Greater London", "E C2A", "United Kingdom"]}, "categories": [{"id": "4bf58dd8d48988d17f941735", "name": "Movie Theater", "pluralName": "Movie Theaters", "shortName": "Movie Theater", "icon": {"prefix": "https://ss3.4sqi.net/img/categories_v2/arts_entertainment/movietheater_", "suffix": ".png"}, "primary": true}], "photos": {"count": 0, "groups": []}}, "referralId": "e-0-50c0f007e4b06f3d18b32747-6"}, {"reasons": {"count": 0, "items": [{"summary": "This spot is popular", "type": "general", "reasonName": "globalInteractionReason"}]}, "venue": {"id": "4c3f00c151dee21eef55eb6e", "name": "Shoreditch Studios", "location": {"address": "37 Batemans Row", "lat": 51.525033158671896, "lng": -0.07835451556633584, "labeledLatLngs": [{"label": "display", "lat": 51.525033158671896, "lng": -0.07835451556633584}], "distance": 341, "postalCode": "EC2A 3HH", "cc": "GB", "city": "Shoreditch", "state": "Greater London", "country": "United Kingdom", "formattedAddress": ["37 Batemans Row", "Shoreditch", "Greater London", "EC2A 3HH", "United Kingdom"]}, "categories": [{"id": "4bf58dd8d48988d1e2931735", "name": "Art Gallery", "pluralName": "Art Galleries", "shortName": "Art Gallery", "icon": {"prefix": "https://ss3.4sqi.net/img/categories_v2/arts_entertainment/artgallery_", "suffix": ".png"}, "primary": true}], "photos": {"count": 0, "groups": []}}, "referralId": "e-0-4c3f00c151dee21eef55eb6e-7"}, {"reasons": {"count": 0, "items": [{"summary": "This spot is popular", "type": "general", "reasonName": "globalInteractionReason"}]}, "venue": {"id": "4be31311b02ec9b6627f4ec0", "name": "Pure Evil Gallery", "location": {"address": "108 Leonard St", "lat": 51.5247561263815, "lng": -0.08130175485523647, "labeledLatLngs": [{"label": "display", "lat": 51.5247561263815, "lng": -0.08130175485523647}], "distance": 315, "postalCode": "EC2A 4XS", "cc": "GB", "city": "London", "state": "Greater London", "country": "United Kingdom", "formattedAddress": ["108 Leonard St", "London", "Greater London", "EC2A 4XS", "United Kingdom"]}, "categories": [{"id": "4bf58dd8d48988d1e2931735", "name": "Art Gallery", "pluralName": "Art Galleries", "shortName": "Art Gallery", "icon": {"prefix": "https://ss3.4sqi.net/img/categories_v2/arts_entertainment/artgallery_", "suffix": ".png"}, "primary": true}], "photos": {"count": 0, "groups": []}}, "referralId": "e-0-4be31311b02ec9b6627f4ec0-8"}, {"reasons": {"count": 0, "items": [{"summary": "This spot is popular", "type": "general", "reasonName": "globalInteractionReason"}]}, "venue": {"id": "4e01ea4788776240d3f64f64", "name": "The Goat In The Square", "location": {"address": "Spital Sq", "lat": 51.51921397604635, "lng": -0.07790078389878043, "labeledLatLngs": [{"label": "display", "lat": 51.51921397604635, "lng": -0.07790078389878043}], "distance": 344, "postalCode": "E1 6SW", "cc": "GB", "city": "London", "state": "Greater London", "country": "United Kingdom", "formattedAddress": ["Spital Sq", "London", "Greater London", "E1 6SW", "United Kingdom"]}, "categories": [{"id": "52e81612bcbc57f1066b79ed", "name": "Outdoor Sculpture", "pluralName": "Outdoor Sculptures", "shortName": "Outdoor Sculpture", "icon": {"prefix": "https://ss3.4sqi.net/img/categories_v2/parks_outdoors/sculpture_", "suffix": ".png"}, "primary": true}], "photos": {"count": 0, "groups": []}}, "referralId": "e-0-4e01ea4788776240d3f64f64-9"}, {"reasons": {"count": 0, "items": [{"summary": "This spot is popular", "type": "general", "reasonName": "globalInteractionReason"}]}, "venue": {"id": "5165c9d2e4b08d17cf94e0b5", "name": "Pole People Shoreditch Studio", "location": {"lat": 51.52290438201886, "lng": -0.0796471253688412, "labeledLatLngs": [{"label": "display", "lat": 51.52290438201886, "lng": -0.0796471253688412}], "distance": 90, "cc": "GB", "country": "United Kingdom", "formattedAddress": ["United Kingdom"]}, "categories": [{"id": "4bf58dd8d48988d134941735", "name": "Dance Studio", "pluralName": "Dance Studios", "shortName": "Dance Studio", "icon": {"prefix": "https://ss3.4sqi.net/img/categories_v2/arts_entertainment/performingarts_dancestudio_", "suffix": ".png"}, "primary": true}], "photos": {"count": 0, "groups": []}}, "referralId": "e-0-5165c9d2e4b08d17cf94e0b5-10"}, {"reasons": {"count": 0, "items": [{"summary": "This spot is popular", "type": "general", "reasonName": "globalInteractionReason"}]}, "venue": {"id": "58f6612a286fda6822078471", "name": "Shoreditch Art Wall", "location": {"address": "Great Eastern St", "lat": 51.52332, "lng": -0.07851295, "labeledLatLngs": [{"label": "display", "lat": 51.52332, "lng": -0.07851295}], "distance": 161, "postalCode": "EC2A 3NT", "cc": "GB", "neighborhood": "Shoreditch", "city": "London", "state": "Greater London", "country": "United Kingdom", "formattedAddress": ["Great Eastern St", "London", "Greater London", "EC2A 3NT", "United Kingdom"]}, "categories": [{"id": "52e81612bcbc57f1066b79ee", "name": "Street Art", "pluralName": "Street Art Installations", "shortName": "Street Art", "icon": {"prefix": "https://ss3.4sqi.net/img/categories_v2/arts_entertainment/default_", "suffix": ".png"}, "primary": true}], "photos": {"count": 0, "groups": []}}, "referralId": "e-0-58f6612a286fda6822078471-11"}, {"reasons": {"count": 0, "items": [{"summary": "This spot is popular", "type": "general", "reasonName": "globalInteractionReason"}]}, "venue": {"id": "4c191dc798f4a593e096fff5", "name": "Nicholls & Clarke", "location": {"address": "3-10 Shoreditch High St", "lat": 51.52168855259369, "lng": -0.0787882602251975, "labeledLatLngs": [{"label": "display", "lat": 51.52168855259369, "lng": -0.0787882602251975}], "distance": 80, "postalCode": "E1 6PG", "cc": "GB", "city": "London", "state": "Greater London", "country": "United Kingdom", "formattedAddress": ["3-10 Shoreditch High St", "London", "Greater London", "E1 6PG", "United Kingdom"]}, "categories": [{"id": "4bf58dd8d48988d1e2931735", "name": "Art Gallery", "pluralName": "Art Galleries", "shortName": "Art Gallery", "icon": {"prefix": "https://ss3.4sqi.net/img/categories_v2/arts_entertainment/artgallery_", "suffix": ".png"}, "primary": true}], "photos": {"count": 0, "groups": []}}, "referralId": "e-0-4c191dc798f4a593e096fff5-12"}, {"reasons": {"count": 0, "items": [{"summary": "This spot is popular", "type": "general", "reasonName": "globalInteractionReason"}]}, "venue": {"id": "58bfd3b6dfa6ff12ad4a9e51", "name": "Headliner Entertainment", "location": {"address": "14-22 Elder St", "lat": 51.5215092, "lng": -0.0769072, "labeledLatLngs": [{"label": "display", "lat": 51.5215092, "lng": -0.0769072}], "distance": 207, "postalCode": "E1 6BT", "cc": "GB", "city": "London", "state": "Greater London", "country": "United Kingdom", "formattedAddress": ["14-22 Elder St", "London", "Greater London", "E1 6BT", "United Kingdom"]}, "categories": [{"id": "4bf58dd8d48988d137941735", "name": "Theater", "pluralName": "Theaters", "shortName": "Theater", "icon": {"prefix": "https://ss3.4sqi.net/img/categories_v2/arts_entertainment/performingarts_theater_", "suffix": ".png"}, "primary": true}], "photos": {"count": 0, "groups": []}, "venuePage": {"id": "407686207"}}, "referralId": "e-0-58bfd3b6dfa6ff12ad4a9e51-13"}, {"reasons": {"count": 0, "items": [{"summary": "This spot is popular", "type": "general", "reasonName": "globalInteractionReason"}]}, "venue": {"id": "5dfa8b22d382100007e998b2", "name": "Junkyard Golf", "location": {"lat": 51.52183, "lng": -0.08291546, "labeledLatLngs": [{"label": "display", "lat": 51.52183, "lng": -0.08291546}], "distance": 221, "postalCode": "EC2A 2EZ", "cc": "GB", "country": "United Kingdom", "formattedAddress": ["EC2A 2EZ", "United Kingdom"]}, "categories": [{"id": "52e81612bcbc57f1066b79eb", "name": "Mini Golf", "pluralName": "Mini Golf Courses", "shortName": "Mini Golf", "icon": {"prefix": "https://ss3.4sqi.net/img/categories_v2/parks_outdoors/golfcourse_", "suffix": ".png"}, "primary": true}], "photos": {"count": 0, "groups": []}}, "referralId": "e-0-5dfa8b22d382100007e998b2-14"}, {"reasons": {"count": 0, "items": [{"summary": "This spot is popular", "type": "general", "reasonName": "globalInteractionReason"}]}, "venue": {"id": "4ea7f2ff6c25a76b7ce5c33d", "name": "Blackall Studios", "location": {"address": "73 Leonard St", "lat": 51.52475206735155, "lng": -0.08301289185574491, "labeledLatLngs": [{"label": "display", "lat": 51.52475206735155, "lng": -0.08301289185574491}], "distance": 372, "cc": "GB", "city": "Hackney", "state": "Greater London", "country": "United Kingdom", "formattedAddress": ["73 Leonard St", "Hackney", "Greater London", "United Kingdom"]}, "categories": [{"id": "4bf58dd8d48988d1e2931735", "name": "Art Gallery", "pluralName": "Art Galleries", "shortName": "Art Gallery", "icon": {"prefix": "https://ss3.4sqi.net/img/categories_v2/arts_entertainment/artgallery_", "suffix": ".png"}, "primary": true}], "photos": {"count": 0, "groups": []}}, "referralId": "e-0-4ea7f2ff6c25a76b7ce5c33d-15"}, {"reasons": {"count": 0, "items": [{"summary": "This spot is popular", "type": "general", "reasonName": "globalInteractionReason"}]}, "venue": {"id": "4fbeafe6e4b01b86c414b11e", "name": "Rooftop Film Club", "location": {"address": "1 Curtain Road", "lat": 51.522143505020665, "lng": -0.08121159500432398, "labeledLatLngs": [{"label": "display", "lat": 51.522143505020665, "lng": -0.08121159500432398}], "distance": 101, "cc": "GB", "city": "London", "state": "Greater London", "country": "United Kingdom", "formattedAddress": ["1 Curtain Road", "London", "Greater London", "United Kingdom"]}, "categories": [{"id": "4bf58dd8d48988d17e941735", "name": "Indie Movie Theater", "pluralName": "Indie Movie Theaters", "shortName": "Indie Movies", "icon": {"prefix": "https://ss3.4sqi.net/img/categories_v2/arts_entertainment/movietheater_", "suffix": ".png"}, "primary": true}], "photos": {"count": 0, "groups": []}}, "referralId": "e-0-4fbeafe6e4b01b86c414b11e-16"}, {"reasons": {"count": 0, "items": [{"summary": "This spot is popular", "type": "general", "reasonName": "globalInteractionReason"}]}, "venue": {"id": "4e7c9d848998971354f566b3", "name": "Epio HQ", "location": {"address": "32-38 Scrutton St", "lat": 51.52321846829664, "lng": -0.0818206994558742, "labeledLatLngs": [{"label": "display", "lat": 51.52321846829664, "lng": -0.0818206994558742}], "distance": 190, "postalCode": "EC2A  4R", "cc": "GB", "city": "Hackney", "state": "Greater London", "country": "United Kingdom", "formattedAddress": ["32-38 Scrutton St", "Hackney", "Greater London", "EC2A  4R", "United Kingdom"]}, "categories": [{"id": "4bf58dd8d48988d191941735", "name": "Science Museum", "pluralName": "Science Museums", "shortName": "Science Museum", "icon": {"prefix": "https://ss3.4sqi.net/img/categories_v2/arts_entertainment/museum_science_", "suffix": ".png"}, "primary": true}], "photos": {"count": 0, "groups": []}}, "referralId": "e-0-4e7c9d848998971354f566b3-17"}, {"reasons": {"count": 0, "items": [{"summary": "This spot is popular", "type": "general", "reasonName": "globalInteractionReason"}]}, "venue": {"id": "4ae6ce23f964a5204ea721e3", "name": "Idea Generation gallery", "location": {"address": "11 Chance street", "lat": 51.524439265643466, "lng": -0.07543804130701075, "labeledLatLngs": [{"label": "display", "lat": 51.524439265643466, "lng": -0.07543804130701075}], "distance": 396, "cc": "GB", "city": "London", "state": "Greater London", "country": "United Kingdom", "formattedAddress": ["11 Chance street", "London", "Greater London", "United Kingdom"]}, "categories": [{"id": "4bf58dd8d48988d1e2931735", "name": "Art Gallery", "pluralName": "Art Galleries", "shortName": "Art Gallery", "icon": {"prefix": "https://ss3.4sqi.net/img/categories_v2/arts_entertainment/artgallery_", "suffix": ".png"}, "primary": true}], "photos": {"count": 0, "groups": []}}, "referralId": "e-0-4ae6ce23f964a5204ea721e3-18"}, {"reasons": {"count": 0, "items": [{"summary": "This spot is popular", "type": "general", "reasonName": "globalInteractionReason"}]}, "venue": {"id": "4eaa99306c250fcc7439050a", "name": "ICN Gallery", "location": {"address": "96-98 Leonard Street", "lat": 51.52481925096546, "lng": -0.08164428566408995, "labeledLatLngs": [{"label": "display", "lat": 51.52481925096546, "lng": -0.08164428566408995}], "distance": 330, "postalCode": "EC2A 4RH", "cc": "GB", "city": "London", "state": "Greater London", "country": "United Kingdom", "formattedAddress": ["96-98 Leonard Street", "London", "Greater London", "EC2A 4RH", "United Kingdom"]}, "categories": [{"id": "4bf58dd8d48988d1e2931735", "name": "Art Gallery", "pluralName": "Art Galleries", "shortName": "Art Gallery", "icon": {"prefix": "https://ss3.4sqi.net/img/categories_v2/arts_entertainment/artgallery_", "suffix": ".png"}, "primary": true}], "photos": {"count": 0, "groups": []}}, "referralId": "e-0-4eaa99306c250fcc7439050a-19"}]}]}}