{"meta": {"code": 200, "requestId": "5feddaeb78a7474f016bdb84"}, "response": {"suggestedFilters": {"header": "Tap to show:", "filters": [{"name": "Open now", "key": "openNow"}]}, "headerLocation": "Shepherd's Bush", "headerFullLocation": "Shepherd's Bush, London", "headerLocationGranularity": "neighborhood", "query": "food", "totalResults": 17, "suggestedBounds": {"ne": {"lat": 51.51358500360001, "lng": -0.22032853019724682}, "sw": {"lat": 51.506384996399994, "lng": -0.23187546980275317}}, "groups": [{"type": "Recommended Places", "name": "recommended", "items": [{"reasons": {"count": 0, "items": [{"summary": "This spot is popular", "type": "general", "reasonName": "globalInteractionReason"}]}, "venue": {"id": "5b295077da7080002c9ad57f", "name": "Kricket", "location": {"address": "2 Television Centre", "crossStreet": "101 Wood Ln", "lat": 51.51051323413701, "lng": -0.22534847259521482, "labeledLatLngs": [{"label": "display", "lat": 51.51051323413701, "lng": -0.22534847259521482}], "distance": 78, "postalCode": "W12 7FR", "cc": "GB", "city": "Shepherds Bush", "state": "Greater London", "country": "United Kingdom", "formattedAddress": ["2 Television Centre (101 Wood Ln)", "Shepherds Bush", "Greater London", "W12 7FR", "United Kingdom"]}, "categories": [{"id": "4bf58dd8d48988d10f941735", "name": "Indian Restaurant", "pluralName": "Indian Restaurants", "shortName": "Indian", "icon": {"prefix": "https://ss3.4sqi.net/img/categories_v2/food/indian_", "suffix": ".png"}, "primary": true}], "photos": {"count": 0, "groups": []}}, "referralId": "e-0-5b295077da7080002c9ad57f-0"}, {"reasons": {"count": 0, "items": [{"summary": "This spot is popular", "type": "general", "reasonName": "globalInteractionReason"}]}, "venue": {"id": "5c81bdca018cbb0039a8e9c1", "name": "Endo at the Rotunda", "location": {"address": "101 Wood Lane", "lat": 51.510559, "lng": -0.225979, "labeledLatLngs": [{"label": "display", "lat": 51.510559, "lng": -0.225979}], "distance": 64, "postalCode": "W12 7FA", "cc": "GB", "city": "London", "state": "Greater London", "country": "United Kingdom", "formattedAddress": ["101 Wood Lane", "London", "Greater London", "W12 7FA", "United Kingdom"]}, "categories": [{"id": "4bf58dd8d48988d111941735", "name": "Japanese Restaurant", "pluralName": "Japanese Restaurants", "shortName": "Japanese", "icon": {"prefix": "https://ss3.4sqi.net/img/categories_v2/food/japanese_", "suffix": ".png"}, "primary": true}], "photos": {"count": 0, "groups": []}}, "referralId": "e-0-5c81bdca018cbb0039a8e9c1-1"}, {"reasons": {"count": 0, "items": [{"summary": "This spot is popular", "type": "general", "reasonName": "globalInteractionReason"}]}, "venue": {"id": "5abba8e951950e4f65125a79", "name": "Ole & Steen", "location": {"address": "Westfield White City, Ariel Way, Unit Su1203", "lat": 51.509559, "lng": -0.221753, "labeledLatLngs": [{"label": "display", "lat": 51.509559, "lng": -0.221753}], "distance": 305, "postalCode": "W12 7HT", "cc": "GB", "city": "London", "state": "Greater London", "country": "United Kingdom", "formattedAddress": ["Westfield White City, Ariel Way, Unit Su1203", "London", "Greater London", "W12 7HT", "United Kingdom"]}, "categories": [{"id": "4bf58dd8d48988d16a941735", "name": "Bakery", "pluralName": "Bakeries", "shortName": "Bakery", "icon": {"prefix": "https://ss3.4sqi.net/img/categories_v2/food/bakery_", "suffix": ".png"}, "primary": true}], "photos": {"count": 0, "groups": []}}, "referralId": "e-0-5abba8e951950e4f65125a79-2"}, {"reasons": {"count": 0, "items": [{"summary": "This spot is popular", "type": "general", "reasonName": "globalInteractionReason"}]}, "venue": {"id": "5ad882cfe7a2375b94dfad73", "name": "Homeslice", "location": {"address": "2 Television Centre", "crossStreet": "101 Wood Ln", "lat": 51.51073, "lng": -0.226171, "labeledLatLngs": [{"label": "display", "lat": 51.51073, "lng": -0.226171}], "distance": 83, "postalCode": "W12 7FR", "cc": "GB", "city": "Shepherds Bush", "state": "Greater London", "country": "United Kingdom", "formattedAddress": ["2 Television Centre (101 Wood Ln)", "Shepherds Bush", "Greater London", "W12 7FR", "United Kingdom"]}, "categories": [{"id": "4bf58dd8d48988d1ca941735", "name": "Pizza Place", "pluralName": "Pizza Places", "shortName": "Pizza", "icon": {"prefix": "https://ss3.4sqi.net/img/categories_v2/food/pizza_", "suffix": ".png"}, "primary": true}], "photos": {"count": 0, "groups": []}}, "referralId": "e-0-5ad882cfe7a2375b94dfad73-3"}, {"reasons": {"count": 0, "items": [{"summary": "This spot is popular", "type": "general", "reasonName": "globalInteractionReason"}]}, "venue": {"id": "5adf1e03a89b5a6e33755fdf", "name": "The Allis", "location": {"address": "Television Centre", "crossStreet": "101 Wood Ln", "lat": 51.510526, "lng": -0.226252, "labeledLatLngs": [{"label": "display", "lat": 51.510526, "lng": -0.226252}], "distance": 61, "postalCode": "W12 7FS", "cc": "GB", "city": "Shepherds Bush", "state": "Greater London", "country": "United Kingdom", "formattedAddress": ["Television Centre (101 Wood Ln)", "Shepherds Bush", "Greater London", "W12 7FS", "United Kingdom"]}, "categories": [{"id": "4bf58dd8d48988d157941735", "name": "New American Restaurant", "pluralName": "New American Restaurants", "shortName": "New American", "icon": {"prefix": "https://ss3.4sqi.net/img/categories_v2/food/newamerican_", "suffix": ".png"}, "primary": true}], "photos": {"count": 0, "groups": []}}, "referralId": "e-0-5adf1e03a89b5a6e33755fdf-4"}, {"reasons": {"count": 0, "items": [{"summary": "This spot is popular", "type": "general", "reasonName": "globalInteractionReason"}]}, "venue": {"id": "4bacc707f964a520720b3be3", "name": "Byron", "location": {"address": "Ariel Way", "crossStreet": "The Loft", "lat": 51.5078368, "lng": -0.2217481, "labeledLatLngs": [{"label": "display", "lat": 51.5078368, "lng": -0.2217481}], "distance": 384, "postalCode": "W12 7GF", "cc": "GB", "city": "London", "state": "Greater London", "country": "United Kingdom", "formattedAddress": ["Ariel Way (The Loft)", "London", "Greater London", "W12 7GF", "United Kingdom"]}, "categories": [{"id": "4bf58dd8d48988d16c941735", "name": "Burger Joint", "pluralName": "Burger Joints", "shortName": "Burgers", "icon": {"prefix": "https://ss3.4sqi.net/img/categories_v2/food/burger_", "suffix": ".png"}, "primary": true}], "photos": {"count": 0, "groups": []}}, "referralId": "e-0-4bacc707f964a520720b3be3-5"}, {"reasons": {"count": 0, "items": [{"summary": "This spot is popular", "type": "general", "reasonName": "globalInteractionReason"}]}, "venue": {"id": "5ac609b46661165c8a87e997", "name": "Bluebird Cafe White City", "location": {"address": "2 Television Centre", "crossStreet": "101 Wood Ln", "lat": 51.51091929664888, "lng": -0.2246725559234619, "labeledLatLngs": [{"label": "display", "lat": 51.51091929664888, "lng": -0.2246725559234619}], "distance": 143, "postalCode": "W12 7RF", "cc": "GB", "city": "Shepherds Bush", "state": "Greater London", "country": "United Kingdom", "formattedAddress": ["2 Television Centre (101 Wood Ln)", "Shepherds Bush", "Greater London", "W12 7RF", "United Kingdom"]}, "categories": [{"id": "52e81612bcbc57f1066b79f9", "name": "Modern European Restaurant", "pluralName": "Modern European Restaurants", "shortName": "Modern European", "icon": {"prefix": "https://ss3.4sqi.net/img/categories_v2/food/default_", "suffix": ".png"}, "primary": true}], "photos": {"count": 0, "groups": []}, "venuePage": {"id": "481119789"}}, "referralId": "e-0-5ac609b46661165c8a87e997-6"}, {"reasons": {"count": 0, "items": [{"summary": "This spot is popular", "type": "general", "reasonName": "globalInteractionReason"}]}, "venue": {"id": "51fff52e498e10c771b25253", "name": "Dunkers & Co", "location": {"address": "Westfield London", "crossStreet": "Ariel Way", "lat": 51.50745649784781, "lng": -0.2232456603443968, "labeledLatLngs": [{"label": "display", "lat": 51.50745649784781, "lng": -0.2232456603443968}], "distance": 344, "postalCode": "W12 7GF", "cc": "GB", "city": "Shepherds Bush", "state": "Greater London", "country": "United Kingdom", "formattedAddress": ["Westfield London (Ariel Way)", "Shepherds Bush", "Greater London", "W12 7GF", "United Kingdom"]}, "categories": [{"id": "52e81612bcbc57f1066b79f2", "name": "Creperie", "pluralName": "Creperies", "shortName": "Creperie", "icon": {"prefix": "https://ss3.4sqi.net/img/categories_v2/food/creperie_", "suffix": ".png"}, "primary": true}], "photos": {"count": 0, "groups": []}}, "referralId": "e-0-51fff52e498e10c771b25253-7"}, {"reasons": {"count": 0, "items": [{"summary": "This spot is popular", "type": "general", "reasonName": "globalInteractionReason"}]}, "venue": {"id": "5442c5ba498ed34e00fe2d09", "name": "L'Orchidee", "location": {"address": "Westfield London", "crossStreet": "Ariel Way", "lat": 51.50827502606943, "lng": -0.2215290069580078, "labeledLatLngs": [{"label": "display", "lat": 51.50827502606943, "lng": -0.2215290069580078}], "distance": 369, "postalCode": "W12 7GF", "cc": "GB", "city": "Shepherds Bush", "state": "Greater London", "country": "United Kingdom", "formattedAddress": ["Westfield London (Ariel Way)", "Shepherds Bush", "Greater London", "W12 7GF", "United Kingdom"]}, "categories": [{"id": "4bf58dd8d48988d16d941735", "name": "Caf\u00e9", "pluralName": "Caf\u00e9s", "shortName": "Caf\u00e9", "icon": {"prefix": "https://ss3.4sqi.net/img/categories_v2/food/cafe_", "suffix": ".png"}, "primary": true}], "photos": {"count": 0, "groups": []}}, "referralId": "e-0-5442c5ba498ed34e00fe2d09-8"}, {"reasons": {"count": 0, "items": [{"summary": "This spot is popular", "type": "general", "reasonName": "globalInteractionReason"}]}, "venue": {"id": "5aeaf8c7628c83002c327c20", "name": "Patty & Bun", "location": {"address": "Unit 8, 2 Television Centre", "crossStreet": "101 Wood Ln", "lat": 51.51079, "lng": -0.226041, "labeledLatLngs": [{"label": "display", "lat": 51.51079, "lng": -0.226041}], "distance": 89, "postalCode": "W12 7FR", "cc": "GB", "city": "London", "state": "Greater London", "country": "United Kingdom", "formattedAddress": ["Unit 8, 2 Television Centre (101 Wood Ln)", "London", "Greater London", "W12 7FR", "United Kingdom"]}, "categories": [{"id": "4bf58dd8d48988d16c941735", "name": "Burger Joint", "pluralName": "Burger Joints", "shortName": "Burgers", "icon": {"prefix": "https://ss3.4sqi.net/img/categories_v2/food/burger_", "suffix": ".png"}, "primary": true}], "photos": {"count": 0, "groups": []}}, "referralId": "e-0-5aeaf8c7628c83002c327c20-9"}, {"reasons": {"count": 0, "items": [{"summary": "This spot is popular", "type": "general", "reasonName": "globalInteractionReason"}]}, "venue": {"id": "4bab97dcf964a52029b73ae3", "name": "Millie's Cookies", "location": {"address": "Westfield London", "crossStreet": "Ariel Way", "lat": 51.507955059969035, "lng": -0.22375155666892377, "labeledLatLngs": [{"label": "display", "lat": 51.507955059969035, "lng": -0.22375155666892377}], "distance": 278, "postalCode": "W12 7GB", "cc": "GB", "city": "Hammersmith", "state": "Greater London", "country": "United Kingdom", "formattedAddress": ["Westfield London (Ariel Way)", "Hammersmith", "Greater London", "W12 7GB", "United Kingdom"]}, "categories": [{"id": "4bf58dd8d48988d16a941735", "name": "Bakery", "pluralName": "Bakeries", "shortName": "Bakery", "icon": {"prefix": "https://ss3.4sqi.net/img/categories_v2/food/bakery_", "suffix": ".png"}, "primary": true}], "photos": {"count": 0, "groups": []}}, "referralId": "e-0-4bab97dcf964a52029b73ae3-10"}, {"reasons": {"count": 0, "items": [{"summary": "This spot is popular", "type": "general", "reasonName": "globalInteractionReason"}]}, "venue": {"id": "4cddaa6fffcf37047e070d82", "name": "Krispy Kreme", "location": {"address": "Westfield London", "crossStreet": "Ariel Way", "lat": 51.50702204758285, "lng": -0.2229925173344473, "labeledLatLngs": [{"label": "display", "lat": 51.50702204758285, "lng": -0.2229925173344473}], "distance": 393, "postalCode": "W12 7GF", "cc": "GB", "city": "Shepherds Bush", "state": "Greater London", "country": "United Kingdom", "formattedAddress": ["Westfield London (Ariel Way)", "Shepherds Bush", "Greater London", "W12 7GF", "United Kingdom"]}, "categories": [{"id": "4bf58dd8d48988d148941735", "name": "Donut Shop", "pluralName": "Donut Shops", "shortName": "Donuts", "icon": {"prefix": "https://ss3.4sqi.net/img/categories_v2/food/donuts_", "suffix": ".png"}, "primary": true}], "photos": {"count": 0, "groups": []}}, "referralId": "e-0-4cddaa6fffcf37047e070d82-11"}, {"reasons": {"count": 0, "items": [{"summary": "This spot is popular", "type": "general", "reasonName": "globalInteractionReason"}]}, "venue": {"id": "5b69d8cf66f3cd002cc9cb3c", "name": "Maple Restaurant And Bar", "location": {"address": "Ariel Way", "crossStreet": "Wood Lane", "lat": 51.509734, "lng": -0.223232, "labeledLatLngs": [{"label": "display", "lat": 51.509734, "lng": -0.223232}], "distance": 200, "postalCode": "W12", "cc": "GB", "city": "London", "state": "Greater London", "country": "United Kingdom", "formattedAddress": ["Ariel Way (Wood Lane)", "London", "Greater London", "W12", "United Kingdom"]}, "categories": [{"id": "4bf58dd8d48988d1c4941735", "name": "Restaurant", "pluralName": "Restaurants", "shortName": "Restaurant", "icon": {"prefix": "https://ss3.4sqi.net/img/categories_v2/food/default_", "suffix": ".png"}, "primary": true}], "photos": {"count": 0, "groups": []}}, "referralId": "e-0-5b69d8cf66f3cd002cc9cb3c-12"}, {"reasons": {"count": 0, "items": [{"summary": "This spot is popular", "type": "general", "reasonName": "globalInteractionReason"}]}, "venue": {"id": "5d89da3d664d980008171ba2", "name": "Prairie Fire At Wood Lane Archways", "location": {"address": "Arches 88/89, Wood Lane Arches", "lat": 51.510242, "lng": -0.22318661, "labeledLatLngs": [{"label": "display", "lat": 51.510242, "lng": -0.22318661}], "distance": 204, "postalCode": "W12 7LH", "cc": "GB", "neighborhood": "Shepherd\u2019s Bush", "city": "London", "state": "Greater London", "country": "United Kingdom", "formattedAddress": ["Arches 88/89, Wood Lane Arches", "London", "Greater London", "W12 7LH", "United Kingdom"]}, "categories": [{"id": "4bf58dd8d48988d1df931735", "name": "BBQ Joint", "pluralName": "BBQ Joints", "shortName": "BBQ", "icon": {"prefix": "https://ss3.4sqi.net/img/categories_v2/food/bbqalt_", "suffix": ".png"}, "primary": true}], "photos": {"count": 0, "groups": []}}, "referralId": "e-0-5d89da3d664d980008171ba2-13"}, {"reasons": {"count": 0, "items": [{"summary": "This spot is popular", "type": "general", "reasonName": "globalInteractionReason"}]}, "venue": {"id": "5ab297b60868a22708930bd1", "name": "The Place to Eat", "location": {"address": "Ariel Way", "lat": 51.509849, "lng": -0.223044, "labeledLatLngs": [{"label": "display", "lat": 51.509849, "lng": -0.223044}], "distance": 212, "postalCode": "W12", "cc": "GB", "city": "London", "state": "Greater London", "country": "United Kingdom", "formattedAddress": ["Ariel Way", "London", "Greater London", "W12", "United Kingdom"]}, "categories": [{"id": "4bf58dd8d48988d16d941735", "name": "Caf\u00e9", "pluralName": "Caf\u00e9s", "shortName": "Caf\u00e9", "icon": {"prefix": "https://ss3.4sqi.net/img/categories_v2/food/cafe_", "suffix": ".png"}, "primary": true}], "photos": {"count": 0, "groups": []}}, "referralId": "e-0-5ab297b60868a22708930bd1-14"}, {"reasons": {"count": 0, "items": [{"summary": "This spot is popular", "type": "general", "reasonName": "globalInteractionReason"}]}, "venue": {"id": "4b25170df964a520256c24e3", "name": "Burger King", "location": {"address": "Westfield London Shopping Centre, Unit P0202", "crossStreet": "Ariel Way", "lat": 51.50784600805122, "lng": -0.22408966137695163, "labeledLatLngs": [{"label": "display", "lat": 51.50784600805122, "lng": -0.22408966137695163}], "distance": 275, "postalCode": "W12 7SL", "cc": "GB", "city": "London", "state": "Greater London", "country": "United Kingdom", "formattedAddress": ["Westfield London Shopping Centre, Unit P0202 (Ariel Way)", "London", "Greater London", "W12 7SL", "United Kingdom"]}, "categories": [{"id": "4bf58dd8d48988d16e941735", "name": "Fast Food Restaurant", "pluralName": "Fast Food Restaurants", "shortName": "Fast Food", "icon": {"prefix": "https://ss3.4sqi.net/img/categories_v2/food/fastfood_", "suffix": ".png"}, "primary": true}], "photos": {"count": 0, "groups": []}}, "referralId": "e-0-4b25170df964a520256c24e3-15"}, {"reasons": {"count": 0, "items": [{"summary": "This spot is popular", "type": "general", "reasonName": "globalInteractionReason"}]}, "venue": {"id": "4c2dd706260bc92820941ad3", "name": "Ocean Billy's Fish And Chips", "location": {"lat": 51.51020058156817, "lng": -0.2304987521112897, "labeledLatLngs": [{"label": "display", "lat": 51.51020058156817, "lng": -0.2304987521112897}], "distance": 305, "cc": "GB", "country": "United Kingdom", "formattedAddress": ["United Kingdom"]}, "categories": [{"id": "4bf58dd8d48988d16e941735", "name": "Fast Food Restaurant", "pluralName": "Fast Food Restaurants", "shortName": "Fast Food", "icon": {"prefix": "https://ss3.4sqi.net/img/categories_v2/food/fastfood_", "suffix": ".png"}, "primary": true}], "photos": {"count": 0, "groups": []}}, "referralId": "e-0-4c2dd706260bc92820941ad3-16"}]}]}}