{"meta": {"code": 200, "requestId": "5fedd9c99d303e30fe86ebc7"}, "response": {"suggestedFilters": {"header": "Tap to show:", "filters": [{"name": "Open now", "key": "openNow"}]}, "headerLocation": "Childs Hill", "headerFullLocation": "Childs Hill, London", "headerLocationGranularity": "neighborhood", "query": "college education", "totalResults": 11, "suggestedBounds": {"ne": {"lat": 51.568600003600004, "lng": -0.19521954729131616}, "sw": {"lat": 51.56139999639999, "lng": -0.20678045270868387}}, "groups": [{"type": "Recommended Places", "name": "recommended", "items": [{"reasons": {"count": 0, "items": [{"summary": "This spot is popular", "type": "general", "reasonName": "globalInteractionReason"}]}, "venue": {"id": "5a5cbe7b65cdf82a55fddc4f", "name": "Co-Op", "location": {"address": "713 Finchley Rd", "lat": 51.56312, "lng": -0.19729356, "labeledLatLngs": [{"label": "display", "lat": 51.56312, "lng": -0.19729356}], "distance": 331, "postalCode": "NW11 2JN", "cc": "GB", "city": "Childs Hill", "state": "Greater London", "country": "United Kingdom", "formattedAddress": ["713 Finchley Rd", "Childs Hill", "Greater London", "NW11 2JN", "United Kingdom"]}, "categories": [{"id": "4bf58dd8d48988d118951735", "name": "Grocery Store", "pluralName": "Grocery Stores", "shortName": "Grocery Store", "icon": {"prefix": "https://ss3.4sqi.net/img/categories_v2/shops/food_grocery_", "suffix": ".png"}, "primary": true}], "photos": {"count": 0, "groups": []}}, "referralId": "e-0-5a5cbe7b65cdf82a55fddc4f-0"}, {"reasons": {"count": 0, "items": [{"summary": "This spot is popular", "type": "general", "reasonName": "globalInteractionReason"}]}, "venue": {"id": "597090bc0fe7a019d04f44b9", "name": "Jessica Beecham", "location": {"address": "45 Garth Road", "lat": 51.5646996, "lng": -0.20212270000001809, "labeledLatLngs": [{"label": "display", "lat": 51.5646996, "lng": -0.20212270000001809}], "distance": 84, "postalCode": "NW2 2NH", "cc": "GB", "city": "London", "state": "Greater London", "country": "United Kingdom", "formattedAddress": ["45 Garth Road", "London", "Greater London", "NW2 2NH", "United Kingdom"]}, "categories": [{"id": "4bf58dd8d48988d107951735", "name": "Shoe Store", "pluralName": "Shoe Stores", "shortName": "Shoes", "icon": {"prefix": "https://ss3.4sqi.net/img/categories_v2/shops/apparel_shoestore_", "suffix": ".png"}, "primary": true}], "photos": {"count": 0, "groups": []}}, "referralId": "e-0-597090bc0fe7a019d04f44b9-1"}, {"reasons": {"count": 0, "items": [{"summary": "This spot is popular", "type": "general", "reasonName": "globalInteractionReason"}]}, "venue": {"id": "56eb9f57cd10c4efe039cd36", "name": "Local Roofing & Building Experts", "location": {"address": "Flat 100, Longberrys, Cricklewood Lane", "lat": 51.56317901658697, "lng": -0.201197016781407, "labeledLatLngs": [{"label": "display", "lat": 51.56317901658697, "lng": -0.201197016781407}], "distance": 203, "postalCode": "NW2 2TG", "cc": "GB", "city": "City of London", "state": "Greater London", "country": "United Kingdom", "formattedAddress": ["Flat 100, Longberrys, Cricklewood Lane", "City of London", "Greater London", "NW2 2TG", "United Kingdom"]}, "categories": [{"id": "5454144b498ec1f095bff2f2", "name": "Construction & Landscaping", "pluralName": "Construction & Landscaping", "shortName": "Construction", "icon": {"prefix": "https://ss3.4sqi.net/img/categories_v2/shops/realestate_", "suffix": ".png"}, "primary": true}], "photos": {"count": 0, "groups": []}}, "referralId": "e-0-56eb9f57cd10c4efe039cd36-2"}, {"reasons": {"count": 0, "items": [{"summary": "This spot is popular", "type": "general", "reasonName": "globalInteractionReason"}]}, "venue": {"id": "52401bac498e94f12a7c5ad3", "name": "Pen Heaven", "location": {"address": "165 Granville Rd", "crossStreet": "Unit 1 Hawthorn Business Park", "lat": 51.566579, "lng": -0.202674, "labeledLatLngs": [{"label": "display", "lat": 51.566579, "lng": -0.202674}], "distance": 210, "postalCode": "NW2 2AZ", "cc": "GB", "city": "London", "state": "Greater London", "country": "United Kingdom", "formattedAddress": ["165 Granville Rd (Unit 1 Hawthorn Business Park)", "London", "Greater London", "NW2 2AZ", "United Kingdom"]}, "categories": [{"id": "4bf58dd8d48988d121951735", "name": "Paper / Office Supplies Store", "pluralName": "Paper / Office Supplies Stores", "shortName": "Office Supplies", "icon": {"prefix": "https://ss3.4sqi.net/img/categories_v2/shops/papergoods_", "suffix": ".png"}, "primary": true}], "photos": {"count": 0, "groups": []}}, "referralId": "e-0-52401bac498e94f12a7c5ad3-3"}, {"reasons": {"count": 0, "items": [{"summary": "This spot is popular", "type": "general", "reasonName": "globalInteractionReason"}]}, "venue": {"id": "5d97a020c674d9000816005b", "name": "Aura London Jewels", "location": {"address": "13 Cloister Road", "lat": 51.563599075988115, "lng": -0.20311832427978516, "labeledLatLngs": [{"label": "display", "lat": 51.563599075988115, "lng": -0.20311832427978516}], "distance": 214, "postalCode": "NW2 2NN", "cc": "GB", "city": "London", "state": "Greater London", "country": "United Kingdom", "formattedAddress": ["13 Cloister Road", "London", "Greater London", "NW2 2NN", "United Kingdom"]}, "categories": [{"id": "4bf58dd8d48988d111951735", "name": "Jewelry Store", "pluralName": "Jewelry Stores", "shortName": "Jewelry", "icon": {"prefix": "https://ss3.4sqi.net/img/categories_v2/shops/jewelry_", "suffix": ".png"}, "primary": true}], "photos": {"count": 0, "groups": []}}, "referralId": "e-0-5d97a020c674d9000816005b-4"}, {"reasons": {"count": 0, "items": [{"summary": "This spot is popular", "type": "general", "reasonName": "globalInteractionReason"}]}, "venue": {"id": "5cde69dd31ac6c002c62c240", "name": "Classified Ads Quick Market UK", "location": {"address": "Cloister Road", "crossStreet": "13", "lat": 51.5633856504258, "lng": -0.20378351211547852, "labeledLatLngs": [{"label": "display", "lat": 51.5633856504258, "lng": -0.20378351211547852}], "distance": 263, "postalCode": "NW2 2NN", "cc": "GB", "city": "London", "state": "Greater London", "country": "United Kingdom", "formattedAddress": ["Cloister Road (13)", "London", "Greater London", "NW2 2NN", "United Kingdom"]}, "categories": [{"id": "5453de49498eade8af355881", "name": "Business Service", "pluralName": "Business Services", "shortName": "Business Services", "icon": {"prefix": "https://ss3.4sqi.net/img/categories_v2/building/default_", "suffix": ".png"}, "primary": true}], "photos": {"count": 0, "groups": []}}, "referralId": "e-0-5cde69dd31ac6c002c62c240-5"}, {"reasons": {"count": 0, "items": [{"summary": "This spot is popular", "type": "general", "reasonName": "globalInteractionReason"}]}, "venue": {"id": "5d0e8f49de9445002f01e81b", "name": "Quick Market", "location": {"address": "Cloister Road 13", "lat": 51.56330561558169, "lng": -0.20369768142700195, "labeledLatLngs": [{"label": "display", "lat": 51.56330561558169, "lng": -0.20369768142700195}], "distance": 265, "postalCode": "NW2 2NN", "cc": "GB", "city": "London", "state": "Greater London", "country": "United Kingdom", "formattedAddress": ["Cloister Road 13", "London", "Greater London", "NW2 2NN", "United Kingdom"]}, "categories": [{"id": "5453de49498eade8af355881", "name": "Business Service", "pluralName": "Business Services", "shortName": "Business Services", "icon": {"prefix": "https://ss3.4sqi.net/img/categories_v2/building/default_", "suffix": ".png"}, "primary": true}], "photos": {"count": 0, "groups": []}}, "referralId": "e-0-5d0e8f49de9445002f01e81b-6"}, {"reasons": {"count": 0, "items": [{"summary": "This spot is popular", "type": "general", "reasonName": "globalInteractionReason"}]}, "venue": {"id": "5b3b849460255e002c33fee7", "name": "LaunderAct", "location": {"address": "293 Cricklewood Ln", "lat": 51.563158, "lng": -0.197996, "labeledLatLngs": [{"label": "display", "lat": 51.563158, "lng": -0.197996}], "distance": 291, "postalCode": "NW2 2JL", "cc": "GB", "city": "London", "state": "Greater London", "country": "United Kingdom", "formattedAddress": ["293 Cricklewood Ln", "London", "Greater London", "NW2 2JL", "United Kingdom"]}, "categories": [{"id": "52f2ab2ebcbc57f1066b8b1d", "name": "Dry Cleaner", "pluralName": "Dry Cleaners", "shortName": "Dry Cleaner", "icon": {"prefix": "https://ss3.4sqi.net/img/categories_v2/shops/drycleaner_", "suffix": ".png"}, "primary": true}], "photos": {"count": 0, "groups": []}}, "referralId": "e-0-5b3b849460255e002c33fee7-7"}, {"reasons": {"count": 0, "items": [{"summary": "This spot is popular", "type": "general", "reasonName": "globalInteractionReason"}]}, "venue": {"id": "5e14c673b104f500080d5738", "name": "Castle Pharmacy", "location": {"address": "364", "crossStreet": "Cricklewood Lane", "lat": 51.563062, "lng": -0.197895, "labeledLatLngs": [{"label": "display", "lat": 51.563062, "lng": -0.197895}], "distance": 304, "postalCode": "NW2 2JL", "cc": "GB", "city": "London", "state": "Greater London", "country": "United Kingdom", "formattedAddress": ["364 (Cricklewood Lane)", "London", "Greater London", "NW2 2JL", "United Kingdom"]}, "categories": [{"id": "4bf58dd8d48988d10f951735", "name": "Pharmacy", "pluralName": "Pharmacies", "shortName": "Pharmacy", "icon": {"prefix": "https://ss3.4sqi.net/img/categories_v2/shops/pharmacy_", "suffix": ".png"}, "primary": true}], "photos": {"count": 0, "groups": []}}, "referralId": "e-0-5e14c673b104f500080d5738-8"}, {"reasons": {"count": 0, "items": [{"summary": "This spot is popular", "type": "general", "reasonName": "globalInteractionReason"}]}, "venue": {"id": "5c1a3963c8b2fb003989c911", "name": "Dr Phil Pocock, Clinical Psychologist", "location": {"address": "98 Crawford St, Marylebone", "lat": 51.565119704124186, "lng": -0.2063584327697754, "labeledLatLngs": [{"label": "display", "lat": 51.565119704124186, "lng": -0.2063584327697754}], "distance": 371, "postalCode": "W1H 2HL", "cc": "GB", "city": "London", "state": "Greater London", "country": "United Kingdom", "formattedAddress": ["98 Crawford St, Marylebone", "London", "Greater London", "W1H 2HL", "United Kingdom"]}, "categories": [{"id": "52f2ab2ebcbc57f1066b8b3c", "name": "Massage Studio", "pluralName": "Massage Studios", "shortName": "Massage Studio", "icon": {"prefix": "https://ss3.4sqi.net/img/categories_v2/shops/spa_", "suffix": ".png"}, "primary": true}], "photos": {"count": 0, "groups": []}}, "referralId": "e-0-5c1a3963c8b2fb003989c911-9"}, {"reasons": {"count": 0, "items": [{"summary": "This spot is popular", "type": "general", "reasonName": "globalInteractionReason"}]}, "venue": {"id": "55adf73b498efe1245e32fb0", "name": "Danny Hair & Beauty", "location": {"address": "446", "crossStreet": "Frinchley Road", "lat": 51.56259676868674, "lng": -0.19692553074231245, "labeledLatLngs": [{"label": "display", "lat": 51.56259676868674, "lng": -0.19692553074231245}], "distance": 388, "cc": "GB", "city": "London", "state": "Greater London", "country": "United Kingdom", "formattedAddress": ["446 (Frinchley Road)", "London", "Greater London", "United Kingdom"]}, "categories": [{"id": "54541900498ea6ccd0202697", "name": "Health & Beauty Service", "pluralName": "Health & Beauty Services", "shortName": "Health & Beauty", "icon": {"prefix": "https://ss3.4sqi.net/img/categories_v2/shops/salon_barber_", "suffix": ".png"}, "primary": true}], "photos": {"count": 0, "groups": []}}, "referralId": "e-0-55adf73b498efe1245e32fb0-10"}]}]}}