{"meta": {"code": 200, "requestId": "5feddc928549cf75f71aed1e"}, "response": {"suggestedFilters": {"header": "Tap to show:", "filters": [{"name": "Open now", "key": "openNow"}]}, "headerLocation": "Brunswick Park", "headerFullLocation": "Brunswick Park, London", "headerLocationGranularity": "neighborhood", "query": "college education", "totalResults": 11, "suggestedBounds": {"ne": {"lat": 51.623000003600005, "lng": -0.13602262056362155}, "sw": {"lat": 51.61579999639999, "lng": -0.14759737943637843}}, "groups": [{"type": "Recommended Places", "name": "recommended", "items": [{"reasons": {"count": 0, "items": [{"summary": "This spot is popular", "type": "general", "reasonName": "globalInteractionReason"}]}, "venue": {"id": "4d9f60c60ea841bd4985dbd7", "name": "M&S Simply Food", "location": {"address": "Oakleigh Road South", "lat": 51.6173759, "lng": -0.14168249, "labeledLatLngs": [{"label": "display", "lat": 51.6173759, "lng": -0.14168249}], "distance": 225, "postalCode": "N11 1NH", "cc": "GB", "city": "New Southgate", "state": "Greater London", "country": "United Kingdom", "formattedAddress": ["Oakleigh Road South", "New Southgate", "Greater London", "N11 1NH", "United Kingdom"]}, "categories": [{"id": "4bf58dd8d48988d118951735", "name": "Grocery Store", "pluralName": "Grocery Stores", "shortName": "Grocery Store", "icon": {"prefix": "https://ss3.4sqi.net/img/categories_v2/shops/food_grocery_", "suffix": ".png"}, "primary": true}], "photos": {"count": 0, "groups": []}}, "referralId": "e-0-4d9f60c60ea841bd4985dbd7-0"}, {"reasons": {"count": 0, "items": [{"summary": "This spot is popular", "type": "general", "reasonName": "globalInteractionReason"}]}, "venue": {"id": "587e40a76d349d17a0cabc7f", "name": "Print Market", "location": {"address": "54, Oakleigh Rd South", "lat": 51.61802770000001, "lng": -0.1435579, "labeledLatLngs": [{"label": "display", "lat": 51.61802770000001, "lng": -0.1435579}], "distance": 194, "postalCode": "N11 1LA", "cc": "GB", "city": "London", "country": "United Kingdom", "formattedAddress": ["54, Oakleigh Rd South", "London", "N11 1LA", "United Kingdom"]}, "categories": [{"id": "52f2ab2ebcbc57f1066b8b28", "name": "Print Shop", "pluralName": "Print Shops", "shortName": "Print Shop", "icon": {"prefix": "https://ss3.4sqi.net/img/categories_v2/shops/default_", "suffix": ".png"}, "primary": true}], "photos": {"count": 0, "groups": []}}, "referralId": "e-0-587e40a76d349d17a0cabc7f-1"}, {"reasons": {"count": 0, "items": [{"summary": "This spot is popular", "type": "general", "reasonName": "globalInteractionReason"}]}, "venue": {"id": "5e5e6c965507bb0008969ea7", "name": "Noreen Hally Mobile Beauty Therapist", "location": {"address": "9 Marne Avenue", "lat": 51.619636, "lng": -0.1438925, "labeledLatLngs": [{"label": "display", "lat": 51.619636, "lng": -0.1438925}], "distance": 146, "postalCode": "N11 1JU", "cc": "GB", "city": "London", "state": "Greater London", "country": "United Kingdom", "formattedAddress": ["9 Marne Avenue", "London", "Greater London", "N11 1JU", "United Kingdom"]}, "categories": [{"id": "54541900498ea6ccd0202697", "name": "Health & Beauty Service", "pluralName": "Health & Beauty Services", "shortName": "Health & Beauty", "icon": {"prefix": "https://ss3.4sqi.net/img/categories_v2/shops/salon_barber_", "suffix": ".png"}, "primary": true}], "photos": {"count": 0, "groups": []}}, "referralId": "e-0-5e5e6c965507bb0008969ea7-2"}, {"reasons": {"count": 0, "items": [{"summary": "This spot is popular", "type": "general", "reasonName": "globalInteractionReason"}]}, "venue": {"id": "5a73b7bddab4b1762042c7ea", "name": "Southgate", "location": {"address": "Unit 3, Brunswick Way, Brunswick Industrial Park, Southgate", "lat": 51.620215167839454, "lng": -0.14173746990582003, "labeledLatLngs": [{"label": "display", "lat": 51.620215167839454, "lng": -0.14173746990582003}], "distance": 90, "postalCode": "N11 1JL", "cc": "GB", "city": "London", "state": "Greater London", "country": "United Kingdom", "formattedAddress": ["Unit 3, Brunswick Way, Brunswick Industrial Park, Southgate", "London", "Greater London", "N11 1JL", "United Kingdom"]}, "categories": [{"id": "5454144b498ec1f095bff2f2", "name": "Construction & Landscaping", "pluralName": "Construction & Landscaping", "shortName": "Construction", "icon": {"prefix": "https://ss3.4sqi.net/img/categories_v2/shops/realestate_", "suffix": ".png"}, "primary": true}], "photos": {"count": 0, "groups": []}}, "referralId": "e-0-5a73b7bddab4b1762042c7ea-3"}, {"reasons": {"count": 0, "items": [{"summary": "This spot is popular", "type": "general", "reasonName": "globalInteractionReason"}]}, "venue": {"id": "5d79f91692124800071eb9cb", "name": "Picture Perfect UK", "location": {"address": "6 Lipton Court, 98, Brunswick Park Rd", "lat": 51.62037, "lng": -0.14336, "labeledLatLngs": [{"label": "display", "lat": 51.62037, "lng": -0.14336}], "distance": 152, "postalCode": "N11 1JJ", "cc": "GB", "city": "London", "state": "Greater London", "country": "United Kingdom", "formattedAddress": ["6 Lipton Court, 98, Brunswick Park Rd", "London", "Greater London", "N11 1JJ", "United Kingdom"]}, "categories": [{"id": "5454152e498ef71e2b9132c6", "name": "Event Service", "pluralName": "Event Services", "shortName": "Event Services", "icon": {"prefix": "https://ss3.4sqi.net/img/categories_v2/event/default_", "suffix": ".png"}, "primary": true}], "photos": {"count": 0, "groups": []}}, "referralId": "e-0-5d79f91692124800071eb9cb-4"}, {"reasons": {"count": 0, "items": [{"summary": "This spot is popular", "type": "general", "reasonName": "globalInteractionReason"}]}, "venue": {"id": "5785e4d0498ecea841c2f1f0", "name": "Ian Clegg", "location": {"address": "94 Oakleigh Rd South", "lat": 51.6188639, "lng": -0.144703, "labeledLatLngs": [{"label": "display", "lat": 51.6188639, "lng": -0.144703}], "distance": 208, "postalCode": "N11 1LB", "cc": "GB", "city": "London", "state": "Greater London", "country": "United Kingdom", "formattedAddress": ["94 Oakleigh Rd South", "London", "Greater London", "N11 1LB", "United Kingdom"]}, "categories": [{"id": "5454144b498ec1f095bff2f2", "name": "Construction & Landscaping", "pluralName": "Construction & Landscaping", "shortName": "Construction", "icon": {"prefix": "https://ss3.4sqi.net/img/categories_v2/shops/realestate_", "suffix": ".png"}, "primary": true}], "photos": {"count": 0, "groups": []}}, "referralId": "e-0-5785e4d0498ecea841c2f1f0-5"}, {"reasons": {"count": 0, "items": [{"summary": "This spot is popular", "type": "general", "reasonName": "globalInteractionReason"}]}, "venue": {"id": "4ec3d348cc213c5f1f83df66", "name": "Heath News", "location": {"lat": 51.61706902323909, "lng": -0.14096610506256038, "labeledLatLngs": [{"label": "display", "lat": 51.61706902323909, "lng": -0.14096610506256038}], "distance": 265, "cc": "GB", "country": "United Kingdom", "formattedAddress": ["United Kingdom"]}, "categories": [{"id": "4d954b0ea243a5684a65b473", "name": "Convenience Store", "pluralName": "Convenience Stores", "shortName": "Convenience Store", "icon": {"prefix": "https://ss3.4sqi.net/img/categories_v2/shops/conveniencestore_", "suffix": ".png"}, "primary": true}], "photos": {"count": 0, "groups": []}}, "referralId": "e-0-4ec3d348cc213c5f1f83df66-6"}, {"reasons": {"count": 0, "items": [{"summary": "This spot is popular", "type": "general", "reasonName": "globalInteractionReason"}]}, "venue": {"id": "52d8815411d2b0a48df844b2", "name": "Ruby blu HQ", "location": {"lat": 51.620804361054915, "lng": -0.13855335449772016, "labeledLatLngs": [{"label": "display", "lat": 51.620804361054915, "lng": -0.13855335449772016}], "distance": 274, "cc": "GB", "country": "United Kingdom", "formattedAddress": ["United Kingdom"]}, "categories": [{"id": "4bf58dd8d48988d128951735", "name": "Gift Shop", "pluralName": "Gift Shops", "shortName": "Gift Shop", "icon": {"prefix": "https://ss3.4sqi.net/img/categories_v2/shops/giftshop_", "suffix": ".png"}, "primary": true}], "photos": {"count": 0, "groups": []}}, "referralId": "e-0-52d8815411d2b0a48df844b2-7"}, {"reasons": {"count": 0, "items": [{"summary": "This spot is popular", "type": "general", "reasonName": "globalInteractionReason"}]}, "venue": {"id": "5dee6e56288e8b0008ebf660", "name": "True Dating", "location": {"address": "6 Stateland Court", "crossStreet": "3 Cranbrook Lane", "lat": 51.61668421952579, "lng": -0.14129877090454102, "labeledLatLngs": [{"label": "display", "lat": 51.61668421952579, "lng": -0.14129877090454102}], "distance": 304, "postalCode": "N11 1PH", "cc": "GB", "city": "London", "state": "Greater London", "country": "United Kingdom", "formattedAddress": ["6 Stateland Court (3 Cranbrook Lane)", "London", "Greater London", "N11 1PH", "United Kingdom"]}, "categories": [{"id": "5453de49498eade8af355881", "name": "Business Service", "pluralName": "Business Services", "shortName": "Business Services", "icon": {"prefix": "https://ss3.4sqi.net/img/categories_v2/building/default_", "suffix": ".png"}, "primary": true}], "photos": {"count": 0, "groups": []}}, "referralId": "e-0-5dee6e56288e8b0008ebf660-8"}, {"reasons": {"count": 0, "items": [{"summary": "This spot is popular", "type": "general", "reasonName": "globalInteractionReason"}]}, "venue": {"id": "5160073ae4b003de2d9485db", "name": "Despina's Food Store", "location": {"address": "456-458 Bowes Road, Bowes Park", "lat": 51.6166736945818, "lng": -0.14042360434576956, "labeledLatLngs": [{"label": "display", "lat": 51.6166736945818, "lng": -0.14042360434576956}], "distance": 318, "postalCode": "N11 1NL", "cc": "GB", "city": "London", "state": "Greater London", "country": "United Kingdom", "formattedAddress": ["456-458 Bowes Road, Bowes Park", "London", "Greater London", "N11 1NL", "United Kingdom"]}, "categories": [{"id": "4bf58dd8d48988d118951735", "name": "Grocery Store", "pluralName": "Grocery Stores", "shortName": "Grocery Store", "icon": {"prefix": "https://ss3.4sqi.net/img/categories_v2/shops/food_grocery_", "suffix": ".png"}, "primary": true}], "photos": {"count": 0, "groups": []}}, "referralId": "e-0-5160073ae4b003de2d9485db-9"}, {"reasons": {"count": 0, "items": [{"summary": "This spot is popular", "type": "general", "reasonName": "globalInteractionReason"}]}, "venue": {"id": "54c8c1c5498ec6fa3cf6f393", "name": "Smartbags Boutique", "location": {"address": "Everlast House", "crossStreet": "1 Cranbrook Lane", "lat": 51.616710866494074, "lng": -0.1380157470703125, "labeledLatLngs": [{"label": "display", "lat": 51.616710866494074, "lng": -0.1380157470703125}], "distance": 397, "postalCode": "N11 1PF", "cc": "GB", "city": "London", "state": "Greater London", "country": "United Kingdom", "formattedAddress": ["Everlast House (1 Cranbrook Lane)", "London", "Greater London", "N11 1PF", "United Kingdom"]}, "categories": [{"id": "52f2ab2ebcbc57f1066b8b28", "name": "Print Shop", "pluralName": "Print Shops", "shortName": "Print Shop", "icon": {"prefix": "https://ss3.4sqi.net/img/categories_v2/shops/default_", "suffix": ".png"}, "primary": true}], "photos": {"count": 0, "groups": []}}, "referralId": "e-0-54c8c1c5498ec6fa3cf6f393-10"}]}]}}