{"meta": {"code": 200, "requestId": "5feddcdb02573325d4381dbb"}, "response": {"suggestedFilters": {"header": "Tap to show:", "filters": [{"name": "Open now", "key": "openNow"}]}, "headerLocation": "Romford Town", "headerFullLocation": "Romford Town, London", "headerLocationGranularity": "neighborhood", "query": "college education", "totalResults": 5, "suggestedBounds": {"ne": {"lat": 51.57784000360001, "lng": 0.17876162769719514}, "sw": {"lat": 51.5706399964, "lng": 0.16719837230280485}}, "groups": [{"type": "Recommended Places", "name": "recommended", "items": [{"reasons": {"count": 0, "items": [{"summary": "This spot is popular", "type": "general", "reasonName": "globalInteractionReason"}]}, "venue": {"id": "520dd7f5498e4b63f16c3d3a", "name": "Kwik Fit - Romford", "location": {"address": "83 London Rd", "lat": 51.57452514, "lng": 0.17287524, "labeledLatLngs": [{"label": "display", "lat": 51.57452514, "lng": 0.17287524}], "distance": 32, "postalCode": "RM7 9QU", "cc": "GB", "city": "Romford", "country": "United Kingdom", "formattedAddress": ["83 London Rd", "Romford", "RM7 9QU", "United Kingdom"]}, "categories": [{"id": "52f2ab2ebcbc57f1066b8b44", "name": "Auto Garage", "pluralName": "Auto Garages", "shortName": "Auto Garage", "icon": {"prefix": "https://ss3.4sqi.net/img/categories_v2/shops/automotive_", "suffix": ".png"}, "primary": true}], "photos": {"count": 0, "groups": []}}, "referralId": "e-0-520dd7f5498e4b63f16c3d3a-0"}, {"reasons": {"count": 0, "items": [{"summary": "This spot is popular", "type": "general", "reasonName": "globalInteractionReason"}]}, "venue": {"id": "575fb4bd498ee142d05b88fd", "name": "Cadoo Studios", "location": {"address": "65b, London Rd", "lat": 51.575087, "lng": 0.1750592, "labeledLatLngs": [{"label": "display", "lat": 51.575087, "lng": 0.1750592}], "distance": 171, "postalCode": "RM7 9QA", "cc": "GB", "city": "Essex", "state": "Essex", "country": "United Kingdom", "formattedAddress": ["65b, London Rd", "Essex", "RM7 9QA", "United Kingdom"]}, "categories": [{"id": "5453de49498eade8af355881", "name": "Business Service", "pluralName": "Business Services", "shortName": "Business Services", "icon": {"prefix": "https://ss3.4sqi.net/img/categories_v2/building/default_", "suffix": ".png"}, "primary": true}], "photos": {"count": 0, "groups": []}}, "referralId": "e-0-575fb4bd498ee142d05b88fd-1"}, {"reasons": {"count": 0, "items": [{"summary": "This spot is popular", "type": "general", "reasonName": "globalInteractionReason"}]}, "venue": {"id": "5bc2ffd59de23b002c2b9225", "name": "Direct Link Care Ltd", "location": {"address": "12 Ryan Court", "lat": 51.5744671, "lng": 0.169697300000053, "labeledLatLngs": [{"label": "display", "lat": 51.5744671, "lng": 0.169697300000053}], "distance": 228, "postalCode": "RM7 9QP", "cc": "GB", "city": "Essex", "state": "Essex", "country": "United Kingdom", "formattedAddress": ["12 Ryan Court", "Essex", "RM7 9QP", "United Kingdom"]}, "categories": [{"id": "545419b1498ea6ccd0202f58", "name": "Home Service", "pluralName": "Home Services & Repairs", "shortName": "Home Services", "icon": {"prefix": "https://ss3.4sqi.net/img/categories_v2/shops/hardware_", "suffix": ".png"}, "primary": true}], "photos": {"count": 0, "groups": []}}, "referralId": "e-0-5bc2ffd59de23b002c2b9225-2"}, {"reasons": {"count": 0, "items": [{"summary": "This spot is popular", "type": "general", "reasonName": "globalInteractionReason"}]}, "venue": {"id": "5e180a9d2af59f0008234de3", "name": "Greenflo Gardens & Builds", "location": {"address": "171, Marks Rd", "lat": 51.5768616, "lng": 0.1701093, "labeledLatLngs": [{"label": "display", "lat": 51.5768616, "lng": 0.1701093}], "distance": 353, "postalCode": "RM7 7AF", "cc": "GB", "city": "Romford", "state": "Greater London", "country": "United Kingdom", "formattedAddress": ["171, Marks Rd", "Romford", "Greater London", "RM7 7AF", "United Kingdom"]}, "categories": [{"id": "5454144b498ec1f095bff2f2", "name": "Construction & Landscaping", "pluralName": "Construction & Landscaping", "shortName": "Construction", "icon": {"prefix": "https://ss3.4sqi.net/img/categories_v2/shops/realestate_", "suffix": ".png"}, "primary": true}], "photos": {"count": 0, "groups": []}}, "referralId": "e-0-5e180a9d2af59f0008234de3-3"}, {"reasons": {"count": 0, "items": [{"summary": "This spot is popular", "type": "general", "reasonName": "globalInteractionReason"}]}, "venue": {"id": "5940115686f4cc4a04322879", "name": "Cute Pink Boutique", "location": {"address": "Mildmay Road", "lat": 51.57777629279365, "lng": 0.17225146293640137, "labeledLatLngs": [{"label": "display", "lat": 51.57777629279365, "lng": 0.17225146293640137}], "distance": 396, "postalCode": "RM7 7DD", "cc": "GB", "city": "Romford", "state": "Greater London", "country": "United Kingdom", "formattedAddress": ["Mildmay Road", "Romford", "Greater London", "RM7 7DD", "United Kingdom"]}, "categories": [{"id": "4bf58dd8d48988d108951735", "name": "Women's Store", "pluralName": "Women's Stores", "shortName": "Women's Store", "icon": {"prefix": "https://ss3.4sqi.net/img/categories_v2/shops/apparel_women_", "suffix": ".png"}, "primary": true}], "photos": {"count": 0, "groups": []}}, "referralId": "e-0-5940115686f4cc4a04322879-4"}]}]}}