{"meta": {"code": 200, "requestId": "5fedda45960a06004f4ebc9b"}, "response": {"suggestedFilters": {"header": "Tap to show:", "filters": [{"name": "Open now", "key": "openNow"}]}, "headerLocation": "Lambeth", "headerFullLocation": "Lambeth, London", "headerLocationGranularity": "neighborhood", "query": "travel", "totalResults": 5, "suggestedBounds": {"ne": {"lat": 51.49466400360001, "lng": -0.11650392666271835}, "sw": {"lat": 51.487463996399995, "lng": -0.12804607333728166}}, "groups": [{"type": "Recommended Places", "name": "recommended", "items": [{"reasons": {"count": 0, "items": [{"summary": "This spot is popular", "type": "general", "reasonName": "globalInteractionReason"}]}, "venue": {"id": "537bab8e11d2e93a7774a9eb", "name": "Staybridge Suites London - Vauxhall", "location": {"address": "100 Vauxhall Walk", "lat": 51.48915998308972, "lng": -0.12070252106593671, "labeledLatLngs": [{"label": "display", "lat": 51.48915998308972, "lng": -0.12070252106593671}], "distance": 238, "postalCode": "SE11 5EL", "cc": "GB", "city": "London", "country": "United Kingdom", "formattedAddress": ["100 Vauxhall Walk", "London", "SE11 5EL", "United Kingdom"]}, "categories": [{"id": "4bf58dd8d48988d1fa931735", "name": "Hotel", "pluralName": "Hotels", "shortName": "Hotel", "icon": {"prefix": "https://ss3.4sqi.net/img/categories_v2/travel/hotel_", "suffix": ".png"}, "primary": true}], "photos": {"count": 0, "groups": []}}, "referralId": "e-0-537bab8e11d2e93a7774a9eb-0"}, {"reasons": {"count": 0, "items": [{"summary": "This spot is popular", "type": "general", "reasonName": "globalInteractionReason"}]}, "venue": {"id": "52bcbd6711d2d18d121a7aa8", "name": "Plaza On The River Club And Residence", "location": {"address": "18 Albert Embankment", "lat": 51.491529242107795, "lng": -0.12137142849725611, "labeledLatLngs": [{"label": "display", "lat": 51.491529242107795, "lng": -0.12137142849725611}], "distance": 81, "postalCode": "SE1 7TJ", "cc": "GB", "city": "London", "state": "Greater London", "country": "United Kingdom", "formattedAddress": ["18 Albert Embankment", "London", "Greater London", "SE1 7TJ", "United Kingdom"]}, "categories": [{"id": "4bf58dd8d48988d1fa931735", "name": "Hotel", "pluralName": "Hotels", "shortName": "Hotel", "icon": {"prefix": "https://ss3.4sqi.net/img/categories_v2/travel/hotel_", "suffix": ".png"}, "primary": true}], "photos": {"count": 0, "groups": []}}, "referralId": "e-0-52bcbd6711d2d18d121a7aa8-1"}, {"reasons": {"count": 0, "items": [{"summary": "This spot is popular", "type": "general", "reasonName": "globalInteractionReason"}]}, "venue": {"id": "4bafa216f964a52006123ce3", "name": "Park Plaza London Riverbank", "location": {"address": "18 Albert Embankment, Vauxhall", "lat": 51.491478, "lng": -0.122177, "labeledLatLngs": [{"label": "display", "lat": 51.491478, "lng": -0.122177}], "distance": 46, "postalCode": "SE1 7TJ", "cc": "GB", "city": "London", "state": "Greater London", "country": "United Kingdom", "formattedAddress": ["18 Albert Embankment, Vauxhall", "London", "Greater London", "SE1 7TJ", "United Kingdom"]}, "categories": [{"id": "4bf58dd8d48988d1fa931735", "name": "Hotel", "pluralName": "Hotels", "shortName": "Hotel", "icon": {"prefix": "https://ss3.4sqi.net/img/categories_v2/travel/hotel_", "suffix": ".png"}, "primary": true}], "photos": {"count": 0, "groups": []}}, "referralId": "e-0-4bafa216f964a52006123ce3-2"}, {"reasons": {"count": 0, "items": [{"summary": "This spot is popular", "type": "general", "reasonName": "globalInteractionReason"}]}, "venue": {"id": "5bab1713d807ee003967a4ca", "name": "Crowne Plaza London - Albert Embankment", "location": {"address": "10-11 Albert Embankment", "lat": 51.4917962, "lng": -0.1214779, "labeledLatLngs": [{"label": "display", "lat": 51.4917962, "lng": -0.1214779}], "distance": 98, "postalCode": "SE1 7SP", "cc": "GB", "city": "London", "state": "Greater London", "country": "United Kingdom", "formattedAddress": ["10-11 Albert Embankment", "London", "Greater London", "SE1 7SP", "United Kingdom"]}, "categories": [{"id": "4bf58dd8d48988d1fa931735", "name": "Hotel", "pluralName": "Hotels", "shortName": "Hotel", "icon": {"prefix": "https://ss3.4sqi.net/img/categories_v2/travel/hotel_", "suffix": ".png"}, "primary": true}], "photos": {"count": 0, "groups": []}}, "referralId": "e-0-5bab1713d807ee003967a4ca-3"}, {"reasons": {"count": 0, "items": [{"summary": "This spot is popular", "type": "general", "reasonName": "globalInteractionReason"}]}, "venue": {"id": "4c4577aa8c1f20a13fc73d99", "name": "Milbank Millennium Pier", "location": {"address": "Millbank", "lat": 51.492313230243205, "lng": -0.12724643721186515, "labeledLatLngs": [{"label": "display", "lat": 51.492313230243205, "lng": -0.12724643721186515}], "distance": 371, "postalCode": "SW1P 4RG", "cc": "GB", "city": "London", "state": "Greater London", "country": "United Kingdom", "formattedAddress": ["Millbank", "London", "Greater London", "SW1P 4RG", "United Kingdom"]}, "categories": [{"id": "4e74f6cabd41c4836eac4c31", "name": "Pier", "pluralName": "Piers", "shortName": "Piers", "icon": {"prefix": "https://ss3.4sqi.net/img/categories_v2/travel/ferry_pier_", "suffix": ".png"}, "primary": true}], "photos": {"count": 0, "groups": []}}, "referralId": "e-0-4c4577aa8c1f20a13fc73d99-4"}]}]}}