{"meta": {"code": 200, "requestId": "5feddb758549cf75f716fe67"}, "response": {"suggestedFilters": {"header": "Tap to show:", "filters": [{"name": "Open now", "key": "openNow"}]}, "headerLocation": "Lambeth", "headerFullLocation": "Lambeth, London", "headerLocationGranularity": "neighborhood", "query": "college education", "totalResults": 11, "suggestedBounds": {"ne": {"lat": 51.489807003600006, "lng": -0.11357154141044229}, "sw": {"lat": 51.482606996399994, "lng": -0.12511245858955772}}, "groups": [{"type": "Recommended Places", "name": "recommended", "items": [{"reasons": {"count": 0, "items": [{"summary": "This spot is popular", "type": "general", "reasonName": "globalInteractionReason"}]}, "venue": {"id": "4bc3216b2a89ef3b958ef488", "name": "Fixation", "location": {"address": "Unit C 250 Kennington Lane", "lat": 51.48714504395787, "lng": -0.11613957435637025, "labeledLatLngs": [{"label": "display", "lat": 51.48714504395787, "lng": -0.11613957435637025}], "distance": 245, "postalCode": "SE11 5RD", "cc": "GB", "city": "Kennington", "state": "Greater London", "country": "United Kingdom", "formattedAddress": ["Unit C 250 Kennington Lane", "Kennington", "Greater London", "SE11 5RD", "United Kingdom"]}, "categories": [{"id": "4bf58dd8d48988d127951735", "name": "Arts & Crafts Store", "pluralName": "Arts & Crafts Stores", "shortName": "Arts & Crafts", "icon": {"prefix": "https://ss3.4sqi.net/img/categories_v2/shops/artstore_", "suffix": ".png"}, "primary": true}], "photos": {"count": 0, "groups": []}}, "referralId": "e-0-4bc3216b2a89ef3b958ef488-0"}, {"reasons": {"count": 0, "items": [{"summary": "This spot is popular", "type": "general", "reasonName": "globalInteractionReason"}]}, "venue": {"id": "51604e1ae4b0137132cbec53", "name": "Little Waitrose & Partners", "location": {"address": "3 Bondway", "lat": 51.48531264606189, "lng": -0.12373475107801823, "labeledLatLngs": [{"label": "display", "lat": 51.48531264606189, "lng": -0.12373475107801823}], "distance": 320, "postalCode": "SW8 1SJ", "cc": "GB", "city": "London", "state": "Greater London", "country": "United Kingdom", "formattedAddress": ["3 Bondway", "London", "Greater London", "SW8 1SJ", "United Kingdom"]}, "categories": [{"id": "4bf58dd8d48988d118951735", "name": "Grocery Store", "pluralName": "Grocery Stores", "shortName": "Grocery Store", "icon": {"prefix": "https://ss3.4sqi.net/img/categories_v2/shops/food_grocery_", "suffix": ".png"}, "primary": true}], "photos": {"count": 0, "groups": []}}, "referralId": "e-0-51604e1ae4b0137132cbec53-1"}, {"reasons": {"count": 0, "items": [{"summary": "This spot is popular", "type": "general", "reasonName": "globalInteractionReason"}]}, "venue": {"id": "53d64ba5498e72b5e9031007", "name": "Vauxhall Street Food Garden", "location": {"address": "6A South Lambeth Pl", "lat": 51.48514486881931, "lng": -0.12364057004187506, "labeledLatLngs": [{"label": "display", "lat": 51.48514486881931, "lng": -0.12364057004187506}], "distance": 320, "postalCode": "SW8 1SP", "cc": "GB", "neighborhood": "Vauxhall, London, Greater London", "city": "London", "state": "Greater London", "country": "United Kingdom", "formattedAddress": ["6A South Lambeth Pl", "London", "Greater London", "SW8 1SP", "United Kingdom"]}, "categories": [{"id": "53e0feef498e5aac066fd8a9", "name": "Street Food Gathering", "pluralName": "Street Food Gatherings", "shortName": "Street Food Gathering", "icon": {"prefix": "https://ss3.4sqi.net/img/categories_v2/food/streetfood_", "suffix": ".png"}, "primary": true}], "photos": {"count": 0, "groups": []}}, "referralId": "e-0-53d64ba5498e72b5e9031007-2"}, {"reasons": {"count": 0, "items": [{"summary": "This spot is popular", "type": "general", "reasonName": "globalInteractionReason"}]}, "venue": {"id": "4bafbcf7f964a520961c3ce3", "name": "Master U- Leather Shop", "location": {"address": "330 Kennington Lane", "lat": 51.48643222471012, "lng": -0.11971235275268555, "labeledLatLngs": [{"label": "display", "lat": 51.48643222471012, "lng": -0.11971235275268555}], "distance": 35, "postalCode": "SE11 5HY", "cc": "GB", "city": "London", "state": "Greater London", "country": "United Kingdom", "formattedAddress": ["330 Kennington Lane", "London", "Greater London", "SE11 5HY", "United Kingdom"]}, "categories": [{"id": "4bf58dd8d48988d103951735", "name": "Clothing Store", "pluralName": "Clothing Stores", "shortName": "Apparel", "icon": {"prefix": "https://ss3.4sqi.net/img/categories_v2/shops/apparel_", "suffix": ".png"}, "primary": true}], "photos": {"count": 0, "groups": []}, "venuePage": {"id": "50746485"}}, "referralId": "e-0-4bafbcf7f964a520961c3ce3-3"}, {"reasons": {"count": 0, "items": [{"summary": "This spot is popular", "type": "general", "reasonName": "globalInteractionReason"}]}, "venue": {"id": "4d90eb479b3841bd8da3445f", "name": "Majestic Wine", "location": {"address": "Arch 83, Goding St", "lat": 51.48628649497353, "lng": -0.12230350776645225, "labeledLatLngs": [{"label": "display", "lat": 51.48628649497353, "lng": -0.12230350776645225}], "distance": 205, "postalCode": "SE11 5AW", "cc": "GB", "city": "London", "state": "Greater London", "country": "United Kingdom", "formattedAddress": ["Arch 83, Goding St", "London", "Greater London", "SE11 5AW", "United Kingdom"]}, "categories": [{"id": "4bf58dd8d48988d119951735", "name": "Wine Shop", "pluralName": "Wine Shops", "shortName": "Wine Shop", "icon": {"prefix": "https://ss3.4sqi.net/img/categories_v2/shops/food_wineshop_", "suffix": ".png"}, "primary": true}], "photos": {"count": 0, "groups": []}}, "referralId": "e-0-4d90eb479b3841bd8da3445f-4"}, {"reasons": {"count": 0, "items": [{"summary": "This spot is popular", "type": "general", "reasonName": "globalInteractionReason"}]}, "venue": {"id": "5a3a5dcada70804741cf13f6", "name": "Quinn Builders", "location": {"address": "29 Laud Street", "lat": 51.4882089, "lng": -0.1202498, "labeledLatLngs": [{"label": "display", "lat": 51.4882089, "lng": -0.1202498}], "distance": 231, "postalCode": "SE11 5HW", "cc": "GB", "city": "London", "state": "Greater London", "country": "United Kingdom", "formattedAddress": ["29 Laud Street", "London", "Greater London", "SE11 5HW", "United Kingdom"]}, "categories": [{"id": "5454144b498ec1f095bff2f2", "name": "Construction & Landscaping", "pluralName": "Construction & Landscaping", "shortName": "Construction", "icon": {"prefix": "https://ss3.4sqi.net/img/categories_v2/shops/realestate_", "suffix": ".png"}, "primary": true}], "photos": {"count": 0, "groups": []}}, "referralId": "e-0-5a3a5dcada70804741cf13f6-5"}, {"reasons": {"count": 0, "items": [{"summary": "This spot is popular", "type": "general", "reasonName": "globalInteractionReason"}]}, "venue": {"id": "5968dce20d8a0f7f00498f75", "name": "London Kitchen Store", "location": {"address": "71 Albert Embarkment", "crossStreet": "Glasshouse Walk", "lat": 51.487362, "lng": -0.123012, "labeledLatLngs": [{"label": "display", "lat": 51.487362, "lng": -0.123012}], "distance": 285, "postalCode": "SE1 7TP", "cc": "GB", "city": "London", "state": "Greater London", "country": "United Kingdom", "formattedAddress": ["71 Albert Embarkment (Glasshouse Walk)", "London", "Greater London", "SE1 7TP", "United Kingdom"]}, "categories": [{"id": "4bf58dd8d48988d1f8941735", "name": "Furniture / Home Store", "pluralName": "Furniture / Home Stores", "shortName": "Furniture / Home", "icon": {"prefix": "https://ss3.4sqi.net/img/categories_v2/shops/furniture_", "suffix": ".png"}, "primary": true}], "photos": {"count": 0, "groups": []}}, "referralId": "e-0-5968dce20d8a0f7f00498f75-6"}, {"reasons": {"count": 0, "items": [{"summary": "This spot is popular", "type": "general", "reasonName": "globalInteractionReason"}]}, "venue": {"id": "4cadfca8632b3704cf146c6e", "name": "Chariots Vauxhall", "location": {"address": "63-64 Rail Arches", "crossStreet": "Albert Embankment", "lat": 51.48683494483993, "lng": -0.12352545067710383, "labeledLatLngs": [{"label": "display", "lat": 51.48683494483993, "lng": -0.12352545067710383}], "distance": 298, "postalCode": "SE1 7TP", "cc": "GB", "city": "Vauxhall", "state": "Greater London", "country": "United Kingdom", "formattedAddress": ["63-64 Rail Arches (Albert Embankment)", "Vauxhall", "Greater London", "SE1 7TP", "United Kingdom"]}, "categories": [{"id": "52e81612bcbc57f1066b7a27", "name": "Bath House", "pluralName": "Bath Houses", "shortName": "Bath House", "icon": {"prefix": "https://ss3.4sqi.net/img/categories_v2/parks_outdoors/neighborhood_", "suffix": ".png"}, "primary": true}], "photos": {"count": 0, "groups": []}}, "referralId": "e-0-4cadfca8632b3704cf146c6e-7"}, {"reasons": {"count": 0, "items": [{"summary": "This spot is popular", "type": "general", "reasonName": "globalInteractionReason"}]}, "venue": {"id": "56d73e6b498e0ce63d6bff3f", "name": "Simply Smiley Productions", "location": {"address": "54 Kennington Oval", "lat": 51.48375839999999, "lng": -0.11717060000000856, "labeledLatLngs": [{"label": "display", "lat": 51.48375839999999, "lng": -0.11717060000000856}], "distance": 311, "postalCode": "SE11 5SW", "cc": "GB", "city": "London", "state": "Greater London", "country": "United Kingdom", "formattedAddress": ["54 Kennington Oval", "London", "Greater London", "SE11 5SW", "United Kingdom"]}, "categories": [{"id": "5454152e498ef71e2b9132c6", "name": "Event Service", "pluralName": "Event Services", "shortName": "Event Services", "icon": {"prefix": "https://ss3.4sqi.net/img/categories_v2/event/default_", "suffix": ".png"}, "primary": true}], "photos": {"count": 0, "groups": []}, "venuePage": {"id": "163504314"}}, "referralId": "e-0-56d73e6b498e0ce63d6bff3f-8"}, {"reasons": {"count": 0, "items": [{"summary": "This spot is popular", "type": "general", "reasonName": "globalInteractionReason"}]}, "venue": {"id": "5046155be4b0b88235d66b8c", "name": "Sainsbury's Local", "location": {"address": "6, Swadlincote Retail Park", "lat": 51.48595455520568, "lng": -0.12310971094821266, "labeledLatLngs": [{"label": "display", "lat": 51.48595455520568, "lng": -0.12310971094821266}], "distance": 262, "postalCode": "SW8 1SP", "cc": "GB", "neighborhood": "Vauxhall, London, Greater London", "city": "London", "state": "Greater London", "country": "United Kingdom", "formattedAddress": ["6, Swadlincote Retail Park", "London", "Greater London", "SW8 1SP", "United Kingdom"]}, "categories": [{"id": "4bf58dd8d48988d118951735", "name": "Grocery Store", "pluralName": "Grocery Stores", "shortName": "Grocery Store", "icon": {"prefix": "https://ss3.4sqi.net/img/categories_v2/shops/food_grocery_", "suffix": ".png"}, "primary": true}], "photos": {"count": 0, "groups": []}}, "referralId": "e-0-5046155be4b0b88235d66b8c-9"}, {"reasons": {"count": 0, "items": [{"summary": "This spot is popular", "type": "general", "reasonName": "globalInteractionReason"}]}, "venue": {"id": "4ad07e23f964a52038d820e3", "name": "Tesco", "location": {"address": "Kennington Lane, Kennington", "lat": 51.48633423400431, "lng": -0.11401464418029583, "labeledLatLngs": [{"label": "display", "lat": 51.48633423400431, "lng": -0.11401464418029583}], "distance": 369, "postalCode": "SE11 5QU", "cc": "GB", "city": "London", "state": "Greater London", "country": "United Kingdom", "formattedAddress": ["Kennington Lane, Kennington", "London", "Greater London", "SE11 5QU", "United Kingdom"]}, "categories": [{"id": "52f2ab2ebcbc57f1066b8b46", "name": "Supermarket", "pluralName": "Supermarkets", "shortName": "Supermarket", "icon": {"prefix": "https://ss3.4sqi.net/img/categories_v2/shops/food_grocery_", "suffix": ".png"}, "primary": true}], "photos": {"count": 0, "groups": []}}, "referralId": "e-0-4ad07e23f964a52038d820e3-10"}]}]}}