{"meta": {"code": 200, "requestId": "5feddcb6ba6fa474b86ab07a"}, "response": {"headerLocation": "Hammersmith Broadway", "headerFullLocation": "Hammersmith Broadway, London", "headerLocationGranularity": "neighborhood", "query": "arts entertainment", "totalResults": 6, "suggestedBounds": {"ne": {"lat": 51.497440003600005, "lng": -0.22138857522852315}, "sw": {"lat": 51.49023999639999, "lng": -0.23293142477147685}}, "groups": [{"type": "Recommended Places", "name": "recommended", "items": [{"reasons": {"count": 0, "items": [{"summary": "This spot is popular", "type": "general", "reasonName": "globalInteractionReason"}]}, "venue": {"id": "4bd48d456f6495217c956dec", "name": "Lyric Hammersmith", "location": {"address": "Lyric Sq", "crossStreet": "King St", "lat": 51.49307750861718, "lng": -0.22613891719621268, "labeledLatLngs": [{"label": "display", "lat": 51.49307750861718, "lng": -0.22613891719621268}], "distance": 110, "postalCode": "W6 0QL", "cc": "GB", "city": "Hammersmith", "state": "Greater London", "country": "United Kingdom", "formattedAddress": ["Lyric Sq (King St)", "Hammersmith", "Greater London", "W6 0QL", "United Kingdom"]}, "categories": [{"id": "4bf58dd8d48988d137941735", "name": "Theater", "pluralName": "Theaters", "shortName": "Theater", "icon": {"prefix": "https://ss3.4sqi.net/img/categories_v2/arts_entertainment/performingarts_theater_", "suffix": ".png"}, "primary": true}], "photos": {"count": 0, "groups": []}, "venuePage": {"id": "33638512"}}, "referralId": "e-0-4bd48d456f6495217c956dec-0"}, {"reasons": {"count": 0, "items": [{"summary": "This spot is popular", "type": "general", "reasonName": "globalInteractionReason"}]}, "venue": {"id": "4ae19e32f964a520708621e3", "name": "Eventim Apollo", "location": {"address": "45 Queen Caroline St", "lat": 51.49118747845862, "lng": -0.22468370488266876, "labeledLatLngs": [{"label": "display", "lat": 51.49118747845862, "lng": -0.22468370488266876}], "distance": 341, "postalCode": "W6 9QH", "cc": "GB", "neighborhood": "Hammersmith Broadway", "city": "London", "state": "Greater London", "country": "United Kingdom", "formattedAddress": ["45 Queen Caroline St", "London", "Greater London", "W6 9QH", "United Kingdom"]}, "categories": [{"id": "5032792091d4c4b30a586d5c", "name": "Concert Hall", "pluralName": "Concert Halls", "shortName": "Concert Hall", "icon": {"prefix": "https://ss3.4sqi.net/img/categories_v2/arts_entertainment/musicvenue_", "suffix": ".png"}, "primary": true}], "photos": {"count": 0, "groups": []}}, "referralId": "e-0-4ae19e32f964a520708621e3-1"}, {"reasons": {"count": 0, "items": [{"summary": "This spot is popular", "type": "general", "reasonName": "globalInteractionReason"}]}, "venue": {"id": "4ad6f42ef964a5206a0821e3", "name": "The Tabard", "location": {"address": "1 Bath Road", "crossStreet": "Turnham Green Terrace", "lat": 51.49382047215038, "lng": -0.22679250225849013, "labeledLatLngs": [{"label": "display", "lat": 51.49382047215038, "lng": -0.22679250225849013}], "distance": 25, "postalCode": "W4 1LN", "cc": "GB", "city": "London", "state": "Greater London", "country": "United Kingdom", "formattedAddress": ["1 Bath Road (Turnham Green Terrace)", "London", "Greater London", "W4 1LN", "United Kingdom"]}, "categories": [{"id": "4bf58dd8d48988d137941735", "name": "Theater", "pluralName": "Theaters", "shortName": "Theater", "icon": {"prefix": "https://ss3.4sqi.net/img/categories_v2/arts_entertainment/performingarts_theater_", "suffix": ".png"}, "primary": true}], "photos": {"count": 0, "groups": []}}, "referralId": "e-0-4ad6f42ef964a5206a0821e3-2"}, {"reasons": {"count": 0, "items": [{"summary": "This spot is popular", "type": "general", "reasonName": "globalInteractionReason"}]}, "venue": {"id": "55d9d02b498e0154d2a27726", "name": "Rik Mayall Memorial Bench", "location": {"address": "Queen Caroline St", "crossStreet": "Hammersmith Bridge Rd", "lat": 51.492061, "lng": -0.225346, "labeledLatLngs": [{"label": "display", "lat": 51.492061, "lng": -0.225346}], "distance": 234, "postalCode": "W6 9YD", "cc": "GB", "neighborhood": "Hammersmith", "country": "United Kingdom", "formattedAddress": ["Queen Caroline St (Hammersmith Bridge Rd)", "W6 9YD", "United Kingdom"]}, "categories": [{"id": "5642206c498e4bfca532186c", "name": "Memorial Site", "pluralName": "Memorial Sites", "shortName": "Memorial Site", "icon": {"prefix": "https://ss3.4sqi.net/img/categories_v2/arts_entertainment/historicsite_", "suffix": ".png"}, "primary": true}], "photos": {"count": 0, "groups": []}}, "referralId": "e-0-55d9d02b498e0154d2a27726-3"}, {"reasons": {"count": 0, "items": [{"summary": "This spot is popular", "type": "general", "reasonName": "globalInteractionReason"}]}, "venue": {"id": "4b59ec10f964a5201ca128e3", "name": "jasmine studios", "location": {"address": "186 shepherds bush road", "lat": 51.49510107145225, "lng": -0.22343897195524914, "labeledLatLngs": [{"label": "display", "lat": 51.49510107145225, "lng": -0.22343897195524914}], "distance": 293, "postalCode": "W6 7nl", "cc": "GB", "city": "London", "state": "Greater London", "country": "United Kingdom", "formattedAddress": ["186 shepherds bush road", "London", "Greater London", "W6 7nl", "United Kingdom"]}, "categories": [{"id": "4bf58dd8d48988d1e5931735", "name": "Music Venue", "pluralName": "Music Venues", "shortName": "Music Venue", "icon": {"prefix": "https://ss3.4sqi.net/img/categories_v2/arts_entertainment/musicvenue_", "suffix": ".png"}, "primary": true}], "photos": {"count": 0, "groups": []}}, "referralId": "e-0-4b59ec10f964a5201ca128e3-4"}, {"reasons": {"count": 0, "items": [{"summary": "This spot is popular", "type": "general", "reasonName": "globalInteractionReason"}]}, "venue": {"id": "4c3c4702b36ac92807d20386", "name": "TWDC Cinema", "location": {"address": "Queen Caroline St", "lat": 51.491934673188965, "lng": -0.22274095952726183, "labeledLatLngs": [{"label": "display", "lat": 51.491934673188965, "lng": -0.22274095952726183}], "distance": 372, "postalCode": "W6", "cc": "GB", "city": "Hammersmith", "state": "Greater London", "country": "United Kingdom", "formattedAddress": ["Queen Caroline St", "Hammersmith", "Greater London", "W6", "United Kingdom"]}, "categories": [{"id": "4bf58dd8d48988d180941735", "name": "Multiplex", "pluralName": "Multiplexes", "shortName": "Cineplex", "icon": {"prefix": "https://ss3.4sqi.net/img/categories_v2/arts_entertainment/movietheater_", "suffix": ".png"}, "primary": true}], "photos": {"count": 0, "groups": []}}, "referralId": "e-0-4c3c4702b36ac92807d20386-5"}]}]}}