{"meta": {"code": 200, "requestId": "5feddb488c47f042d7c68170"}, "response": {"headerLocation": "Hackney", "headerFullLocation": "Hackney, London", "headerLocationGranularity": "neighborhood", "query": "travel", "totalResults": 4, "suggestedBounds": {"ne": {"lat": 51.56261000360001, "lng": -0.0551103086638224}, "sw": {"lat": 51.555409996399995, "lng": -0.0666696913361776}}, "groups": [{"type": "Recommended Places", "name": "recommended", "items": [{"reasons": {"count": 0, "items": [{"summary": "This spot is popular", "type": "general", "reasonName": "globalInteractionReason"}]}, "venue": {"id": "4c5037b67537e21e0ce18c89", "name": "Lea Bridge Road Bus Stand", "location": {"lat": 51.558525, "lng": -0.056069, "labeledLatLngs": [{"label": "display", "lat": 51.558525, "lng": -0.056069}], "distance": 337, "cc": "GB", "country": "United Kingdom", "formattedAddress": ["United Kingdom"]}, "categories": [{"id": "4bf58dd8d48988d1fe931735", "name": "Bus Station", "pluralName": "Bus Stations", "shortName": "Bus Station", "icon": {"prefix": "https://ss3.4sqi.net/img/categories_v2/travel/busstation_", "suffix": ".png"}, "primary": true}], "photos": {"count": 0, "groups": []}}, "referralId": "e-0-4c5037b67537e21e0ce18c89-0"}, {"reasons": {"count": 0, "items": [{"summary": "This spot is popular", "type": "general", "reasonName": "globalInteractionReason"}]}, "venue": {"id": "4c123f41b7b9c928f362a737", "name": "Lea Bridge Road Roundabout", "location": {"lat": 51.55825394993938, "lng": -0.05560340587009124, "labeledLatLngs": [{"label": "display", "lat": 51.55825394993938, "lng": -0.05560340587009124}], "distance": 375, "cc": "GB", "country": "United Kingdom", "formattedAddress": ["United Kingdom"]}, "categories": [{"id": "52f2ab2ebcbc57f1066b8b4c", "name": "Intersection", "pluralName": "Intersections", "shortName": "Intersection", "icon": {"prefix": "https://ss3.4sqi.net/img/categories_v2/travel/default_", "suffix": ".png"}, "primary": true}], "photos": {"count": 0, "groups": []}}, "referralId": "e-0-4c123f41b7b9c928f362a737-1"}, {"reasons": {"count": 0, "items": [{"summary": "This spot is popular", "type": "general", "reasonName": "globalInteractionReason"}]}, "venue": {"id": "4c11e283a9420f479d8f7d51", "name": "Bus Stop P", "location": {"address": "Clapton Station", "crossStreet": "Upper Clapton Rd", "lat": 51.56175099939862, "lng": -0.05738017793156022, "labeledLatLngs": [{"label": "display", "lat": 51.56175099939862, "lng": -0.05738017793156022}], "distance": 390, "postalCode": "E 5 9", "cc": "GB", "city": "Hackney", "state": "Greater London", "country": "United Kingdom", "formattedAddress": ["Clapton Station (Upper Clapton Rd)", "Hackney", "Greater London", "E 5 9", "United Kingdom"]}, "categories": [{"id": "52f2ab2ebcbc57f1066b8b4f", "name": "Bus Stop", "pluralName": "Bus Stops", "shortName": "Bus Stop", "icon": {"prefix": "https://ss3.4sqi.net/img/categories_v2/travel/busstation_", "suffix": ".png"}, "primary": true}], "photos": {"count": 0, "groups": []}}, "referralId": "e-0-4c11e283a9420f479d8f7d51-2"}, {"reasons": {"count": 0, "items": [{"summary": "This spot is popular", "type": "general", "reasonName": "globalInteractionReason"}]}, "venue": {"id": "4faf1040e4b08a88c606735b", "name": "Bus Stop L", "location": {"address": "Lea Bridge Roundabout", "lat": 51.557125, "lng": -0.056007, "labeledLatLngs": [{"label": "display", "lat": 51.557125, "lng": -0.056007}], "distance": 397, "cc": "GB", "country": "United Kingdom", "formattedAddress": ["Lea Bridge Roundabout", "United Kingdom"]}, "categories": [{"id": "52f2ab2ebcbc57f1066b8b4f", "name": "Bus Stop", "pluralName": "Bus Stops", "shortName": "Bus Stop", "icon": {"prefix": "https://ss3.4sqi.net/img/categories_v2/travel/busstation_", "suffix": ".png"}, "primary": true}], "photos": {"count": 0, "groups": []}}, "referralId": "e-0-4faf1040e4b08a88c606735b-3"}]}]}}