{"meta": {"code": 200, "requestId": "5feddbaed3e79e09bc442774"}, "response": {"suggestedFilters": {"header": "Tap to show:", "filters": [{"name": "Open now", "key": "openNow"}]}, "headerLocation": "Waterloo", "headerFullLocation": "Waterloo, London", "headerLocationGranularity": "neighborhood", "query": "travel", "totalResults": 59, "suggestedBounds": {"ne": {"lat": 51.506600003600006, "lng": -0.11152741519712162}, "sw": {"lat": 51.499399996399994, "lng": -0.12307258480287839}}, "groups": [{"type": "Recommended Places", "name": "recommended", "items": [{"reasons": {"count": 0, "items": [{"summary": "This spot is popular", "type": "general", "reasonName": "globalInteractionReason"}]}, "venue": {"id": "4b8aaf57f964a520aa7932e3", "name": "Park Plaza Westminster Bridge", "location": {"address": "200 Westminster Bridge Rd, Lambeth", "lat": 51.501, "lng": -0.1169, "labeledLatLngs": [{"label": "display", "lat": 51.501, "lng": -0.1169}], "distance": 224, "postalCode": "SE1 7UT", "cc": "GB", "city": "London", "state": "Greater London", "country": "United Kingdom", "formattedAddress": ["200 Westminster Bridge Rd, Lambeth", "London", "Greater London", "SE1 7UT", "United Kingdom"]}, "categories": [{"id": "4bf58dd8d48988d1fa931735", "name": "Hotel", "pluralName": "Hotels", "shortName": "Hotel", "icon": {"prefix": "https://ss3.4sqi.net/img/categories_v2/travel/hotel_", "suffix": ".png"}, "primary": true}], "photos": {"count": 0, "groups": []}}, "referralId": "e-0-4b8aaf57f964a520aa7932e3-0"}, {"reasons": {"count": 0, "items": [{"summary": "This spot is popular", "type": "general", "reasonName": "globalInteractionReason"}]}, "venue": {"id": "4ac518b6f964a52002a120e3", "name": "London Marriott Hotel County Hall", "location": {"address": "London County Hall, Westminster Bridge Road", "lat": 51.5010188, "lng": -0.1191836, "labeledLatLngs": [{"label": "display", "lat": 51.5010188, "lng": -0.1191836}], "distance": 256, "postalCode": "SE1 7PB", "cc": "GB", "city": "City of London", "state": "Greater London", "country": "United Kingdom", "formattedAddress": ["London County Hall, Westminster Bridge Road", "City of London", "Greater London", "SE1 7PB", "United Kingdom"]}, "categories": [{"id": "4bf58dd8d48988d1fa931735", "name": "Hotel", "pluralName": "Hotels", "shortName": "Hotel", "icon": {"prefix": "https://ss3.4sqi.net/img/categories_v2/travel/hotel_", "suffix": ".png"}, "primary": true}], "photos": {"count": 0, "groups": []}, "venuePage": {"id": "131922165"}}, "referralId": "e-0-4ac518b6f964a52002a120e3-1"}, {"reasons": {"count": 0, "items": [{"summary": "This spot is popular", "type": "general", "reasonName": "globalInteractionReason"}]}, "venue": {"id": "4c0917a9ffb8c9b6c33f6961", "name": "Park Plaza County Hall", "location": {"address": "1 Addington Street, Lambeth", "lat": 51.5014, "lng": -0.1163, "labeledLatLngs": [{"label": "display", "lat": 51.5014, "lng": -0.1163}], "distance": 191, "postalCode": "SE1 7RY", "cc": "GB", "city": "London", "state": "Greater London", "country": "United Kingdom", "formattedAddress": ["1 Addington Street, Lambeth", "London", "Greater London", "SE1 7RY", "United Kingdom"]}, "categories": [{"id": "4bf58dd8d48988d1fa931735", "name": "Hotel", "pluralName": "Hotels", "shortName": "Hotel", "icon": {"prefix": "https://ss3.4sqi.net/img/categories_v2/travel/hotel_", "suffix": ".png"}, "primary": true}], "photos": {"count": 0, "groups": []}}, "referralId": "e-0-4c0917a9ffb8c9b6c33f6961-2"}, {"reasons": {"count": 0, "items": [{"summary": "This spot is popular", "type": "general", "reasonName": "globalInteractionReason"}]}, "venue": {"id": "568ae5c5498e46fe02064157", "name": "Premier Inn London County Hall", "location": {"address": "Belvedere Rd", "crossStreet": "County Hall", "lat": 51.5024997, "lng": -0.1180709, "labeledLatLngs": [{"label": "display", "lat": 51.5024997, "lng": -0.1180709}], "distance": 77, "postalCode": "SE1 7PB", "cc": "GB", "city": "Waterloo", "state": "Greater London", "country": "United Kingdom", "formattedAddress": ["Belvedere Rd (County Hall)", "Waterloo", "Greater London", "SE1 7PB", "United Kingdom"]}, "categories": [{"id": "4bf58dd8d48988d1fa931735", "name": "Hotel", "pluralName": "Hotels", "shortName": "Hotel", "icon": {"prefix": "https://ss3.4sqi.net/img/categories_v2/travel/hotel_", "suffix": ".png"}, "primary": true}], "photos": {"count": 0, "groups": []}}, "referralId": "e-0-568ae5c5498e46fe02064157-3"}, {"reasons": {"count": 0, "items": [{"summary": "This spot is popular", "type": "general", "reasonName": "globalInteractionReason"}]}, "venue": {"id": "4acd8e7df964a52044cc20e3", "name": "London Waterloo Railway Station (WAT) (London Waterloo Railway Station)", "location": {"address": "Station Approach", "lat": 51.50311479785434, "lng": -0.11265849974122291, "distance": 321, "postalCode": "SE1 8SW", "cc": "GB", "city": "South Bank", "state": "Greater London", "country": "United Kingdom", "formattedAddress": ["Station Approach", "South Bank", "Greater London", "SE1 8SW", "United Kingdom"]}, "categories": [{"id": "4bf58dd8d48988d129951735", "name": "Train Station", "pluralName": "Train Stations", "shortName": "Train Station", "icon": {"prefix": "https://ss3.4sqi.net/img/categories_v2/travel/trainstation_", "suffix": ".png"}, "primary": true}], "photos": {"count": 0, "groups": []}}, "referralId": "e-0-4acd8e7df964a52044cc20e3-4"}, {"reasons": {"count": 0, "items": [{"summary": "This spot is popular", "type": "general", "reasonName": "globalInteractionReason"}]}, "venue": {"id": "4b68aba5f964a52035862be3", "name": "Premier Inn London Waterloo", "location": {"address": "85 York Rd", "lat": 51.5018864, "lng": -0.1165677, "labeledLatLngs": [{"label": "display", "lat": 51.5018864, "lng": -0.1165677}], "distance": 133, "postalCode": "SE1 7NJ", "cc": "GB", "city": "Waterloo", "state": "Greater London", "country": "United Kingdom", "formattedAddress": ["85 York Rd", "Waterloo", "Greater London", "SE1 7NJ", "United Kingdom"]}, "categories": [{"id": "4bf58dd8d48988d1fa931735", "name": "Hotel", "pluralName": "Hotels", "shortName": "Hotel", "icon": {"prefix": "https://ss3.4sqi.net/img/categories_v2/travel/hotel_", "suffix": ".png"}, "primary": true}], "photos": {"count": 0, "groups": []}}, "referralId": "e-0-4b68aba5f964a52035862be3-5"}, {"reasons": {"count": 0, "items": [{"summary": "This spot is popular", "type": "general", "reasonName": "globalInteractionReason"}]}, "venue": {"id": "56058760498ecd0d64efe6a2", "name": "Bus Stop F: County Hall", "location": {"lat": 51.50209539065822, "lng": -0.11660113976935518, "labeledLatLngs": [{"label": "display", "lat": 51.50209539065822, "lng": -0.11660113976935518}], "distance": 111, "cc": "GB", "country": "United Kingdom", "formattedAddress": ["United Kingdom"]}, "categories": [{"id": "52f2ab2ebcbc57f1066b8b4f", "name": "Bus Stop", "pluralName": "Bus Stops", "shortName": "Bus Stop", "icon": {"prefix": "https://ss3.4sqi.net/img/categories_v2/travel/busstation_", "suffix": ".png"}, "primary": true}], "photos": {"count": 0, "groups": []}}, "referralId": "e-0-56058760498ecd0d64efe6a2-6"}, {"reasons": {"count": 0, "items": [{"summary": "This spot is popular", "type": "general", "reasonName": "globalInteractionReason"}]}, "venue": {"id": "5346c93f498e2b82dbcf7919", "name": "London Eye (Z)", "location": {"address": "Chicheley St", "crossStreet": "York Rd", "lat": 51.502849452213795, "lng": -0.11653460942747342, "labeledLatLngs": [{"label": "display", "lat": 51.502849452213795, "lng": -0.11653460942747342}], "distance": 55, "cc": "GB", "city": "London", "state": "Greater London", "country": "United Kingdom", "formattedAddress": ["Chicheley St (York Rd)", "London", "Greater London", "United Kingdom"]}, "categories": [{"id": "52f2ab2ebcbc57f1066b8b4f", "name": "Bus Stop", "pluralName": "Bus Stops", "shortName": "Bus Stop", "icon": {"prefix": "https://ss3.4sqi.net/img/categories_v2/travel/busstation_", "suffix": ".png"}, "primary": true}], "photos": {"count": 0, "groups": []}}, "referralId": "e-0-5346c93f498e2b82dbcf7919-7"}, {"reasons": {"count": 0, "items": [{"summary": "This spot is popular", "type": "general", "reasonName": "globalInteractionReason"}]}, "venue": {"id": "5da6ddae7bc9390007eb99f0", "name": "LuggageHero", "location": {"address": "21 York Rd", "lat": 51.5037599, "lng": -0.114865, "labeledLatLngs": [{"label": "display", "lat": 51.5037599, "lng": -0.114865}], "distance": 188, "postalCode": "SE1 7NJ", "cc": "GB", "city": "South Bank", "state": "Greater London", "country": "United Kingdom", "formattedAddress": ["21 York Rd", "South Bank", "Greater London", "SE1 7NJ", "United Kingdom"]}, "categories": [{"id": "5744ccdfe4b0c0459246b4e8", "name": "Baggage Locker", "pluralName": "Baggage Lockers", "shortName": "Baggage Locker", "icon": {"prefix": "https://ss3.4sqi.net/img/categories_v2/travel/default_", "suffix": ".png"}, "primary": true}], "photos": {"count": 0, "groups": []}}, "referralId": "e-0-5da6ddae7bc9390007eb99f0-8"}, {"reasons": {"count": 0, "items": [{"summary": "This spot is popular", "type": "general", "reasonName": "globalInteractionReason"}]}, "venue": {"id": "59894a326fd626071dff10bb", "name": "Platform 24", "location": {"address": "London Waterloo Railway Station", "lat": 51.502584, "lng": -0.115206, "labeledLatLngs": [{"label": "display", "lat": 51.502584, "lng": -0.115206}], "distance": 152, "postalCode": "SE1", "cc": "GB", "city": "London", "state": "Greater London", "country": "United Kingdom", "formattedAddress": ["London Waterloo Railway Station", "London", "Greater London", "SE1", "United Kingdom"]}, "categories": [{"id": "4f4531504b9074f6e4fb0102", "name": "Platform", "pluralName": "Platforms", "shortName": "Platform", "icon": {"prefix": "https://ss3.4sqi.net/img/categories_v2/travel/trainstation_", "suffix": ".png"}, "primary": true}], "photos": {"count": 0, "groups": []}}, "referralId": "e-0-59894a326fd626071dff10bb-9"}, {"reasons": {"count": 0, "items": [{"summary": "This spot is popular", "type": "general", "reasonName": "globalInteractionReason"}]}, "venue": {"id": "5232cab611d2af47f515e34c", "name": "Platform 20", "location": {"address": "London Waterloo Station (WAT)", "lat": 51.502080361765366, "lng": -0.1150044993926714, "labeledLatLngs": [{"label": "display", "lat": 51.502080361765366, "lng": -0.1150044993926714}], "distance": 189, "cc": "GB", "city": "London", "state": "Greater London", "country": "United Kingdom", "formattedAddress": ["London Waterloo Station (WAT)", "London", "Greater London", "United Kingdom"]}, "categories": [{"id": "4f4531504b9074f6e4fb0102", "name": "Platform", "pluralName": "Platforms", "shortName": "Platform", "icon": {"prefix": "https://ss3.4sqi.net/img/categories_v2/travel/trainstation_", "suffix": ".png"}, "primary": true}], "photos": {"count": 0, "groups": []}}, "referralId": "e-0-5232cab611d2af47f515e34c-10"}, {"reasons": {"count": 0, "items": [{"summary": "This spot is popular", "type": "general", "reasonName": "globalInteractionReason"}]}, "venue": {"id": "4f46fb610cd65dc686d12099", "name": "Trafalgar London Reception Centre", "location": {"address": "79 York Rd", "lat": 51.50209507852353, "lng": -0.11646259448021429, "labeledLatLngs": [{"label": "display", "lat": 51.50209507852353, "lng": -0.11646259448021429}], "distance": 116, "postalCode": "SE1 7NJ", "cc": "GB", "city": "London", "state": "Greater London", "country": "United Kingdom", "formattedAddress": ["79 York Rd", "London", "Greater London", "SE1 7NJ", "United Kingdom"]}, "categories": [{"id": "4f4530164b9074f6e4fb00ff", "name": "Tourist Information Center", "pluralName": "Tourist Information Centers", "shortName": "Tourist Information", "icon": {"prefix": "https://ss3.4sqi.net/img/categories_v2/travel/touristinformation_", "suffix": ".png"}, "primary": true}], "photos": {"count": 0, "groups": []}}, "referralId": "e-0-4f46fb610cd65dc686d12099-11"}, {"reasons": {"count": 0, "items": [{"summary": "This spot is popular", "type": "general", "reasonName": "globalInteractionReason"}]}, "venue": {"id": "56097a1a498e043e7f7f4961", "name": "London Eye (Y)", "location": {"address": "Chicheley St", "crossStreet": "York Rd", "lat": 51.502787180393554, "lng": -0.11702233493538021, "labeledLatLngs": [{"label": "display", "lat": 51.502787180393554, "lng": -0.11702233493538021}], "distance": 30, "cc": "GB", "city": "London", "state": "Greater London", "country": "United Kingdom", "formattedAddress": ["Chicheley St (York Rd)", "London", "Greater London", "United Kingdom"]}, "categories": [{"id": "52f2ab2ebcbc57f1066b8b4f", "name": "Bus Stop", "pluralName": "Bus Stops", "shortName": "Bus Stop", "icon": {"prefix": "https://ss3.4sqi.net/img/categories_v2/travel/busstation_", "suffix": ".png"}, "primary": true}], "photos": {"count": 0, "groups": []}}, "referralId": "e-0-56097a1a498e043e7f7f4961-12"}, {"reasons": {"count": 0, "items": [{"summary": "This spot is popular", "type": "general", "reasonName": "globalInteractionReason"}]}, "venue": {"id": "515ef5df498ef2a22a090bab", "name": "Waterloo Station, York Road (W)", "location": {"address": "York Rd", "crossStreet": "Station Approach", "lat": 51.50357846574546, "lng": -0.11527085073437557, "labeledLatLngs": [{"label": "display", "lat": 51.50357846574546, "lng": -0.11527085073437557}], "distance": 154, "cc": "GB", "city": "London", "state": "Greater London", "country": "United Kingdom", "formattedAddress": ["York Rd (Station Approach)", "London", "Greater London", "United Kingdom"]}, "categories": [{"id": "52f2ab2ebcbc57f1066b8b4f", "name": "Bus Stop", "pluralName": "Bus Stops", "shortName": "Bus Stop", "icon": {"prefix": "https://ss3.4sqi.net/img/categories_v2/travel/busstation_", "suffix": ".png"}, "primary": true}], "photos": {"count": 0, "groups": []}}, "referralId": "e-0-515ef5df498ef2a22a090bab-13"}, {"reasons": {"count": 0, "items": [{"summary": "This spot is popular", "type": "general", "reasonName": "globalInteractionReason"}]}, "venue": {"id": "4c7ba4e676ce9c749f35b80c", "name": "London Eye River Cruise", "location": {"address": "Westminster Bridge Rd", "lat": 51.503240708296694, "lng": -0.12039584996721212, "labeledLatLngs": [{"label": "display", "lat": 51.503240708296694, "lng": -0.12039584996721212}], "distance": 216, "postalCode": "SE1 7PB", "cc": "GB", "city": "South Bank", "state": "Greater London", "country": "United Kingdom", "formattedAddress": ["Westminster Bridge Rd", "South Bank", "Greater London", "SE1 7PB", "United Kingdom"]}, "categories": [{"id": "4bf58dd8d48988d12d951735", "name": "Boat or Ferry", "pluralName": "Boats or Ferries", "shortName": "Boat / Ferry", "icon": {"prefix": "https://ss3.4sqi.net/img/categories_v2/travel/boat_", "suffix": ".png"}, "primary": true}], "photos": {"count": 0, "groups": []}}, "referralId": "e-0-4c7ba4e676ce9c749f35b80c-14"}, {"reasons": {"count": 0, "items": [{"summary": "This spot is popular", "type": "general", "reasonName": "globalInteractionReason"}]}, "venue": {"id": "4e280ef52271752a459032e5", "name": "London RIB Voyages", "location": {"address": "Boarding Point 1", "lat": 51.50311404786428, "lng": -0.12043666569219987, "labeledLatLngs": [{"label": "display", "lat": 51.50311404786428, "lng": -0.12043666569219987}], "distance": 217, "postalCode": "SE1 7NJ", "cc": "GB", "city": "London", "state": "Greater London", "country": "United Kingdom", "formattedAddress": ["Boarding Point 1", "London", "Greater London", "SE1 7NJ", "United Kingdom"]}, "categories": [{"id": "4bf58dd8d48988d12d951735", "name": "Boat or Ferry", "pluralName": "Boats or Ferries", "shortName": "Boat / Ferry", "icon": {"prefix": "https://ss3.4sqi.net/img/categories_v2/travel/boat_", "suffix": ".png"}, "primary": true}], "photos": {"count": 0, "groups": []}}, "referralId": "e-0-4e280ef52271752a459032e5-15"}, {"reasons": {"count": 0, "items": [{"summary": "This spot is popular", "type": "general", "reasonName": "globalInteractionReason"}]}, "venue": {"id": "4dda10d2d22d38ef43270806", "name": "London Eye / Waterloo Pier", "location": {"address": "The Queen's Walk", "crossStreet": "Belvedere Rd", "lat": 51.50345058253928, "lng": -0.12039377691124849, "labeledLatLngs": [{"label": "display", "lat": 51.50345058253928, "lng": -0.12039377691124849}], "distance": 220, "postalCode": "SE1 7PB", "cc": "GB", "city": "London", "state": "Greater London", "country": "United Kingdom", "formattedAddress": ["The Queen's Walk (Belvedere Rd)", "London", "Greater London", "SE1 7PB", "United Kingdom"]}, "categories": [{"id": "4e74f6cabd41c4836eac4c31", "name": "Pier", "pluralName": "Piers", "shortName": "Piers", "icon": {"prefix": "https://ss3.4sqi.net/img/categories_v2/travel/ferry_pier_", "suffix": ".png"}, "primary": true}], "photos": {"count": 0, "groups": []}}, "referralId": "e-0-4dda10d2d22d38ef43270806-16"}, {"reasons": {"count": 0, "items": [{"summary": "This spot is popular", "type": "general", "reasonName": "globalInteractionReason"}]}, "venue": {"id": "4c3ddc4c565cb713a6609fe4", "name": "The Elizabethan", "location": {"address": "Westminster Pier", "crossStreet": "Victoria Embankment", "lat": 51.50331592845099, "lng": -0.1204734259163398, "labeledLatLngs": [{"label": "display", "lat": 51.50331592845099, "lng": -0.1204734259163398}], "distance": 222, "postalCode": "SW1A 2JH", "cc": "GB", "city": "London", "state": "Greater London", "country": "United Kingdom", "formattedAddress": ["Westminster Pier (Victoria Embankment)", "London", "Greater London", "SW1A 2JH", "United Kingdom"]}, "categories": [{"id": "4bf58dd8d48988d12d951735", "name": "Boat or Ferry", "pluralName": "Boats or Ferries", "shortName": "Boat / Ferry", "icon": {"prefix": "https://ss3.4sqi.net/img/categories_v2/travel/boat_", "suffix": ".png"}, "primary": true}], "photos": {"count": 0, "groups": []}}, "referralId": "e-0-4c3ddc4c565cb713a6609fe4-17"}, {"reasons": {"count": 0, "items": [{"summary": "This spot is popular", "type": "general", "reasonName": "globalInteractionReason"}]}, "venue": {"id": "4f1b9386e4b0918979f47191", "name": "Waterloo Station/York Road Bus Stop V", "location": {"address": "York Rd", "crossStreet": "Sutton Walk", "lat": 51.50425717178278, "lng": -0.11478878380869953, "labeledLatLngs": [{"label": "display", "lat": 51.50425717178278, "lng": -0.11478878380869953}], "distance": 223, "cc": "GB", "city": "London", "state": "Greater London", "country": "United Kingdom", "formattedAddress": ["York Rd (Sutton Walk)", "London", "Greater London", "United Kingdom"]}, "categories": [{"id": "52f2ab2ebcbc57f1066b8b4f", "name": "Bus Stop", "pluralName": "Bus Stops", "shortName": "Bus Stop", "icon": {"prefix": "https://ss3.4sqi.net/img/categories_v2/travel/busstation_", "suffix": ".png"}, "primary": true}], "photos": {"count": 0, "groups": []}}, "referralId": "e-0-4f1b9386e4b0918979f47191-18"}, {"reasons": {"count": 0, "items": [{"summary": "This spot is popular", "type": "general", "reasonName": "globalInteractionReason"}]}, "venue": {"id": "4ddbeaca45ddf752bfcc75de", "name": "Merlin's London Eye Barracuda", "location": {"address": "Thames River", "lat": 51.502545246638114, "lng": -0.12050628662109375, "labeledLatLngs": [{"label": "display", "lat": 51.502545246638114, "lng": -0.12050628662109375}], "distance": 227, "cc": "GB", "city": "London", "state": "Greater London", "country": "United Kingdom", "formattedAddress": ["Thames River", "London", "Greater London", "United Kingdom"]}, "categories": [{"id": "4bf58dd8d48988d12d951735", "name": "Boat or Ferry", "pluralName": "Boats or Ferries", "shortName": "Boat / Ferry", "icon": {"prefix": "https://ss3.4sqi.net/img/categories_v2/travel/boat_", "suffix": ".png"}, "primary": true}], "photos": {"count": 0, "groups": []}}, "referralId": "e-0-4ddbeaca45ddf752bfcc75de-19"}, {"reasons": {"count": 0, "items": [{"summary": "This spot is popular", "type": "general", "reasonName": "globalInteractionReason"}]}, "venue": {"id": "4b2f38c5f964a52048ea24e3", "name": "Platform 19", "location": {"address": "London Waterloo Station (WAT)", "lat": 51.502964687244706, "lng": -0.11400363939453897, "labeledLatLngs": [{"label": "display", "lat": 51.502964687244706, "lng": -0.11400363939453897}], "distance": 228, "postalCode": "SE1 8SW", "cc": "GB", "city": "Waterloo", "state": "Greater London", "country": "United Kingdom", "formattedAddress": ["London Waterloo Station (WAT)", "Waterloo", "Greater London", "SE1 8SW", "United Kingdom"]}, "categories": [{"id": "4f4531504b9074f6e4fb0102", "name": "Platform", "pluralName": "Platforms", "shortName": "Platform", "icon": {"prefix": "https://ss3.4sqi.net/img/categories_v2/travel/trainstation_", "suffix": ".png"}, "primary": true}], "photos": {"count": 0, "groups": []}}, "referralId": "e-0-4b2f38c5f964a52048ea24e3-20"}, {"reasons": {"count": 0, "items": [{"summary": "This spot is popular", "type": "general", "reasonName": "globalInteractionReason"}]}, "venue": {"id": "4f8028c7e4b009277ea1170f", "name": "City Cruises", "location": {"address": "Eye Pier", "lat": 51.50371636022621, "lng": -0.12040731821802213, "labeledLatLngs": [{"label": "display", "lat": 51.50371636022621, "lng": -0.12040731821802213}], "distance": 229, "cc": "GB", "country": "United Kingdom", "formattedAddress": ["Eye Pier", "United Kingdom"]}, "categories": [{"id": "4bf58dd8d48988d12d951735", "name": "Boat or Ferry", "pluralName": "Boats or Ferries", "shortName": "Boat / Ferry", "icon": {"prefix": "https://ss3.4sqi.net/img/categories_v2/travel/boat_", "suffix": ".png"}, "primary": true}], "photos": {"count": 0, "groups": []}}, "referralId": "e-0-4f8028c7e4b009277ea1170f-21"}, {"reasons": {"count": 0, "items": [{"summary": "This spot is popular", "type": "general", "reasonName": "globalInteractionReason"}]}, "venue": {"id": "5180e8be498e62ca7524fc3f", "name": "The London Eye Ticket Office", "location": {"address": "Riverside Building, County Hall, Westminster Bridge Road", "crossStreet": "Riverside Building", "lat": 51.503297286510765, "lng": -0.11955372883606374, "labeledLatLngs": [{"label": "display", "lat": 51.503297286510765, "lng": -0.11955372883606374}], "distance": 159, "postalCode": "SE1 7PB", "cc": "GB", "city": "London", "state": "Greater London", "country": "United Kingdom", "formattedAddress": ["Riverside Building, County Hall, Westminster Bridge Road (Riverside Building)", "London", "Greater London", "SE1 7PB", "United Kingdom"]}, "categories": [{"id": "4f4530164b9074f6e4fb00ff", "name": "Tourist Information Center", "pluralName": "Tourist Information Centers", "shortName": "Tourist Information", "icon": {"prefix": "https://ss3.4sqi.net/img/categories_v2/travel/touristinformation_", "suffix": ".png"}, "primary": true}], "photos": {"count": 0, "groups": []}}, "referralId": "e-0-5180e8be498e62ca7524fc3f-22"}, {"reasons": {"count": 0, "items": [{"summary": "This spot is popular", "type": "general", "reasonName": "globalInteractionReason"}]}, "venue": {"id": "598cce0cdd12f8153a7c4a6e", "name": "Platform 23", "location": {"address": "London Waterloo Station (WAT)", "lat": 51.50286581276557, "lng": -0.11376857757568358, "labeledLatLngs": [{"label": "display", "lat": 51.50286581276557, "lng": -0.11376857757568358}], "distance": 245, "postalCode": "SE1", "cc": "GB", "city": "London", "state": "Greater London", "country": "United Kingdom", "formattedAddress": ["London Waterloo Station (WAT)", "London", "Greater London", "SE1", "United Kingdom"]}, "categories": [{"id": "4f4531504b9074f6e4fb0102", "name": "Platform", "pluralName": "Platforms", "shortName": "Platform", "icon": {"prefix": "https://ss3.4sqi.net/img/categories_v2/travel/trainstation_", "suffix": ".png"}, "primary": true}], "photos": {"count": 0, "groups": []}}, "referralId": "e-0-598cce0cdd12f8153a7c4a6e-23"}, {"reasons": {"count": 0, "items": [{"summary": "This spot is popular", "type": "general", "reasonName": "globalInteractionReason"}]}, "venue": {"id": "4b8422f7f964a520fc2231e3", "name": "Platform 17", "location": {"address": "London Waterloo Station (WAT)", "lat": 51.50310930152896, "lng": -0.11365006113830792, "labeledLatLngs": [{"label": "display", "lat": 51.50310930152896, "lng": -0.11365006113830792}], "distance": 253, "postalCode": "SE1 8SW", "cc": "GB", "city": "London", "state": "Greater London", "country": "United Kingdom", "formattedAddress": ["London Waterloo Station (WAT)", "London", "Greater London", "SE1 8SW", "United Kingdom"]}, "categories": [{"id": "4f4531504b9074f6e4fb0102", "name": "Platform", "pluralName": "Platforms", "shortName": "Platform", "icon": {"prefix": "https://ss3.4sqi.net/img/categories_v2/travel/trainstation_", "suffix": ".png"}, "primary": true}], "photos": {"count": 0, "groups": []}}, "referralId": "e-0-4b8422f7f964a520fc2231e3-24"}, {"reasons": {"count": 0, "items": [{"summary": "This spot is popular", "type": "general", "reasonName": "globalInteractionReason"}]}, "venue": {"id": "55b10d12498e00b2aa41d064", "name": "Platform 22", "location": {"address": "London Waterloo Station (WAT)", "lat": 51.502994537353516, "lng": -0.11343497782945633, "labeledLatLngs": [{"label": "display", "lat": 51.502994537353516, "lng": -0.11343497782945633}], "distance": 267, "cc": "GB", "city": "London", "state": "Greater London", "country": "United Kingdom", "formattedAddress": ["London Waterloo Station (WAT)", "London", "Greater London", "United Kingdom"]}, "categories": [{"id": "4f4531504b9074f6e4fb0102", "name": "Platform", "pluralName": "Platforms", "shortName": "Platform", "icon": {"prefix": "https://ss3.4sqi.net/img/categories_v2/travel/trainstation_", "suffix": ".png"}, "primary": true}], "photos": {"count": 0, "groups": []}}, "referralId": "e-0-55b10d12498e00b2aa41d064-25"}, {"reasons": {"count": 0, "items": [{"summary": "This spot is popular", "type": "general", "reasonName": "globalInteractionReason"}]}, "venue": {"id": "4b5f4e44f964a5200bb329e3", "name": "Platform 18", "location": {"address": "London Waterloo Station (WAT)", "lat": 51.50325983887452, "lng": -0.11337161064147948, "labeledLatLngs": [{"label": "display", "lat": 51.50325983887452, "lng": -0.11337161064147948}], "distance": 273, "postalCode": "SE1 8SW", "cc": "GB", "city": "London", "state": "Greater London", "country": "United Kingdom", "formattedAddress": ["London Waterloo Station (WAT)", "London", "Greater London", "SE1 8SW", "United Kingdom"]}, "categories": [{"id": "4f4531504b9074f6e4fb0102", "name": "Platform", "pluralName": "Platforms", "shortName": "Platform", "icon": {"prefix": "https://ss3.4sqi.net/img/categories_v2/travel/trainstation_", "suffix": ".png"}, "primary": true}], "photos": {"count": 0, "groups": []}}, "referralId": "e-0-4b5f4e44f964a5200bb329e3-26"}, {"reasons": {"count": 0, "items": [{"summary": "This spot is popular", "type": "general", "reasonName": "globalInteractionReason"}]}, "venue": {"id": "4c2a3596b1ddc9b6e7bc52fb", "name": "Platform 15", "location": {"address": "London Waterloo Station (WAT)", "lat": 51.502821533207104, "lng": -0.11334372315685416, "labeledLatLngs": [{"label": "display", "lat": 51.502821533207104, "lng": -0.11334372315685416}], "distance": 274, "postalCode": "SE1 8SW", "cc": "GB", "city": "London", "state": "Greater London", "country": "United Kingdom", "formattedAddress": ["London Waterloo Station (WAT)", "London", "Greater London", "SE1 8SW", "United Kingdom"]}, "categories": [{"id": "4f4531504b9074f6e4fb0102", "name": "Platform", "pluralName": "Platforms", "shortName": "Platform", "icon": {"prefix": "https://ss3.4sqi.net/img/categories_v2/travel/trainstation_", "suffix": ".png"}, "primary": true}], "photos": {"count": 0, "groups": []}}, "referralId": "e-0-4c2a3596b1ddc9b6e7bc52fb-27"}, {"reasons": {"count": 0, "items": [{"summary": "This spot is popular", "type": "general", "reasonName": "globalInteractionReason"}]}, "venue": {"id": "5723a007498e7db35ce33b59", "name": "Bus Stop K: Tenison Way/Waterloo Station", "location": {"lat": 51.504448, "lng": -0.113761, "labeledLatLngs": [{"label": "display", "lat": 51.504448, "lng": -0.113761}], "distance": 293, "cc": "GB", "country": "United Kingdom", "formattedAddress": ["United Kingdom"]}, "categories": [{"id": "52f2ab2ebcbc57f1066b8b4f", "name": "Bus Stop", "pluralName": "Bus Stops", "shortName": "Bus Stop", "icon": {"prefix": "https://ss3.4sqi.net/img/categories_v2/travel/busstation_", "suffix": ".png"}, "primary": true}], "photos": {"count": 0, "groups": []}}, "referralId": "e-0-5723a007498e7db35ce33b59-28"}, {"reasons": {"count": 0, "items": [{"summary": "This spot is popular", "type": "general", "reasonName": "globalInteractionReason"}]}, "venue": {"id": "4b1fe70df964a520872a24e3", "name": "Platform 12", "location": {"address": "London Waterloo Station (WAT)", "lat": 51.503015183829355, "lng": -0.11303324382584984, "labeledLatLngs": [{"label": "display", "lat": 51.503015183829355, "lng": -0.11303324382584984}], "distance": 295, "postalCode": "SE1 8SW", "cc": "GB", "city": "London", "state": "Greater London", "country": "United Kingdom", "formattedAddress": ["London Waterloo Station (WAT)", "London", "Greater London", "SE1 8SW", "United Kingdom"]}, "categories": [{"id": "4f4531504b9074f6e4fb0102", "name": "Platform", "pluralName": "Platforms", "shortName": "Platform", "icon": {"prefix": "https://ss3.4sqi.net/img/categories_v2/travel/trainstation_", "suffix": ".png"}, "primary": true}], "photos": {"count": 0, "groups": []}}, "referralId": "e-0-4b1fe70df964a520872a24e3-29"}, {"reasons": {"count": 0, "items": [{"summary": "This spot is popular", "type": "general", "reasonName": "globalInteractionReason"}]}, "venue": {"id": "4d9f10a8884dd7cee0ce9cc5", "name": "TfL Santander Cycle Hire", "location": {"address": "London Waterloo Railway Station (WAT)", "crossStreet": "Mepham St", "lat": 51.50390095882086, "lng": -0.11326968669891357, "labeledLatLngs": [{"label": "display", "lat": 51.50390095882086, "lng": -0.11326968669891357}], "distance": 296, "postalCode": "SE1 8SW", "cc": "GB", "city": "Waterloo", "state": "Greater London", "country": "United Kingdom", "formattedAddress": ["London Waterloo Railway Station (WAT) (Mepham St)", "Waterloo", "Greater London", "SE1 8SW", "United Kingdom"]}, "categories": [{"id": "4e4c9077bd41f78e849722f9", "name": "Bike Rental / Bike Share", "pluralName": "Bike Rentals / Bike Shares", "shortName": "Bike", "icon": {"prefix": "https://ss3.4sqi.net/img/categories_v2/shops/bikeshop_", "suffix": ".png"}, "primary": true}], "photos": {"count": 0, "groups": []}}, "referralId": "e-0-4d9f10a8884dd7cee0ce9cc5-30"}, {"reasons": {"count": 0, "items": [{"summary": "This spot is popular", "type": "general", "reasonName": "globalInteractionReason"}]}, "venue": {"id": "4bcc5c18b6c49c74808b9391", "name": "Platform 11", "location": {"address": "London Waterloo Station (WAT)", "lat": 51.502800193833984, "lng": -0.11300109036030624, "labeledLatLngs": [{"label": "display", "lat": 51.502800193833984, "lng": -0.11300109036030624}], "distance": 298, "postalCode": "SE1 8SW", "cc": "GB", "city": "London", "state": "Greater London", "country": "United Kingdom", "formattedAddress": ["London Waterloo Station (WAT)", "London", "Greater London", "SE1 8SW", "United Kingdom"]}, "categories": [{"id": "4f4531504b9074f6e4fb0102", "name": "Platform", "pluralName": "Platforms", "shortName": "Platform", "icon": {"prefix": "https://ss3.4sqi.net/img/categories_v2/travel/trainstation_", "suffix": ".png"}, "primary": true}], "photos": {"count": 0, "groups": []}}, "referralId": "e-0-4bcc5c18b6c49c74808b9391-31"}, {"reasons": {"count": 0, "items": [{"summary": "This spot is popular", "type": "general", "reasonName": "globalInteractionReason"}]}, "venue": {"id": "4b8240dff964a5203cce30e3", "name": "Platform 14", "location": {"address": "London Waterloo Station (WAT)", "lat": 51.50307047311123, "lng": -0.1129383520812481, "labeledLatLngs": [{"label": "display", "lat": 51.50307047311123, "lng": -0.1129383520812481}], "distance": 302, "postalCode": "SE1 8SW", "cc": "GB", "city": "London", "state": "Greater London", "country": "United Kingdom", "formattedAddress": ["London Waterloo Station (WAT)", "London", "Greater London", "SE1 8SW", "United Kingdom"]}, "categories": [{"id": "4f4531504b9074f6e4fb0102", "name": "Platform", "pluralName": "Platforms", "shortName": "Platform", "icon": {"prefix": "https://ss3.4sqi.net/img/categories_v2/travel/trainstation_", "suffix": ".png"}, "primary": true}], "photos": {"count": 0, "groups": []}}, "referralId": "e-0-4b8240dff964a5203cce30e3-32"}, {"reasons": {"count": 0, "items": [{"summary": "This spot is popular", "type": "general", "reasonName": "globalInteractionReason"}]}, "venue": {"id": "4b61bd63f964a520bf1f2ae3", "name": "Platform 13", "location": {"address": "London Waterloo Station (WAT)", "lat": 51.5030707753047, "lng": -0.1129159514596189, "labeledLatLngs": [{"label": "display", "lat": 51.5030707753047, "lng": -0.1129159514596189}], "distance": 303, "postalCode": "SE1 8SW", "cc": "GB", "city": "London", "state": "Greater London", "country": "United Kingdom", "formattedAddress": ["London Waterloo Station (WAT)", "London", "Greater London", "SE1 8SW", "United Kingdom"]}, "categories": [{"id": "4f4531504b9074f6e4fb0102", "name": "Platform", "pluralName": "Platforms", "shortName": "Platform", "icon": {"prefix": "https://ss3.4sqi.net/img/categories_v2/travel/trainstation_", "suffix": ".png"}, "primary": true}], "photos": {"count": 0, "groups": []}}, "referralId": "e-0-4b61bd63f964a520bf1f2ae3-33"}, {"reasons": {"count": 0, "items": [{"summary": "This spot is popular", "type": "general", "reasonName": "globalInteractionReason"}]}, "venue": {"id": "574b4ae9498e423ee243ef58", "name": "Bus Stop E: St Thomas' Hospital County Hall (73922)", "location": {"lat": 51.500314, "lng": -0.118057, "labeledLatLngs": [{"label": "display", "lat": 51.500314, "lng": -0.118057}], "distance": 303, "cc": "GB", "country": "United Kingdom", "formattedAddress": ["United Kingdom"]}, "categories": [{"id": "52f2ab2ebcbc57f1066b8b4f", "name": "Bus Stop", "pluralName": "Bus Stops", "shortName": "Bus Stop", "icon": {"prefix": "https://ss3.4sqi.net/img/categories_v2/travel/busstation_", "suffix": ".png"}, "primary": true}], "photos": {"count": 0, "groups": []}}, "referralId": "e-0-574b4ae9498e423ee243ef58-34"}, {"reasons": {"count": 0, "items": [{"summary": "This spot is popular", "type": "general", "reasonName": "globalInteractionReason"}]}, "venue": {"id": "4b4cbbe8f964a5205cbc26e3", "name": "Platform 16", "location": {"address": "London Waterloo Station (WAT)", "lat": 51.50308848604817, "lng": -0.11291191832782219, "labeledLatLngs": [{"label": "display", "lat": 51.50308848604817, "lng": -0.11291191832782219}], "distance": 304, "postalCode": "SE1 8SW", "cc": "GB", "city": "Waterloo", "state": "Greater London", "country": "United Kingdom", "formattedAddress": ["London Waterloo Station (WAT)", "Waterloo", "Greater London", "SE1 8SW", "United Kingdom"]}, "categories": [{"id": "4f4531504b9074f6e4fb0102", "name": "Platform", "pluralName": "Platforms", "shortName": "Platform", "icon": {"prefix": "https://ss3.4sqi.net/img/categories_v2/travel/trainstation_", "suffix": ".png"}, "primary": true}], "photos": {"count": 0, "groups": []}}, "referralId": "e-0-4b4cbbe8f964a5205cbc26e3-35"}, {"reasons": {"count": 0, "items": [{"summary": "This spot is popular", "type": "general", "reasonName": "globalInteractionReason"}]}, "venue": {"id": "4c3c2298933b0f47bfa9e321", "name": "Bus Stop K", "location": {"address": "Tenison Way", "lat": 51.504458528871275, "lng": -0.11358742132262531, "labeledLatLngs": [{"label": "display", "lat": 51.504458528871275, "lng": -0.11358742132262531}], "distance": 304, "cc": "GB", "city": "London", "state": "Greater London", "country": "United Kingdom", "formattedAddress": ["Tenison Way", "London", "Greater London", "United Kingdom"]}, "categories": [{"id": "52f2ab2ebcbc57f1066b8b4f", "name": "Bus Stop", "pluralName": "Bus Stops", "shortName": "Bus Stop", "icon": {"prefix": "https://ss3.4sqi.net/img/categories_v2/travel/busstation_", "suffix": ".png"}, "primary": true}], "photos": {"count": 0, "groups": []}}, "referralId": "e-0-4c3c2298933b0f47bfa9e321-36"}, {"reasons": {"count": 0, "items": [{"summary": "This spot is popular", "type": "general", "reasonName": "globalInteractionReason"}]}, "venue": {"id": "4b61d754f964a52053262ae3", "name": "Platform 10", "location": {"address": "London Waterloo Station (WAT)", "lat": 51.5028626347945, "lng": -0.11290386515602445, "labeledLatLngs": [{"label": "display", "lat": 51.5028626347945, "lng": -0.11290386515602445}], "distance": 305, "postalCode": "SE1 8SW", "cc": "GB", "city": "London", "state": "Greater London", "country": "United Kingdom", "formattedAddress": ["London Waterloo Station (WAT)", "London", "Greater London", "SE1 8SW", "United Kingdom"]}, "categories": [{"id": "4f4531504b9074f6e4fb0102", "name": "Platform", "pluralName": "Platforms", "shortName": "Platform", "icon": {"prefix": "https://ss3.4sqi.net/img/categories_v2/travel/trainstation_", "suffix": ".png"}, "primary": true}], "photos": {"count": 0, "groups": []}}, "referralId": "e-0-4b61d754f964a52053262ae3-37"}, {"reasons": {"count": 0, "items": [{"summary": "This spot is popular", "type": "general", "reasonName": "globalInteractionReason"}]}, "venue": {"id": "5659c7f2498e8673ea09695a", "name": "Bus Stop D (St. Thomas' Hospital/County Hall)", "location": {"lat": 51.500627, "lng": -0.119487, "labeledLatLngs": [{"label": "display", "lat": 51.500627, "lng": -0.119487}], "distance": 304, "cc": "GB", "country": "United Kingdom", "formattedAddress": ["United Kingdom"]}, "categories": [{"id": "52f2ab2ebcbc57f1066b8b4f", "name": "Bus Stop", "pluralName": "Bus Stops", "shortName": "Bus Stop", "icon": {"prefix": "https://ss3.4sqi.net/img/categories_v2/travel/busstation_", "suffix": ".png"}, "primary": true}], "photos": {"count": 0, "groups": []}}, "referralId": "e-0-5659c7f2498e8673ea09695a-38"}, {"reasons": {"count": 0, "items": [{"summary": "This spot is popular", "type": "general", "reasonName": "globalInteractionReason"}]}, "venue": {"id": "578fc518498e5b4b67f4685c", "name": "Waterloo Station/Mepham Street Bus Stop", "location": {"address": "Mepham St", "lat": 51.50393, "lng": -0.11308193, "labeledLatLngs": [{"label": "display", "lat": 51.50393, "lng": -0.11308193}], "distance": 310, "postalCode": "SE1 8SQ", "cc": "GB", "city": "London", "state": "Greater London", "country": "United Kingdom", "formattedAddress": ["Mepham St", "London", "Greater London", "SE1 8SQ", "United Kingdom"]}, "categories": [{"id": "52f2ab2ebcbc57f1066b8b4f", "name": "Bus Stop", "pluralName": "Bus Stops", "shortName": "Bus Stop", "icon": {"prefix": "https://ss3.4sqi.net/img/categories_v2/travel/busstation_", "suffix": ".png"}, "primary": true}], "photos": {"count": 0, "groups": []}}, "referralId": "e-0-578fc518498e5b4b67f4685c-39"}, {"reasons": {"count": 0, "items": [{"summary": "This spot is popular", "type": "general", "reasonName": "globalInteractionReason"}]}, "venue": {"id": "4b6ea92af964a520a8c52ce3", "name": "Platform 7", "location": {"address": "London Waterloo Station (WAT)", "lat": 51.502447546022125, "lng": -0.11290036256128513, "labeledLatLngs": [{"label": "display", "lat": 51.502447546022125, "lng": -0.11290036256128513}], "distance": 311, "postalCode": "SE1 8SW", "cc": "GB", "city": "London", "state": "Greater London", "country": "United Kingdom", "formattedAddress": ["London Waterloo Station (WAT)", "London", "Greater London", "SE1 8SW", "United Kingdom"]}, "categories": [{"id": "4f4531504b9074f6e4fb0102", "name": "Platform", "pluralName": "Platforms", "shortName": "Platform", "icon": {"prefix": "https://ss3.4sqi.net/img/categories_v2/travel/trainstation_", "suffix": ".png"}, "primary": true}], "photos": {"count": 0, "groups": []}}, "referralId": "e-0-4b6ea92af964a520a8c52ce3-40"}, {"reasons": {"count": 0, "items": [{"summary": "This spot is popular", "type": "general", "reasonName": "globalInteractionReason"}]}, "venue": {"id": "4f782c16e4b03b459e14c392", "name": "Bus Stop J", "location": {"address": "Waterloo Station", "lat": 51.5042733797366, "lng": -0.11326381903354267, "labeledLatLngs": [{"label": "display", "lat": 51.5042733797366, "lng": -0.11326381903354267}], "distance": 313, "cc": "GB", "country": "United Kingdom", "formattedAddress": ["Waterloo Station", "United Kingdom"]}, "categories": [{"id": "52f2ab2ebcbc57f1066b8b4f", "name": "Bus Stop", "pluralName": "Bus Stops", "shortName": "Bus Stop", "icon": {"prefix": "https://ss3.4sqi.net/img/categories_v2/travel/busstation_", "suffix": ".png"}, "primary": true}], "photos": {"count": 0, "groups": []}}, "referralId": "e-0-4f782c16e4b03b459e14c392-41"}, {"reasons": {"count": 0, "items": [{"summary": "This spot is popular", "type": "general", "reasonName": "globalInteractionReason"}]}, "venue": {"id": "4bea5c29a9900f4751731640", "name": "Waterloo Bus Interchange", "location": {"address": "Tenison Way", "lat": 51.5042549065934, "lng": -0.11324286460876465, "labeledLatLngs": [{"label": "display", "lat": 51.5042549065934, "lng": -0.11324286460876465}], "distance": 313, "postalCode": "SE1 8LN", "cc": "GB", "city": "London", "state": "Greater London", "country": "United Kingdom", "formattedAddress": ["Tenison Way", "London", "Greater London", "SE1 8LN", "United Kingdom"]}, "categories": [{"id": "4bf58dd8d48988d1fe931735", "name": "Bus Station", "pluralName": "Bus Stations", "shortName": "Bus Station", "icon": {"prefix": "https://ss3.4sqi.net/img/categories_v2/travel/busstation_", "suffix": ".png"}, "primary": true}], "photos": {"count": 0, "groups": []}}, "referralId": "e-0-4bea5c29a9900f4751731640-42"}, {"reasons": {"count": 0, "items": [{"summary": "This spot is popular", "type": "general", "reasonName": "globalInteractionReason"}]}, "venue": {"id": "4b596121f964a520908628e3", "name": "Bus Stop H (59337)", "location": {"address": "Waterloo Station", "crossStreet": "at Tenison Way", "lat": 51.50375139974813, "lng": -0.1128795364146301, "labeledLatLngs": [{"label": "display", "lat": 51.50375139974813, "lng": -0.1128795364146301}], "distance": 317, "postalCode": "SE1", "cc": "GB", "city": "Waterloo", "state": "Greater London", "country": "United Kingdom", "formattedAddress": ["Waterloo Station (at Tenison Way)", "Waterloo", "Greater London", " SE1", "United Kingdom"]}, "categories": [{"id": "52f2ab2ebcbc57f1066b8b4f", "name": "Bus Stop", "pluralName": "Bus Stops", "shortName": "Bus Stop", "icon": {"prefix": "https://ss3.4sqi.net/img/categories_v2/travel/busstation_", "suffix": ".png"}, "primary": true}], "photos": {"count": 0, "groups": []}}, "referralId": "e-0-4b596121f964a520908628e3-43"}, {"reasons": {"count": 0, "items": [{"summary": "This spot is popular", "type": "general", "reasonName": "globalInteractionReason"}]}, "venue": {"id": "4b47a837f964a5204b3926e3", "name": "Platform 9", "location": {"address": "London Waterloo Station (WAT)", "lat": 51.50302476469332, "lng": -0.11257860941604976, "labeledLatLngs": [{"label": "display", "lat": 51.50302476469332, "lng": -0.11257860941604976}], "distance": 327, "postalCode": "SE1 8SW", "cc": "GB", "city": "London", "state": "Greater London", "country": "United Kingdom", "formattedAddress": ["London Waterloo Station (WAT)", "London", "Greater London", "SE1 8SW", "United Kingdom"]}, "categories": [{"id": "4f4531504b9074f6e4fb0102", "name": "Platform", "pluralName": "Platforms", "shortName": "Platform", "icon": {"prefix": "https://ss3.4sqi.net/img/categories_v2/travel/trainstation_", "suffix": ".png"}, "primary": true}], "photos": {"count": 0, "groups": []}}, "referralId": "e-0-4b47a837f964a5204b3926e3-44"}, {"reasons": {"count": 0, "items": [{"summary": "This spot is popular", "type": "general", "reasonName": "globalInteractionReason"}]}, "venue": {"id": "4bcae6b7b6c49c74af3f9191", "name": "Thames River Boats", "location": {"address": "Westminster Pier, Victoria Embankment", "lat": 51.50217048523797, "lng": -0.12199680954190148, "labeledLatLngs": [{"label": "display", "lat": 51.50217048523797, "lng": -0.12199680954190148}], "distance": 338, "postalCode": "SW1A 2JH", "cc": "GB", "city": "London", "state": "Greater London", "country": "United Kingdom", "formattedAddress": ["Westminster Pier, Victoria Embankment", "London", "Greater London", "SW1A 2JH", "United Kingdom"]}, "categories": [{"id": "4bf58dd8d48988d12d951735", "name": "Boat or Ferry", "pluralName": "Boats or Ferries", "shortName": "Boat / Ferry", "icon": {"prefix": "https://ss3.4sqi.net/img/categories_v2/travel/boat_", "suffix": ".png"}, "primary": true}], "photos": {"count": 0, "groups": []}}, "referralId": "e-0-4bcae6b7b6c49c74af3f9191-45"}, {"reasons": {"count": 0, "items": [{"summary": "This spot is popular", "type": "general", "reasonName": "globalInteractionReason"}]}, "venue": {"id": "4b4cc64ef964a52050be26e3", "name": "Platform 8", "location": {"address": "London Waterloo Station (WAT)", "lat": 51.502976777841006, "lng": -0.11241333349418522, "labeledLatLngs": [{"label": "display", "lat": 51.502976777841006, "lng": -0.11241333349418522}], "distance": 338, "postalCode": "SE1 8SW", "cc": "GB", "city": "London", "state": "Greater London", "country": "United Kingdom", "formattedAddress": ["London Waterloo Station (WAT)", "London", "Greater London", "SE1 8SW", "United Kingdom"]}, "categories": [{"id": "4f4531504b9074f6e4fb0102", "name": "Platform", "pluralName": "Platforms", "shortName": "Platform", "icon": {"prefix": "https://ss3.4sqi.net/img/categories_v2/travel/trainstation_", "suffix": ".png"}, "primary": true}], "photos": {"count": 0, "groups": []}}, "referralId": "e-0-4b4cc64ef964a52050be26e3-46"}, {"reasons": {"count": 0, "items": [{"summary": "This spot is popular", "type": "general", "reasonName": "globalInteractionReason"}]}, "venue": {"id": "57f37cc6498e6d20a1437ae5", "name": "Bus Stop H: Waterloo Station, Tenison Way (59337)", "location": {"lat": 51.50425, "lng": -0.112817, "labeledLatLngs": [{"label": "display", "lat": 51.50425, "lng": -0.112817}], "distance": 340, "postalCode": "SE1", "cc": "GB", "city": "London", "state": "Greater London", "country": "United Kingdom", "formattedAddress": ["London", "Greater London", "SE1", "United Kingdom"]}, "categories": [{"id": "52f2ab2ebcbc57f1066b8b4f", "name": "Bus Stop", "pluralName": "Bus Stops", "shortName": "Bus Stop", "icon": {"prefix": "https://ss3.4sqi.net/img/categories_v2/travel/busstation_", "suffix": ".png"}, "primary": true}], "photos": {"count": 0, "groups": []}}, "referralId": "e-0-57f37cc6498e6d20a1437ae5-47"}, {"reasons": {"count": 0, "items": [{"summary": "This spot is popular", "type": "general", "reasonName": "globalInteractionReason"}]}, "venue": {"id": "537ef6a7498eb6fba386e3ad", "name": "Platform 21", "location": {"address": "London Waterloo Station (WAT)", "lat": 51.50311371881761, "lng": -0.112288257426638, "labeledLatLngs": [{"label": "display", "lat": 51.50311371881761, "lng": -0.112288257426638}], "distance": 347, "cc": "GB", "city": "Waterloo", "state": "Greater London", "country": "United Kingdom", "formattedAddress": ["London Waterloo Station (WAT)", "Waterloo", "Greater London", "United Kingdom"]}, "categories": [{"id": "4f4531504b9074f6e4fb0102", "name": "Platform", "pluralName": "Platforms", "shortName": "Platform", "icon": {"prefix": "https://ss3.4sqi.net/img/categories_v2/travel/trainstation_", "suffix": ".png"}, "primary": true}], "photos": {"count": 0, "groups": []}}, "referralId": "e-0-537ef6a7498eb6fba386e3ad-48"}, {"reasons": {"count": 0, "items": [{"summary": "This spot is popular", "type": "general", "reasonName": "globalInteractionReason"}]}, "venue": {"id": "4b6cb221f964a520f04c2ce3", "name": "Platform 4", "location": {"address": "London Waterloo Station (WAT)", "lat": 51.50232646794983, "lng": -0.11224967528720016, "labeledLatLngs": [{"label": "display", "lat": 51.50232646794983, "lng": -0.11224967528720016}], "distance": 357, "postalCode": "SE1 8SW", "cc": "GB", "city": "London", "state": "Greater London", "country": "United Kingdom", "formattedAddress": ["London Waterloo Station (WAT)", "London", "Greater London", "SE1 8SW", "United Kingdom"]}, "categories": [{"id": "4f4531504b9074f6e4fb0102", "name": "Platform", "pluralName": "Platforms", "shortName": "Platform", "icon": {"prefix": "https://ss3.4sqi.net/img/categories_v2/travel/trainstation_", "suffix": ".png"}, "primary": true}], "photos": {"count": 0, "groups": []}}, "referralId": "e-0-4b6cb221f964a520f04c2ce3-49"}, {"reasons": {"count": 0, "items": [{"summary": "This spot is popular", "type": "general", "reasonName": "globalInteractionReason"}]}, "venue": {"id": "4b437a82f964a52057e125e3", "name": "Platform 6", "location": {"address": "London Waterloo Station (WAT)", "lat": 51.502612031433955, "lng": -0.11215925216674805, "labeledLatLngs": [{"label": "display", "lat": 51.502612031433955, "lng": -0.11215925216674805}], "distance": 358, "postalCode": "SE1 8SW", "cc": "GB", "city": "London", "state": "Greater London", "country": "United Kingdom", "formattedAddress": ["London Waterloo Station (WAT)", "London", "Greater London", "SE1 8SW", "United Kingdom"]}, "categories": [{"id": "4f4531504b9074f6e4fb0102", "name": "Platform", "pluralName": "Platforms", "shortName": "Platform", "icon": {"prefix": "https://ss3.4sqi.net/img/categories_v2/travel/trainstation_", "suffix": ".png"}, "primary": true}], "photos": {"count": 0, "groups": []}}, "referralId": "e-0-4b437a82f964a52057e125e3-50"}, {"reasons": {"count": 0, "items": [{"summary": "This spot is popular", "type": "general", "reasonName": "globalInteractionReason"}]}, "venue": {"id": "4d172481bb64224b5c5fbe65", "name": "Waterloo Station Upper Taxi Road Bus Stop", "location": {"address": "Waterloo Rd", "lat": 51.50308091137004, "lng": -0.11209089330284627, "labeledLatLngs": [{"label": "display", "lat": 51.50308091137004, "lng": -0.11209089330284627}], "distance": 361, "postalCode": "SE 1 8", "cc": "GB", "city": "London", "state": "Greater London", "country": "United Kingdom", "formattedAddress": ["Waterloo Rd", "London", "Greater London", "SE 1 8", "United Kingdom"]}, "categories": [{"id": "52f2ab2ebcbc57f1066b8b4f", "name": "Bus Stop", "pluralName": "Bus Stops", "shortName": "Bus Stop", "icon": {"prefix": "https://ss3.4sqi.net/img/categories_v2/travel/busstation_", "suffix": ".png"}, "primary": true}], "photos": {"count": 0, "groups": []}}, "referralId": "e-0-4d172481bb64224b5c5fbe65-51"}, {"reasons": {"count": 0, "items": [{"summary": "This spot is popular", "type": "general", "reasonName": "globalInteractionReason"}]}, "venue": {"id": "4c0fdbf3ce640f47c9003952", "name": "Platform 5", "location": {"address": "London Waterloo Station (WAT)", "lat": 51.50239706420834, "lng": -0.11218087171213639, "labeledLatLngs": [{"label": "display", "lat": 51.50239706420834, "lng": -0.11218087171213639}], "distance": 361, "postalCode": "SE1 8SW", "cc": "GB", "city": "London", "state": "Greater London", "country": "United Kingdom", "formattedAddress": ["London Waterloo Station (WAT)", "London", "Greater London", "SE1 8SW", "United Kingdom"]}, "categories": [{"id": "4f4531504b9074f6e4fb0102", "name": "Platform", "pluralName": "Platforms", "shortName": "Platform", "icon": {"prefix": "https://ss3.4sqi.net/img/categories_v2/travel/trainstation_", "suffix": ".png"}, "primary": true}], "photos": {"count": 0, "groups": []}}, "referralId": "e-0-4c0fdbf3ce640f47c9003952-52"}, {"reasons": {"count": 0, "items": [{"summary": "This spot is popular", "type": "general", "reasonName": "globalInteractionReason"}]}, "venue": {"id": "4b5c90b9f964a520e43629e3", "name": "Platform 3", "location": {"address": "London Waterloo Station (WAT)", "lat": 51.50242053059251, "lng": -0.11200864219892871, "labeledLatLngs": [{"label": "display", "lat": 51.50242053059251, "lng": -0.11200864219892871}], "distance": 372, "postalCode": "SE1 8SW", "cc": "GB", "city": "London", "state": "Greater London", "country": "United Kingdom", "formattedAddress": ["London Waterloo Station (WAT)", "London", "Greater London", "SE1 8SW", "United Kingdom"]}, "categories": [{"id": "4f4531504b9074f6e4fb0102", "name": "Platform", "pluralName": "Platforms", "shortName": "Platform", "icon": {"prefix": "https://ss3.4sqi.net/img/categories_v2/travel/trainstation_", "suffix": ".png"}, "primary": true}], "photos": {"count": 0, "groups": []}}, "referralId": "e-0-4b5c90b9f964a520e43629e3-53"}, {"reasons": {"count": 0, "items": [{"summary": "This spot is popular", "type": "general", "reasonName": "globalInteractionReason"}]}, "venue": {"id": "4c47646519fde21ef8230876", "name": "Platform 1", "location": {"address": "London Waterloo Station (WAT)", "lat": 51.502550639649584, "lng": -0.11196263413780104, "labeledLatLngs": [{"label": "display", "lat": 51.502550639649584, "lng": -0.11196263413780104}], "distance": 373, "postalCode": "SE1 8SW", "cc": "GB", "city": "London", "state": "Greater London", "country": "United Kingdom", "formattedAddress": ["London Waterloo Station (WAT)", "London", "Greater London", "SE1 8SW", "United Kingdom"]}, "categories": [{"id": "4f4531504b9074f6e4fb0102", "name": "Platform", "pluralName": "Platforms", "shortName": "Platform", "icon": {"prefix": "https://ss3.4sqi.net/img/categories_v2/travel/trainstation_", "suffix": ".png"}, "primary": true}], "photos": {"count": 0, "groups": []}}, "referralId": "e-0-4c47646519fde21ef8230876-54"}, {"reasons": {"count": 0, "items": [{"summary": "This spot is popular", "type": "general", "reasonName": "globalInteractionReason"}]}, "venue": {"id": "4b1ba7cbf964a52075fc23e3", "name": "Platform 2", "location": {"address": "London Waterloo Station (WAT)", "lat": 51.50250693419107, "lng": -0.111922097380477, "labeledLatLngs": [{"label": "display", "lat": 51.50250693419107, "lng": -0.111922097380477}], "distance": 376, "postalCode": "SE1 8SW", "cc": "GB", "city": "London", "state": "Greater London", "country": "United Kingdom", "formattedAddress": ["London Waterloo Station (WAT)", "London", "Greater London", "SE1 8SW", "United Kingdom"]}, "categories": [{"id": "4f4531504b9074f6e4fb0102", "name": "Platform", "pluralName": "Platforms", "shortName": "Platform", "icon": {"prefix": "https://ss3.4sqi.net/img/categories_v2/travel/trainstation_", "suffix": ".png"}, "primary": true}], "photos": {"count": 0, "groups": []}}, "referralId": "e-0-4b1ba7cbf964a52075fc23e3-55"}, {"reasons": {"count": 0, "items": [{"summary": "This spot is popular", "type": "general", "reasonName": "globalInteractionReason"}]}, "venue": {"id": "4c9117f5ae96a093f797a046", "name": "TfL Santander Cycle Hire", "location": {"address": "Belvedere Rd", "crossStreet": "under Waterloo Br", "lat": 51.506071350015446, "lng": -0.1146697998046875, "labeledLatLngs": [{"label": "display", "lat": 51.506071350015446, "lng": -0.1146697998046875}], "distance": 387, "cc": "GB", "city": "South Bank", "state": "Greater London", "country": "United Kingdom", "formattedAddress": ["Belvedere Rd (under Waterloo Br)", "South Bank", "Greater London", "United Kingdom"]}, "categories": [{"id": "4e4c9077bd41f78e849722f9", "name": "Bike Rental / Bike Share", "pluralName": "Bike Rentals / Bike Shares", "shortName": "Bike", "icon": {"prefix": "https://ss3.4sqi.net/img/categories_v2/shops/bikeshop_", "suffix": ".png"}, "primary": true}], "photos": {"count": 0, "groups": []}}, "referralId": "e-0-4c9117f5ae96a093f797a046-56"}, {"reasons": {"count": 0, "items": [{"summary": "This spot is popular", "type": "general", "reasonName": "globalInteractionReason"}]}, "venue": {"id": "4bb28b49a32876b0aec300fe", "name": "Waterloo Station Taxi Rank", "location": {"address": "Cab Rd", "lat": 51.50271100214978, "lng": -0.11173027379776307, "labeledLatLngs": [{"label": "display", "lat": 51.50271100214978, "lng": -0.11173027379776307}], "distance": 387, "postalCode": "SE1 8SW", "cc": "GB", "city": "London", "state": "Greater London", "country": "United Kingdom", "formattedAddress": ["Cab Rd", "London", "Greater London", "SE1 8SW", "United Kingdom"]}, "categories": [{"id": "53fca564498e1a175f32528b", "name": "Taxi Stand", "pluralName": "Taxi Stands", "shortName": "Taxi Stand", "icon": {"prefix": "https://ss3.4sqi.net/img/categories_v2/travel/taxi_", "suffix": ".png"}, "primary": true}], "photos": {"count": 0, "groups": []}}, "referralId": "e-0-4bb28b49a32876b0aec300fe-57"}, {"reasons": {"count": 0, "items": [{"summary": "This spot is popular", "type": "general", "reasonName": "globalInteractionReason"}]}, "venue": {"id": "4f808a92e4b0ef209840bf59", "name": "Waterloo Bridge / South Bank (P)", "location": {"address": "Waterloo Bridge", "lat": 51.506170268164624, "lng": -0.11489833028195162, "labeledLatLngs": [{"label": "display", "lat": 51.506170268164624, "lng": -0.11489833028195162}], "distance": 390, "cc": "GB", "city": "Waterloo", "state": "Greater London", "country": "United Kingdom", "formattedAddress": ["Waterloo Bridge", "Waterloo", "Greater London", "United Kingdom"]}, "categories": [{"id": "52f2ab2ebcbc57f1066b8b4f", "name": "Bus Stop", "pluralName": "Bus Stops", "shortName": "Bus Stop", "icon": {"prefix": "https://ss3.4sqi.net/img/categories_v2/travel/busstation_", "suffix": ".png"}, "primary": true}], "photos": {"count": 0, "groups": []}}, "referralId": "e-0-4f808a92e4b0ef209840bf59-58"}]}]}}