{"meta": {"code": 200, "requestId": "5fedda874bde931d9e1fc82e"}, "response": {"headerLocation": "Sands End", "headerFullLocation": "Sands End, London", "headerLocationGranularity": "neighborhood", "query": "arts entertainment", "totalResults": 9, "suggestedBounds": {"ne": {"lat": 51.48111000360001, "lng": -0.18286064175405678}, "sw": {"lat": 51.473909996399996, "lng": -0.1943993582459432}}, "groups": [{"type": "Recommended Places", "name": "recommended", "items": [{"reasons": {"count": 0, "items": [{"summary": "This spot is popular", "type": "general", "reasonName": "globalInteractionReason"}]}, "venue": {"id": "4d791a9cece5a1cd9b13a0a4", "name": "Hidde van Seggelen Gallery", "location": {"lat": 51.477028000706795, "lng": -0.18832886300880985, "labeledLatLngs": [{"label": "display", "lat": 51.477028000706795, "lng": -0.18832886300880985}], "distance": 57, "cc": "GB", "country": "United Kingdom", "formattedAddress": ["United Kingdom"]}, "categories": [{"id": "4bf58dd8d48988d1e2931735", "name": "Art Gallery", "pluralName": "Art Galleries", "shortName": "Art Gallery", "icon": {"prefix": "https://ss3.4sqi.net/img/categories_v2/arts_entertainment/artgallery_", "suffix": ".png"}, "primary": true}], "photos": {"count": 0, "groups": []}}, "referralId": "e-0-4d791a9cece5a1cd9b13a0a4-0"}, {"reasons": {"count": 0, "items": [{"summary": "This spot is popular", "type": "general", "reasonName": "globalInteractionReason"}]}, "venue": {"id": "52026620498e70af9f4a23a0", "name": "Picture This", "location": {"address": "599 Kings Road", "lat": 51.478443017787534, "lng": -0.18892988991172371, "labeledLatLngs": [{"label": "display", "lat": 51.478443017787534, "lng": -0.18892988991172371}], "distance": 105, "postalCode": "SW6", "cc": "GB", "country": "United Kingdom", "formattedAddress": ["599 Kings Road", " SW6", "United Kingdom"]}, "categories": [{"id": "4bf58dd8d48988d1e2931735", "name": "Art Gallery", "pluralName": "Art Galleries", "shortName": "Art Gallery", "icon": {"prefix": "https://ss3.4sqi.net/img/categories_v2/arts_entertainment/artgallery_", "suffix": ".png"}, "primary": true}], "photos": {"count": 0, "groups": []}}, "referralId": "e-0-52026620498e70af9f4a23a0-1"}, {"reasons": {"count": 0, "items": [{"summary": "This spot is popular", "type": "general", "reasonName": "globalInteractionReason"}]}, "venue": {"id": "52c81cb0498e75e332645d47", "name": "Trowbridge Gallery", "location": {"address": "555 Kings Road", "lat": 51.479233, "lng": -0.187502, "labeledLatLngs": [{"label": "display", "lat": 51.479233, "lng": -0.187502}], "distance": 207, "cc": "GB", "country": "United Kingdom", "formattedAddress": ["555 Kings Road", "United Kingdom"]}, "categories": [{"id": "4bf58dd8d48988d1e2931735", "name": "Art Gallery", "pluralName": "Art Galleries", "shortName": "Art Gallery", "icon": {"prefix": "https://ss3.4sqi.net/img/categories_v2/arts_entertainment/artgallery_", "suffix": ".png"}, "primary": true}], "photos": {"count": 0, "groups": []}}, "referralId": "e-0-52c81cb0498e75e332645d47-2"}, {"reasons": {"count": 0, "items": [{"summary": "This spot is popular", "type": "general", "reasonName": "globalInteractionReason"}]}, "venue": {"id": "5202683e498e6736151c63ce", "name": "York Gallery", "location": {"address": "569 Kings Rd", "lat": 51.479325, "lng": -0.187488, "labeledLatLngs": [{"label": "display", "lat": 51.479325, "lng": -0.187488}], "distance": 217, "postalCode": "SW6 2EB", "cc": "GB", "city": "London", "state": "Greater London", "country": "United Kingdom", "formattedAddress": ["569 Kings Rd", "London", "Greater London", "SW6 2EB", "United Kingdom"]}, "categories": [{"id": "4bf58dd8d48988d1e2931735", "name": "Art Gallery", "pluralName": "Art Galleries", "shortName": "Art Gallery", "icon": {"prefix": "https://ss3.4sqi.net/img/categories_v2/arts_entertainment/artgallery_", "suffix": ".png"}, "primary": true}], "photos": {"count": 0, "groups": []}}, "referralId": "e-0-5202683e498e6736151c63ce-3"}, {"reasons": {"count": 0, "items": [{"summary": "This spot is popular", "type": "general", "reasonName": "globalInteractionReason"}]}, "venue": {"id": "5202621f498e22dd57b849ef", "name": "20th Century Gallery", "location": {"lat": 51.479262, "lng": -0.191265, "labeledLatLngs": [{"label": "display", "lat": 51.479262, "lng": -0.191265}], "distance": 267, "cc": "GB", "country": "United Kingdom", "formattedAddress": ["United Kingdom"]}, "categories": [{"id": "4bf58dd8d48988d1e2931735", "name": "Art Gallery", "pluralName": "Art Galleries", "shortName": "Art Gallery", "icon": {"prefix": "https://ss3.4sqi.net/img/categories_v2/arts_entertainment/artgallery_", "suffix": ".png"}, "primary": true}], "photos": {"count": 0, "groups": []}}, "referralId": "e-0-5202621f498e22dd57b849ef-4"}, {"reasons": {"count": 0, "items": [{"summary": "This spot is popular", "type": "general", "reasonName": "globalInteractionReason"}]}, "venue": {"id": "53906d26498e70fb6bed78e2", "name": "Piers Feetham Gallery", "location": {"address": "475 Fulham Road", "lat": 51.48022814165569, "lng": -0.1893512148708177, "labeledLatLngs": [{"label": "display", "lat": 51.48022814165569, "lng": -0.1893512148708177}], "distance": 306, "cc": "GB", "country": "United Kingdom", "formattedAddress": ["475 Fulham Road", "United Kingdom"]}, "categories": [{"id": "4bf58dd8d48988d1e2931735", "name": "Art Gallery", "pluralName": "Art Galleries", "shortName": "Art Gallery", "icon": {"prefix": "https://ss3.4sqi.net/img/categories_v2/arts_entertainment/artgallery_", "suffix": ".png"}, "primary": true}], "photos": {"count": 0, "groups": []}}, "referralId": "e-0-53906d26498e70fb6bed78e2-5"}, {"reasons": {"count": 0, "items": [{"summary": "This spot is popular", "type": "general", "reasonName": "globalInteractionReason"}]}, "venue": {"id": "4beaf07aa9900f47ad261740", "name": "Gallery 2", "location": {"lat": 51.48039607850964, "lng": -0.18995962460432889, "labeledLatLngs": [{"label": "display", "lat": 51.48039607850964, "lng": -0.18995962460432889}], "distance": 334, "cc": "GB", "country": "United Kingdom", "formattedAddress": ["United Kingdom"]}, "categories": [{"id": "4bf58dd8d48988d1e2931735", "name": "Art Gallery", "pluralName": "Art Galleries", "shortName": "Art Gallery", "icon": {"prefix": "https://ss3.4sqi.net/img/categories_v2/arts_entertainment/artgallery_", "suffix": ".png"}, "primary": true}], "photos": {"count": 0, "groups": []}}, "referralId": "e-0-4beaf07aa9900f47ad261740-6"}, {"reasons": {"count": 0, "items": [{"summary": "This spot is popular", "type": "general", "reasonName": "globalInteractionReason"}]}, "venue": {"id": "4ce15306d58c60fc944aa66f", "name": "The Lennox Gallery", "location": {"address": "77 Moore Park Road", "lat": 51.479304, "lng": -0.192744, "labeledLatLngs": [{"label": "display", "lat": 51.479304, "lng": -0.192744}], "distance": 348, "postalCode": "SW6 2HH", "cc": "GB", "city": "London", "state": "Greater London", "country": "United Kingdom", "formattedAddress": ["77 Moore Park Road", "London", "Greater London", "SW6 2HH", "United Kingdom"]}, "categories": [{"id": "4bf58dd8d48988d1e2931735", "name": "Art Gallery", "pluralName": "Art Galleries", "shortName": "Art Gallery", "icon": {"prefix": "https://ss3.4sqi.net/img/categories_v2/arts_entertainment/artgallery_", "suffix": ".png"}, "primary": true}], "photos": {"count": 0, "groups": []}}, "referralId": "e-0-4ce15306d58c60fc944aa66f-7"}, {"reasons": {"count": 0, "items": [{"summary": "This spot is popular", "type": "general", "reasonName": "globalInteractionReason"}]}, "venue": {"id": "5327676a498e3740227c0ce2", "name": "London Theatre Workshop", "location": {"address": "65 New Kings Road", "lat": 51.475875525540026, "lng": -0.19347209397670748, "labeledLatLngs": [{"label": "display", "lat": 51.475875525540026, "lng": -0.19347209397670748}], "distance": 381, "postalCode": "SW6 4SG", "cc": "GB", "city": "London", "state": "Greater London", "country": "United Kingdom", "formattedAddress": ["65 New Kings Road", "London", "Greater London", "SW6 4SG", "United Kingdom"]}, "categories": [{"id": "4bf58dd8d48988d135941735", "name": "Indie Theater", "pluralName": "Indie Theaters", "shortName": "Indie", "icon": {"prefix": "https://ss3.4sqi.net/img/categories_v2/arts_entertainment/performingarts_theater_", "suffix": ".png"}, "primary": true}], "photos": {"count": 0, "groups": []}}, "referralId": "e-0-5327676a498e3740227c0ce2-8"}]}]}}