{"meta": {"code": 200, "requestId": "5fedda9df849016e71b92669"}, "response": {"suggestedFilters": {"header": "Tap to show:", "filters": [{"name": "Open now", "key": "openNow"}]}, "headerLocation": "Hoxton", "headerFullLocation": "Hoxton, London", "headerLocationGranularity": "neighborhood", "query": "college education", "totalResults": 50, "suggestedBounds": {"ne": {"lat": 51.530885003600005, "lng": -0.08177733674784504}, "sw": {"lat": 51.52368499639999, "lng": -0.09332866325215497}}, "groups": [{"type": "Recommended Places", "name": "recommended", "items": [{"reasons": {"count": 0, "items": [{"summary": "This spot is popular", "type": "general", "reasonName": "globalInteractionReason"}]}, "venue": {"id": "4b7bca8cf964a5204e6e2fe3", "name": "Mad World Fancy Dress and Costume Hire", "location": {"address": "68-85 Tabernacle Street", "crossStreet": "Entrance in Singer Street", "lat": 51.52561545207469, "lng": -0.0846799824622297, "labeledLatLngs": [{"label": "display", "lat": 51.52561545207469, "lng": -0.0846799824622297}], "distance": 272, "postalCode": "EC2A 4BA", "cc": "GB", "city": "London", "state": "Greater London", "country": "United Kingdom", "formattedAddress": ["68-85 Tabernacle Street (Entrance in Singer Street)", "London", "Greater London", "EC2A 4BA", "United Kingdom"]}, "categories": [{"id": "52f2ab2ebcbc57f1066b8b17", "name": "Costume Shop", "pluralName": "Costume Shops", "shortName": "Costume Shop", "icon": {"prefix": "https://ss3.4sqi.net/img/categories_v2/shops/default_", "suffix": ".png"}, "primary": true}], "photos": {"count": 0, "groups": []}}, "referralId": "e-0-4b7bca8cf964a5204e6e2fe3-0"}, {"reasons": {"count": 0, "items": [{"summary": "This spot is popular", "type": "general", "reasonName": "globalInteractionReason"}]}, "venue": {"id": "4c839c3e8f3295217f0eec7f", "name": "Sh! Women's Erotic Emporium", "location": {"address": "31-35 Pitfield Street", "crossStreet": "Old Street", "lat": 51.52710209294061, "lng": -0.08372783660888672, "labeledLatLngs": [{"label": "display", "lat": 51.52710209294061, "lng": -0.08372783660888672}], "distance": 265, "postalCode": "N1 6HB", "cc": "GB", "city": "London", "state": "Greater London", "country": "United Kingdom", "formattedAddress": ["31-35 Pitfield Street (Old Street)", "London", "Greater London", "N1 6HB", "United Kingdom"]}, "categories": [{"id": "5267e446e4b0ec79466e48c4", "name": "Adult Boutique", "pluralName": "Adult Boutiques", "shortName": "Adult Boutique", "icon": {"prefix": "https://ss3.4sqi.net/img/categories_v2/nightlife/stripclub_", "suffix": ".png"}, "primary": true}], "photos": {"count": 0, "groups": []}, "venuePage": {"id": "51915594"}}, "referralId": "e-0-4c839c3e8f3295217f0eec7f-1"}, {"reasons": {"count": 0, "items": [{"summary": "This spot is popular", "type": "general", "reasonName": "globalInteractionReason"}]}, "venue": {"id": "4e37ec5162e1a8e9cc49f38d", "name": "RT Gifts Cards Lights", "location": {"address": "Old St", "lat": 51.525498, "lng": -0.087237, "labeledLatLngs": [{"label": "display", "lat": 51.525498, "lng": -0.087237}], "distance": 200, "cc": "GB", "neighborhood": "Shoreditch, London, Greater London", "city": "London", "state": "Greater London", "country": "United Kingdom", "formattedAddress": ["Old St", "London", "Greater London", "United Kingdom"]}, "categories": [{"id": "4bf58dd8d48988d128951735", "name": "Gift Shop", "pluralName": "Gift Shops", "shortName": "Gift Shop", "icon": {"prefix": "https://ss3.4sqi.net/img/categories_v2/shops/giftshop_", "suffix": ".png"}, "primary": true}], "photos": {"count": 0, "groups": []}}, "referralId": "e-0-4e37ec5162e1a8e9cc49f38d-2"}, {"reasons": {"count": 0, "items": [{"summary": "This spot is popular", "type": "general", "reasonName": "globalInteractionReason"}]}, "venue": {"id": "52b2f747498ece8cac03e3ae", "name": "Oliver Bonas", "location": {"address": "Unit 1A, 75 City Road", "lat": 51.52474729999999, "lng": -0.08741489999999999, "labeledLatLngs": [{"label": "display", "lat": 51.52474729999999, "lng": -0.08741489999999999}], "distance": 282, "postalCode": "EC1Y 1BD", "cc": "GB", "city": "London", "state": "Greater London", "country": "United Kingdom", "formattedAddress": ["Unit 1A, 75 City Road", "London", "Greater London", "EC1Y 1BD", "United Kingdom"]}, "categories": [{"id": "4bf58dd8d48988d103951735", "name": "Clothing Store", "pluralName": "Clothing Stores", "shortName": "Apparel", "icon": {"prefix": "https://ss3.4sqi.net/img/categories_v2/shops/apparel_", "suffix": ".png"}, "primary": true}], "photos": {"count": 0, "groups": []}}, "referralId": "e-0-52b2f747498ece8cac03e3ae-3"}, {"reasons": {"count": 0, "items": [{"summary": "This spot is popular", "type": "general", "reasonName": "globalInteractionReason"}]}, "venue": {"id": "5e3083337148ab0008668a3e", "name": "M&S Foodhall", "location": {"address": "201 Old Street", "lat": 51.525497, "lng": -0.089718, "labeledLatLngs": [{"label": "display", "lat": 51.525497, "lng": -0.089718}], "distance": 249, "postalCode": "EC1V 9QN", "cc": "GB", "city": "London", "state": "Greater London", "country": "United Kingdom", "formattedAddress": ["201 Old Street", "London", "Greater London", "EC1V 9QN", "United Kingdom"]}, "categories": [{"id": "4bf58dd8d48988d118951735", "name": "Grocery Store", "pluralName": "Grocery Stores", "shortName": "Grocery Store", "icon": {"prefix": "https://ss3.4sqi.net/img/categories_v2/shops/food_grocery_", "suffix": ".png"}, "primary": true}], "photos": {"count": 0, "groups": []}}, "referralId": "e-0-5e3083337148ab0008668a3e-4"}, {"reasons": {"count": 0, "items": [{"summary": "This spot is popular", "type": "general", "reasonName": "globalInteractionReason"}]}, "venue": {"id": "4bcf0fe829d4b7137a78a9dc", "name": "Superdrug", "location": {"address": "201-203 Old St", "lat": 51.525572041762096, "lng": -0.08912825906547688, "labeledLatLngs": [{"label": "display", "lat": 51.525572041762096, "lng": -0.08912825906547688}], "distance": 219, "postalCode": "EC1V 9QN", "cc": "GB", "city": "Shoreditch", "state": "Greater London", "country": "United Kingdom", "formattedAddress": ["201-203 Old St", "Shoreditch", "Greater London", "EC1V 9QN", "United Kingdom"]}, "categories": [{"id": "4bf58dd8d48988d10f951735", "name": "Pharmacy", "pluralName": "Pharmacies", "shortName": "Pharmacy", "icon": {"prefix": "https://ss3.4sqi.net/img/categories_v2/shops/pharmacy_", "suffix": ".png"}, "primary": true}], "photos": {"count": 0, "groups": []}}, "referralId": "e-0-4bcf0fe829d4b7137a78a9dc-5"}, {"reasons": {"count": 0, "items": [{"summary": "This spot is popular", "type": "general", "reasonName": "globalInteractionReason"}]}, "venue": {"id": "4ad4917ff964a52033e820e3", "name": "Co-op Food", "location": {"address": "185 Old St", "crossStreet": "at Bath St", "lat": 51.525438280223625, "lng": -0.090215256633334, "labeledLatLngs": [{"label": "display", "lat": 51.525438280223625, "lng": -0.090215256633334}], "distance": 276, "postalCode": "EC1V 9NP", "cc": "GB", "city": "Shoreditch", "state": "Greater London", "country": "United Kingdom", "formattedAddress": ["185 Old St (at Bath St)", "Shoreditch", "Greater London", "EC1V 9NP", "United Kingdom"]}, "categories": [{"id": "4bf58dd8d48988d118951735", "name": "Grocery Store", "pluralName": "Grocery Stores", "shortName": "Grocery Store", "icon": {"prefix": "https://ss3.4sqi.net/img/categories_v2/shops/food_grocery_", "suffix": ".png"}, "primary": true}], "photos": {"count": 0, "groups": []}}, "referralId": "e-0-4ad4917ff964a52033e820e3-6"}, {"reasons": {"count": 0, "items": [{"summary": "This spot is popular", "type": "general", "reasonName": "globalInteractionReason"}]}, "venue": {"id": "51ba1240498e1276fe8130fb", "name": "Co-op Food", "location": {"address": "76-80 Great Eastern St", "lat": 51.525742570645015, "lng": -0.08280546811166095, "labeledLatLngs": [{"label": "display", "lat": 51.525742570645015, "lng": -0.08280546811166095}], "distance": 370, "postalCode": "EC2A 3JL", "cc": "GB", "city": "Shoreditch", "state": "Greater London", "country": "United Kingdom", "formattedAddress": ["76-80 Great Eastern St", "Shoreditch", "Greater London", "EC2A 3JL", "United Kingdom"]}, "categories": [{"id": "4bf58dd8d48988d118951735", "name": "Grocery Store", "pluralName": "Grocery Stores", "shortName": "Grocery Store", "icon": {"prefix": "https://ss3.4sqi.net/img/categories_v2/shops/food_grocery_", "suffix": ".png"}, "primary": true}], "photos": {"count": 0, "groups": []}}, "referralId": "e-0-51ba1240498e1276fe8130fb-7"}, {"reasons": {"count": 0, "items": [{"summary": "This spot is popular", "type": "general", "reasonName": "globalInteractionReason"}]}, "venue": {"id": "566ea619498e6912529221a9", "name": "Sainsbury's Local", "location": {"address": "159 - 186 City Road", "lat": 51.52797815922467, "lng": -0.08977056020508689, "labeledLatLngs": [{"label": "display", "lat": 51.52797815922467, "lng": -0.08977056020508689}], "distance": 171, "postalCode": "EC1V 1NR", "cc": "GB", "city": "London", "state": "Greater London", "country": "United Kingdom", "formattedAddress": ["159 - 186 City Road", "London", "Greater London", "EC1V 1NR", "United Kingdom"]}, "categories": [{"id": "4bf58dd8d48988d118951735", "name": "Grocery Store", "pluralName": "Grocery Stores", "shortName": "Grocery Store", "icon": {"prefix": "https://ss3.4sqi.net/img/categories_v2/shops/food_grocery_", "suffix": ".png"}, "primary": true}], "photos": {"count": 0, "groups": []}}, "referralId": "e-0-566ea619498e6912529221a9-8"}, {"reasons": {"count": 0, "items": [{"summary": "This spot is popular", "type": "general", "reasonName": "globalInteractionReason"}]}, "venue": {"id": "5b0d30f86fd626002c0c3bee", "name": "W1 Concept Ltd.", "location": {"address": "152 - 160 City Road", "lat": 51.52726490000001, "lng": -0.08892089999994823, "labeledLatLngs": [{"label": "display", "lat": 51.52726490000001, "lng": -0.08892089999994823}], "distance": 94, "postalCode": "EC1V 2NX", "cc": "GB", "city": "London", "state": "Greater London", "country": "United Kingdom", "formattedAddress": ["152 - 160 City Road", "London", "Greater London", "EC1V 2NX", "United Kingdom"]}, "categories": [{"id": "5453de49498eade8af355881", "name": "Business Service", "pluralName": "Business Services", "shortName": "Business Services", "icon": {"prefix": "https://ss3.4sqi.net/img/categories_v2/building/default_", "suffix": ".png"}, "primary": true}], "photos": {"count": 0, "groups": []}, "venuePage": {"id": "488890961"}}, "referralId": "e-0-5b0d30f86fd626002c0c3bee-9"}, {"reasons": {"count": 0, "items": [{"summary": "This spot is popular", "type": "general", "reasonName": "globalInteractionReason"}]}, "venue": {"id": "58aca8e024ca6a5d07a04e25", "name": "Printing Services London", "location": {"address": "152-160 City Road", "lat": 51.52724894017439, "lng": -0.08874893188476562, "labeledLatLngs": [{"label": "display", "lat": 51.52724894017439, "lng": -0.08874893188476562}], "distance": 82, "postalCode": "EC1V 2NX", "cc": "GB", "city": "London", "state": "Greater London", "country": "United Kingdom", "formattedAddress": ["152-160 City Road", "London", "Greater London", "EC1V 2NX", "United Kingdom"]}, "categories": [{"id": "52f2ab2ebcbc57f1066b8b28", "name": "Print Shop", "pluralName": "Print Shops", "shortName": "Print Shop", "icon": {"prefix": "https://ss3.4sqi.net/img/categories_v2/shops/default_", "suffix": ".png"}, "primary": true}], "photos": {"count": 0, "groups": []}, "venuePage": {"id": "396551422"}}, "referralId": "e-0-58aca8e024ca6a5d07a04e25-10"}, {"reasons": {"count": 0, "items": [{"summary": "This spot is popular", "type": "general", "reasonName": "globalInteractionReason"}]}, "venue": {"id": "5a7ec882cf72a03447ac5f36", "name": "Sandakov & Partners LLP", "location": {"address": "152 - 160 City Road", "lat": 51.5272917, "lng": -0.08885409999993499, "labeledLatLngs": [{"label": "display", "lat": 51.5272917, "lng": -0.08885409999993499}], "distance": 90, "postalCode": "EC1V 2NX", "cc": "GB", "city": "London", "state": "Greater London", "country": "United Kingdom", "formattedAddress": ["152 - 160 City Road", "London", "Greater London", "EC1V 2NX", "United Kingdom"]}, "categories": [{"id": "52f2ab2ebcbc57f1066b8b3f", "name": "Lawyer", "pluralName": "Lawyers", "shortName": "Lawyer", "icon": {"prefix": "https://ss3.4sqi.net/img/categories_v2/education/lawschool_", "suffix": ".png"}, "primary": true}], "photos": {"count": 0, "groups": []}, "venuePage": {"id": "477584431"}}, "referralId": "e-0-5a7ec882cf72a03447ac5f36-11"}, {"reasons": {"count": 0, "items": [{"summary": "This spot is popular", "type": "general", "reasonName": "globalInteractionReason"}]}, "venue": {"id": "5c071a3928374e002cbd5385", "name": "Echon Translation Services", "location": {"address": "Kemp House, 152-160, City Rd", "lat": 51.5275, "lng": -0.08931, "labeledLatLngs": [{"label": "display", "lat": 51.5275, "lng": -0.08931}], "distance": 124, "postalCode": "EC1V 2NX", "cc": "GB", "city": "London", "state": "Greater London", "country": "United Kingdom", "formattedAddress": ["Kemp House, 152-160, City Rd", "London", "Greater London", "EC1V 2NX", "United Kingdom"]}, "categories": [{"id": "5453de49498eade8af355881", "name": "Business Service", "pluralName": "Business Services", "shortName": "Business Services", "icon": {"prefix": "https://ss3.4sqi.net/img/categories_v2/building/default_", "suffix": ".png"}, "primary": true}], "photos": {"count": 0, "groups": []}, "venuePage": {"id": "520307126"}}, "referralId": "e-0-5c071a3928374e002cbd5385-12"}, {"reasons": {"count": 0, "items": [{"summary": "This spot is popular", "type": "general", "reasonName": "globalInteractionReason"}]}, "venue": {"id": "5ad99827c4404e47d79d540f", "name": "Hot Food & Salad Bar", "location": {"lat": 51.525713, "lng": -0.087523, "labeledLatLngs": [{"label": "display", "lat": 51.525713, "lng": -0.087523}], "distance": 175, "postalCode": "EC1Y 1BE", "cc": "GB", "city": "London", "state": "Greater London", "country": "United Kingdom", "formattedAddress": ["London", "Greater London", "EC1Y 1BE", "United Kingdom"]}, "categories": [{"id": "52f2ab2ebcbc57f1066b8b41", "name": "Smoothie Shop", "pluralName": "Smoothie Shops", "shortName": "Smoothie Shop", "icon": {"prefix": "https://ss3.4sqi.net/img/categories_v2/food/juicebar_", "suffix": ".png"}, "primary": true}], "photos": {"count": 0, "groups": []}}, "referralId": "e-0-5ad99827c4404e47d79d540f-13"}, {"reasons": {"count": 0, "items": [{"summary": "This spot is popular", "type": "general", "reasonName": "globalInteractionReason"}]}, "venue": {"id": "588723ede0adac3b69161f43", "name": "WAADPLUS Ltd", "location": {"address": "Kemp House, 152-160, City Rd", "lat": 51.52723349999999, "lng": -0.08876039999999999, "labeledLatLngs": [{"label": "display", "lat": 51.52723349999999, "lng": -0.08876039999999999}], "distance": 83, "postalCode": "EC1V 2NX", "cc": "GB", "city": "London", "state": "Greater London", "country": "United Kingdom", "formattedAddress": ["Kemp House, 152-160, City Rd", "London", "Greater London", "EC1V 2NX", "United Kingdom"]}, "categories": [{"id": "52f2ab2ebcbc57f1066b8b36", "name": "IT Services", "pluralName": "IT Services", "shortName": "IT Services", "icon": {"prefix": "https://ss3.4sqi.net/img/categories_v2/shops/technology_", "suffix": ".png"}, "primary": true}], "photos": {"count": 0, "groups": []}, "venuePage": {"id": "394272729"}}, "referralId": "e-0-588723ede0adac3b69161f43-14"}, {"reasons": {"count": 0, "items": [{"summary": "This spot is popular", "type": "general", "reasonName": "globalInteractionReason"}]}, "venue": {"id": "5f195bdfb5d99d7356765631", "name": "ECS Commercial Cleaning Ltd", "location": {"address": "Kemp House, 152-160, City Rd", "lat": 51.527279, "lng": -0.0888519, "labeledLatLngs": [{"label": "display", "lat": 51.527279, "lng": -0.0888519}], "distance": 89, "postalCode": "EC1V 2NX", "cc": "GB", "city": "London", "state": "Greater London", "country": "United Kingdom", "formattedAddress": ["Kemp House, 152-160, City Rd", "London", "Greater London", "EC1V 2NX", "United Kingdom"]}, "categories": [{"id": "545419b1498ea6ccd0202f58", "name": "Home Service", "pluralName": "Home Services & Repairs", "shortName": "Home Services", "icon": {"prefix": "https://ss3.4sqi.net/img/categories_v2/shops/hardware_", "suffix": ".png"}, "primary": true}], "photos": {"count": 0, "groups": []}, "venuePage": {"id": "597173887"}}, "referralId": "e-0-5f195bdfb5d99d7356765631-15"}, {"reasons": {"count": 0, "items": [{"summary": "This spot is popular", "type": "general", "reasonName": "globalInteractionReason"}]}, "venue": {"id": "4f4d185ce4b05ebee47c454b", "name": "Hoxton IT Services", "location": {"address": "5 Britannia Building", "lat": 51.528256, "lng": -0.089354, "labeledLatLngs": [{"label": "display", "lat": 51.528256, "lng": -0.089354}], "distance": 165, "postalCode": "N1 7RP", "cc": "GB", "city": "Greater London", "state": "Greater London", "country": "United Kingdom", "formattedAddress": ["5 Britannia Building", "Greater London", "N1 7RP", "United Kingdom"]}, "categories": [{"id": "52f2ab2ebcbc57f1066b8b36", "name": "IT Services", "pluralName": "IT Services", "shortName": "IT Services", "icon": {"prefix": "https://ss3.4sqi.net/img/categories_v2/shops/technology_", "suffix": ".png"}, "primary": true}], "photos": {"count": 0, "groups": []}, "venuePage": {"id": "54449797"}}, "referralId": "e-0-4f4d185ce4b05ebee47c454b-16"}, {"reasons": {"count": 0, "items": [{"summary": "This spot is popular", "type": "general", "reasonName": "globalInteractionReason"}]}, "venue": {"id": "5fb1777c4197541aa7b327c9", "name": "Glowing Creative", "location": {"address": "64 Nile Street", "lat": 51.5292262, "lng": -0.0883143, "labeledLatLngs": [{"label": "display", "lat": 51.5292262, "lng": -0.0883143}], "distance": 222, "postalCode": "N1 7SR", "cc": "GB", "city": "London", "state": "Greater London", "country": "United Kingdom", "formattedAddress": ["64 Nile Street", "London", "Greater London", "N1 7SR", "United Kingdom"]}, "categories": [{"id": "52f2ab2ebcbc57f1066b8b36", "name": "IT Services", "pluralName": "IT Services", "shortName": "IT Services", "icon": {"prefix": "https://ss3.4sqi.net/img/categories_v2/shops/technology_", "suffix": ".png"}, "primary": true}], "photos": {"count": 0, "groups": []}, "venuePage": {"id": "601664734"}}, "referralId": "e-0-5fb1777c4197541aa7b327c9-17"}, {"reasons": {"count": 0, "items": [{"summary": "This spot is popular", "type": "general", "reasonName": "globalInteractionReason"}]}, "venue": {"id": "4c418923ff711b8d38141205", "name": "Peacocks", "location": {"address": "Old Street", "lat": 51.52548994190398, "lng": -0.09014087656109074, "labeledLatLngs": [{"label": "display", "lat": 51.52548994190398, "lng": -0.09014087656109074}], "distance": 268, "cc": "GB", "city": "London", "state": "Greater London", "country": "United Kingdom", "formattedAddress": ["Old Street", "London", "Greater London", "United Kingdom"]}, "categories": [{"id": "4bf58dd8d48988d103951735", "name": "Clothing Store", "pluralName": "Clothing Stores", "shortName": "Apparel", "icon": {"prefix": "https://ss3.4sqi.net/img/categories_v2/shops/apparel_", "suffix": ".png"}, "primary": true}], "photos": {"count": 0, "groups": []}}, "referralId": "e-0-4c418923ff711b8d38141205-18"}, {"reasons": {"count": 0, "items": [{"summary": "This spot is popular", "type": "general", "reasonName": "globalInteractionReason"}]}, "venue": {"id": "4e08be0418a8382643bc527d", "name": "Orhan London Tailoring", "location": {"address": "25a Pitfield Street", "crossStreet": "Old Street", "lat": 51.52717297308223, "lng": -0.08365363390323084, "labeledLatLngs": [{"label": "display", "lat": 51.52717297308223, "lng": -0.08365363390323084}], "distance": 270, "postalCode": "N1 6HB", "cc": "GB", "city": "Hoxton", "state": "Greater London", "country": "United Kingdom", "formattedAddress": ["25a Pitfield Street (Old Street)", "Hoxton", "Greater London", "N1 6HB", "United Kingdom"]}, "categories": [{"id": "4bf58dd8d48988d104951735", "name": "Boutique", "pluralName": "Boutiques", "shortName": "Boutique", "icon": {"prefix": "https://ss3.4sqi.net/img/categories_v2/shops/apparel_boutique_", "suffix": ".png"}, "primary": true}], "photos": {"count": 0, "groups": []}}, "referralId": "e-0-4e08be0418a8382643bc527d-19"}, {"reasons": {"count": 0, "items": [{"summary": "This spot is popular", "type": "general", "reasonName": "globalInteractionReason"}]}, "venue": {"id": "57e42fdf498e86c648069b03", "name": "Emergency Glazing London", "location": {"address": "86-90 Paul Street", "lat": 51.52606079896935, "lng": -0.08386731147766112, "labeledLatLngs": [{"label": "display", "lat": 51.52606079896935, "lng": -0.08386731147766112}], "distance": 289, "postalCode": "EC2A 4NE", "cc": "GB", "city": "London", "state": "Greater London", "country": "United Kingdom", "formattedAddress": ["86-90 Paul Street", "London", "Greater London", "EC2A 4NE", "United Kingdom"]}, "categories": [{"id": "5453de49498eade8af355881", "name": "Business Service", "pluralName": "Business Services", "shortName": "Business Services", "icon": {"prefix": "https://ss3.4sqi.net/img/categories_v2/building/default_", "suffix": ".png"}, "primary": true}], "photos": {"count": 0, "groups": []}, "venuePage": {"id": "342330289"}}, "referralId": "e-0-57e42fdf498e86c648069b03-20"}, {"reasons": {"count": 0, "items": [{"summary": "This spot is popular", "type": "general", "reasonName": "globalInteractionReason"}]}, "venue": {"id": "5eafc6d80c1734000890aa16", "name": "Real Estate Sagal Office", "location": {"address": "86-90 Paul St", "lat": 51.5256447, "lng": -0.08365299999999999, "labeledLatLngs": [{"label": "display", "lat": 51.5256447, "lng": -0.08365299999999999}], "distance": 326, "postalCode": "EC2A 4NE", "cc": "GB", "city": "London", "state": "Greater London", "country": "United Kingdom", "formattedAddress": ["86-90 Paul St", "London", "Greater London", "EC2A 4NE", "United Kingdom"]}, "categories": [{"id": "5453de49498eade8af355881", "name": "Business Service", "pluralName": "Business Services", "shortName": "Business Services", "icon": {"prefix": "https://ss3.4sqi.net/img/categories_v2/building/default_", "suffix": ".png"}, "primary": true}], "photos": {"count": 0, "groups": []}, "venuePage": {"id": "585996238"}}, "referralId": "e-0-5eafc6d80c1734000890aa16-21"}, {"reasons": {"count": 0, "items": [{"summary": "This spot is popular", "type": "general", "reasonName": "globalInteractionReason"}]}, "venue": {"id": "576ad99f38fa0e98767b539b", "name": "Security Installation Services Ltd", "location": {"address": "86-90 Paul Street", "lat": 51.52570034550782, "lng": -0.08357763290405273, "labeledLatLngs": [{"label": "display", "lat": 51.52570034550782, "lng": -0.08357763290405273}], "distance": 326, "postalCode": "EC2A 4NE", "cc": "GB", "city": "London", "state": "Greater London", "country": "United Kingdom", "formattedAddress": ["86-90 Paul Street", "London", "Greater London", "EC2A 4NE", "United Kingdom"]}, "categories": [{"id": "5453de49498eade8af355881", "name": "Business Service", "pluralName": "Business Services", "shortName": "Business Services", "icon": {"prefix": "https://ss3.4sqi.net/img/categories_v2/building/default_", "suffix": ".png"}, "primary": true}], "photos": {"count": 0, "groups": []}, "venuePage": {"id": "205881335"}}, "referralId": "e-0-576ad99f38fa0e98767b539b-22"}, {"reasons": {"count": 0, "items": [{"summary": "This spot is popular", "type": "general", "reasonName": "globalInteractionReason"}]}, "venue": {"id": "5ad0c764123a1961ab19f37e", "name": "RKR Digital Solutions", "location": {"address": "86-90 Paul St", "lat": 51.52564899999999, "lng": -0.0836001, "labeledLatLngs": [{"label": "display", "lat": 51.52564899999999, "lng": -0.0836001}], "distance": 328, "postalCode": "EC2A 4NE", "cc": "GB", "city": "London", "state": "Greater London", "country": "United Kingdom", "formattedAddress": ["86-90 Paul St", "London", "Greater London", "EC2A 4NE", "United Kingdom"]}, "categories": [{"id": "52f2ab2ebcbc57f1066b8b36", "name": "IT Services", "pluralName": "IT Services", "shortName": "IT Services", "icon": {"prefix": "https://ss3.4sqi.net/img/categories_v2/shops/technology_", "suffix": ".png"}, "primary": true}], "photos": {"count": 0, "groups": []}, "venuePage": {"id": "490042468"}}, "referralId": "e-0-5ad0c764123a1961ab19f37e-23"}, {"reasons": {"count": 0, "items": [{"summary": "This spot is popular", "type": "general", "reasonName": "globalInteractionReason"}]}, "venue": {"id": "56636ece498e9cc52245d1f2", "name": "Think Security Ltd", "location": {"address": "Kemp House", "lat": 51.5272884, "lng": -0.0889283000000205, "labeledLatLngs": [{"label": "display", "lat": 51.5272884, "lng": -0.0889283000000205}], "distance": 95, "postalCode": "EC1V 2NX", "cc": "GB", "city": "London Borough of Islington", "country": "United Kingdom", "formattedAddress": ["Kemp House", "London Borough of Islington", "EC1V 2NX", "United Kingdom"]}, "categories": [{"id": "545419b1498ea6ccd0202f58", "name": "Home Service", "pluralName": "Home Services & Repairs", "shortName": "Home Services", "icon": {"prefix": "https://ss3.4sqi.net/img/categories_v2/shops/hardware_", "suffix": ".png"}, "primary": true}], "photos": {"count": 0, "groups": []}, "venuePage": {"id": "148143353"}}, "referralId": "e-0-56636ece498e9cc52245d1f2-24"}, {"reasons": {"count": 0, "items": [{"summary": "This spot is popular", "type": "general", "reasonName": "globalInteractionReason"}]}, "venue": {"id": "5a8a0697a9fe1264b75c0105", "name": "Spider Screen", "location": {"address": "152-160 City Rd", "lat": 51.5273111, "lng": -0.0888757, "labeledLatLngs": [{"label": "display", "lat": 51.5273111, "lng": -0.0888757}], "distance": 91, "postalCode": "EC1V 2NX", "cc": "GB", "city": "London", "state": "Greater London", "country": "United Kingdom", "formattedAddress": ["152-160 City Rd", "London", "Greater London", "EC1V 2NX", "United Kingdom"]}, "categories": [{"id": "4f04afc02fb6e1c99f3db0bc", "name": "Mobile Phone Shop", "pluralName": "Mobile Phone Shops", "shortName": "Mobile Phones", "icon": {"prefix": "https://ss3.4sqi.net/img/categories_v2/shops/mobilephoneshop_", "suffix": ".png"}, "primary": true}], "photos": {"count": 0, "groups": []}, "venuePage": {"id": "487246761"}}, "referralId": "e-0-5a8a0697a9fe1264b75c0105-25"}, {"reasons": {"count": 0, "items": [{"summary": "This spot is popular", "type": "general", "reasonName": "globalInteractionReason"}]}, "venue": {"id": "5f06add7938b7c3b5e82335e", "name": "Erikas Grig Chartered Surveyors", "location": {"address": "Kemp House, 152-160 City Road", "lat": 51.5273585, "lng": -0.0890292, "labeledLatLngs": [{"label": "display", "lat": 51.5273585, "lng": -0.0890292}], "distance": 102, "postalCode": "EC1V 2NX", "cc": "GB", "city": "London", "state": "Greater London", "country": "United Kingdom", "formattedAddress": ["Kemp House, 152-160 City Road", "London", "Greater London", "EC1V 2NX", "United Kingdom"]}, "categories": [{"id": "5454144b498ec1f095bff2f2", "name": "Construction & Landscaping", "pluralName": "Construction & Landscaping", "shortName": "Construction", "icon": {"prefix": "https://ss3.4sqi.net/img/categories_v2/shops/realestate_", "suffix": ".png"}, "primary": true}], "photos": {"count": 0, "groups": []}, "venuePage": {"id": "588613651"}}, "referralId": "e-0-5f06add7938b7c3b5e82335e-26"}, {"reasons": {"count": 0, "items": [{"summary": "This spot is popular", "type": "general", "reasonName": "globalInteractionReason"}]}, "venue": {"id": "57fd5c41498e2c0997e8dd36", "name": "Pearl Lemon", "location": {"address": "152-160 City Rd", "lat": 51.52732498, "lng": -0.08892922, "labeledLatLngs": [{"label": "display", "lat": 51.52732498, "lng": -0.08892922}], "distance": 95, "postalCode": "EC1V 2NX", "cc": "GB", "city": "London", "state": "Greater London", "country": "United Kingdom", "formattedAddress": ["152-160 City Rd", "London", "Greater London", "EC1V 2NX", "United Kingdom"]}, "categories": [{"id": "5453de49498eade8af355881", "name": "Business Service", "pluralName": "Business Services", "shortName": "Business Services", "icon": {"prefix": "https://ss3.4sqi.net/img/categories_v2/building/default_", "suffix": ".png"}, "primary": true}], "photos": {"count": 0, "groups": []}}, "referralId": "e-0-57fd5c41498e2c0997e8dd36-27"}, {"reasons": {"count": 0, "items": [{"summary": "This spot is popular", "type": "general", "reasonName": "globalInteractionReason"}]}, "venue": {"id": "5f2831b7b230f759ae0a5c7c", "name": "Mulgrave Law", "location": {"address": "152 City Road", "lat": 51.527272, "lng": -0.088879, "labeledLatLngs": [{"label": "display", "lat": 51.527272, "lng": -0.088879}], "distance": 91, "postalCode": "EC1V 2NX", "cc": "GB", "city": "London", "state": "Greater London", "country": "United Kingdom", "formattedAddress": ["152 City Road", "London", "Greater London", "EC1V 2NX", "United Kingdom"]}, "categories": [{"id": "52f2ab2ebcbc57f1066b8b3f", "name": "Lawyer", "pluralName": "Lawyers", "shortName": "Lawyer", "icon": {"prefix": "https://ss3.4sqi.net/img/categories_v2/education/lawschool_", "suffix": ".png"}, "primary": true}], "photos": {"count": 0, "groups": []}}, "referralId": "e-0-5f2831b7b230f759ae0a5c7c-28"}, {"reasons": {"count": 0, "items": [{"summary": "This spot is popular", "type": "general", "reasonName": "globalInteractionReason"}]}, "venue": {"id": "5eace022d1865c000845481e", "name": "HW Executive Search & Interim Management", "location": {"address": "41 Corsham St", "lat": 51.5273215, "lng": -0.0872107, "labeledLatLngs": [{"label": "display", "lat": 51.5273215, "lng": -0.0872107}], "distance": 24, "postalCode": "N1 6DR", "cc": "GB", "city": "Hoxton", "state": "Greater London", "country": "United Kingdom", "formattedAddress": ["41 Corsham St", "Hoxton", "Greater London", "N1 6DR", "United Kingdom"]}, "categories": [{"id": "5453de49498eade8af355881", "name": "Business Service", "pluralName": "Business Services", "shortName": "Business Services", "icon": {"prefix": "https://ss3.4sqi.net/img/categories_v2/building/default_", "suffix": ".png"}, "primary": true}], "photos": {"count": 0, "groups": []}, "venuePage": {"id": "587295192"}}, "referralId": "e-0-5eace022d1865c000845481e-29"}, {"reasons": {"count": 0, "items": [{"summary": "This spot is popular", "type": "general", "reasonName": "globalInteractionReason"}]}, "venue": {"id": "59ce397935d3fc0f9c435cfe", "name": "Kitchens London", "location": {"address": "Kemp House", "crossStreet": "152-160 City Road", "lat": 51.527274304770835, "lng": -0.08872318274370627, "labeledLatLngs": [{"label": "display", "lat": 51.527274304770835, "lng": -0.08872318274370627}], "distance": 81, "postalCode": "EC1V 2NX", "cc": "GB", "city": "London", "state": "Greater London", "country": "United Kingdom", "formattedAddress": ["Kemp House (152-160 City Road)", "London", "Greater London", "EC1V 2NX", "United Kingdom"]}, "categories": [{"id": "58daa1558bbb0b01f18ec1b4", "name": "Kitchen Supply Store", "pluralName": "Kitchen Supply Stores", "shortName": "Kitchen Supply", "icon": {"prefix": "https://ss3.4sqi.net/img/categories_v2/shops/food_butcher_", "suffix": ".png"}, "primary": true}], "photos": {"count": 0, "groups": []}, "venuePage": {"id": "455546922"}}, "referralId": "e-0-59ce397935d3fc0f9c435cfe-30"}, {"reasons": {"count": 0, "items": [{"summary": "This spot is popular", "type": "general", "reasonName": "globalInteractionReason"}]}, "venue": {"id": "575923ddcd10b660e49fcff1", "name": "Farah Williams Ltd", "location": {"address": "Kemp House, 152-160, City Rd", "lat": 51.527285651908855, "lng": -0.0889018177986145, "labeledLatLngs": [{"label": "display", "lat": 51.527285651908855, "lng": -0.0889018177986145}], "distance": 93, "postalCode": "EC1V 2NX", "cc": "GB", "city": "London", "state": "Greater London", "country": "United Kingdom", "formattedAddress": ["Kemp House, 152-160, City Rd", "London", "Greater London", "EC1V 2NX", "United Kingdom"]}, "categories": [{"id": "5453de49498eade8af355881", "name": "Business Service", "pluralName": "Business Services", "shortName": "Business Services", "icon": {"prefix": "https://ss3.4sqi.net/img/categories_v2/building/default_", "suffix": ".png"}, "primary": true}], "photos": {"count": 0, "groups": []}, "venuePage": {"id": "207761460"}}, "referralId": "e-0-575923ddcd10b660e49fcff1-31"}, {"reasons": {"count": 0, "items": [{"summary": "This spot is popular", "type": "general", "reasonName": "globalInteractionReason"}]}, "venue": {"id": "5a9c08e7f8cbd43d52ba5a8e", "name": "LeasedLine Guru", "location": {"address": "152-160 City Road", "crossStreet": "152-160 City Road", "lat": 51.52606079896935, "lng": -0.08796036243438721, "labeledLatLngs": [{"label": "display", "lat": 51.52606079896935, "lng": -0.08796036243438721}], "distance": 139, "postalCode": "EC1V 2NX", "cc": "GB", "city": "London", "state": "Greater London", "country": "United Kingdom", "formattedAddress": ["152-160 City Road (152-160 City Road)", "London", "Greater London", "EC1V 2NX", "United Kingdom"]}, "categories": [{"id": "52f2ab2ebcbc57f1066b8b36", "name": "IT Services", "pluralName": "IT Services", "shortName": "IT Services", "icon": {"prefix": "https://ss3.4sqi.net/img/categories_v2/shops/technology_", "suffix": ".png"}, "primary": true}], "photos": {"count": 0, "groups": []}, "venuePage": {"id": "482207241"}}, "referralId": "e-0-5a9c08e7f8cbd43d52ba5a8e-32"}, {"reasons": {"count": 0, "items": [{"summary": "This spot is popular", "type": "general", "reasonName": "globalInteractionReason"}]}, "venue": {"id": "5e9469e80af88a00083d74e4", "name": "Sds Investigators", "location": {"address": "152-160 City Road", "lat": 51.52744448, "lng": -0.08929839, "labeledLatLngs": [{"label": "display", "lat": 51.52744448, "lng": -0.08929839}], "distance": 122, "postalCode": "EC1V 2NX", "cc": "GB", "city": "London", "state": "Greater London", "country": "United Kingdom", "formattedAddress": ["152-160 City Road", "London", "Greater London", "EC1V 2NX", "United Kingdom"]}, "categories": [{"id": "5453de49498eade8af355881", "name": "Business Service", "pluralName": "Business Services", "shortName": "Business Services", "icon": {"prefix": "https://ss3.4sqi.net/img/categories_v2/building/default_", "suffix": ".png"}, "primary": true}], "photos": {"count": 0, "groups": []}, "venuePage": {"id": "588202564"}}, "referralId": "e-0-5e9469e80af88a00083d74e4-33"}, {"reasons": {"count": 0, "items": [{"summary": "This spot is popular", "type": "general", "reasonName": "globalInteractionReason"}]}, "venue": {"id": "57592006498eb3ac6153b244", "name": "Audio Hire", "location": {"address": "Kemp House, 152-160, City Rd, North Kensington", "lat": 51.5275, "lng": -0.08931, "labeledLatLngs": [{"label": "display", "lat": 51.5275, "lng": -0.08931}], "distance": 124, "postalCode": "EC1V 2NX", "cc": "GB", "city": "Surrey", "state": "Surrey", "country": "United Kingdom", "formattedAddress": ["Kemp House, 152-160, City Rd, North Kensington", "Surrey", "EC1V 2NX", "United Kingdom"]}, "categories": [{"id": "4bf58dd8d48988d122951735", "name": "Electronics Store", "pluralName": "Electronics Stores", "shortName": "Electronics", "icon": {"prefix": "https://ss3.4sqi.net/img/categories_v2/shops/technology_", "suffix": ".png"}, "primary": true}], "photos": {"count": 0, "groups": []}}, "referralId": "e-0-57592006498eb3ac6153b244-34"}, {"reasons": {"count": 0, "items": [{"summary": "This spot is popular", "type": "general", "reasonName": "globalInteractionReason"}]}, "venue": {"id": "583c8a53de0cbc3f337349ae", "name": "#upcloseandpersonal", "location": {"address": "Kemp House 160 City Road", "lat": 51.52728459999999, "lng": -0.08973370000001069, "labeledLatLngs": [{"label": "display", "lat": 51.52728459999999, "lng": -0.08973370000001069}], "distance": 151, "postalCode": "EC1V 2PD", "cc": "GB", "city": "London", "state": "Greater London", "country": "United Kingdom", "formattedAddress": ["Kemp House 160 City Road", "London", "Greater London", "EC1V 2PD", "United Kingdom"]}, "categories": [{"id": "5454152e498ef71e2b9132c6", "name": "Event Service", "pluralName": "Event Services", "shortName": "Event Services", "icon": {"prefix": "https://ss3.4sqi.net/img/categories_v2/event/default_", "suffix": ".png"}, "primary": true}], "photos": {"count": 0, "groups": []}, "venuePage": {"id": "373888341"}}, "referralId": "e-0-583c8a53de0cbc3f337349ae-35"}, {"reasons": {"count": 0, "items": [{"summary": "This spot is popular", "type": "general", "reasonName": "globalInteractionReason"}]}, "venue": {"id": "4d7a677de8b7a1cd5e8a971f", "name": "bookartbookshop", "location": {"address": "17 Pitfield Street", "lat": 51.526828873139856, "lng": -0.08371010969866412, "labeledLatLngs": [{"label": "display", "lat": 51.526828873139856, "lng": -0.08371010969866412}], "distance": 270, "postalCode": "N1 6HP", "cc": "GB", "city": "London", "state": "Greater London", "country": "United Kingdom", "formattedAddress": ["17 Pitfield Street", "London", "Greater London", "N1 6HP", "United Kingdom"]}, "categories": [{"id": "4bf58dd8d48988d114951735", "name": "Bookstore", "pluralName": "Bookstores", "shortName": "Bookstore", "icon": {"prefix": "https://ss3.4sqi.net/img/categories_v2/shops/bookstore_", "suffix": ".png"}, "primary": true}], "photos": {"count": 0, "groups": []}}, "referralId": "e-0-4d7a677de8b7a1cd5e8a971f-36"}, {"reasons": {"count": 0, "items": [{"summary": "This spot is popular", "type": "general", "reasonName": "globalInteractionReason"}]}, "venue": {"id": "4c31d1c1213c2d7fac6f345d", "name": "The City Cobbler", "location": {"address": "215 City Road", "crossStreet": "Bath Street", "lat": 51.528024897542146, "lng": -0.09138959969815488, "labeledLatLngs": [{"label": "display", "lat": 51.528024897542146, "lng": -0.09138959969815488}], "distance": 278, "postalCode": "EC1V 1JN", "cc": "GB", "country": "United Kingdom", "formattedAddress": ["215 City Road (Bath Street)", "EC1V 1JN", "United Kingdom"]}, "categories": [{"id": "52f2ab2ebcbc57f1066b8b39", "name": "Shoe Repair", "pluralName": "Shoe Repair Shops", "shortName": "Shoe Repair", "icon": {"prefix": "https://ss3.4sqi.net/img/categories_v2/shops/apparel_shoestore_", "suffix": ".png"}, "primary": true}], "photos": {"count": 0, "groups": []}}, "referralId": "e-0-4c31d1c1213c2d7fac6f345d-37"}, {"reasons": {"count": 0, "items": [{"summary": "This spot is popular", "type": "general", "reasonName": "globalInteractionReason"}]}, "venue": {"id": "5a7deefbc0f163521eb086a5", "name": "Shop And Go Oriental Supermarket", "location": {"lat": 51.52979, "lng": -0.08695554, "labeledLatLngs": [{"label": "display", "lat": 51.52979, "lng": -0.08695554}], "distance": 281, "postalCode": "N1 6AQ", "cc": "GB", "city": "London", "state": "Greater London", "country": "United Kingdom", "formattedAddress": ["London", "Greater London", "N1 6AQ", "United Kingdom"]}, "categories": [{"id": "52f2ab2ebcbc57f1066b8b46", "name": "Supermarket", "pluralName": "Supermarkets", "shortName": "Supermarket", "icon": {"prefix": "https://ss3.4sqi.net/img/categories_v2/shops/food_grocery_", "suffix": ".png"}, "primary": true}], "photos": {"count": 0, "groups": []}}, "referralId": "e-0-5a7deefbc0f163521eb086a5-38"}, {"reasons": {"count": 0, "items": [{"summary": "This spot is popular", "type": "general", "reasonName": "globalInteractionReason"}]}, "venue": {"id": "51aa8f1c498e2f90a9d881a2", "name": "Sainsbury's Local", "location": {"address": "245 Old St", "crossStreet": "Pitfield St", "lat": 51.52672856103279, "lng": -0.08412689046924271, "labeledLatLngs": [{"label": "display", "lat": 51.52672856103279, "lng": -0.08412689046924271}], "distance": 245, "postalCode": "EC1V 9EY", "cc": "GB", "neighborhood": "Shoreditch, London, Greater London", "city": "London", "state": "Greater London", "country": "United Kingdom", "formattedAddress": ["245 Old St (Pitfield St)", "London", "Greater London", "EC1V 9EY", "United Kingdom"]}, "categories": [{"id": "4bf58dd8d48988d118951735", "name": "Grocery Store", "pluralName": "Grocery Stores", "shortName": "Grocery Store", "icon": {"prefix": "https://ss3.4sqi.net/img/categories_v2/shops/food_grocery_", "suffix": ".png"}, "primary": true}], "photos": {"count": 0, "groups": []}}, "referralId": "e-0-51aa8f1c498e2f90a9d881a2-39"}, {"reasons": {"count": 0, "items": [{"summary": "This spot is popular", "type": "general", "reasonName": "globalInteractionReason"}]}, "venue": {"id": "59bbc9132955130fbfbea091", "name": "Tetra Live-In Care", "location": {"address": "Flat 6, 1, Coronet St", "lat": 51.527402, "lng": -0.083379, "labeledLatLngs": [{"label": "display", "lat": 51.527402, "lng": -0.083379}], "distance": 289, "postalCode": "N1 6AE", "cc": "GB", "city": "London", "state": "Greater London", "country": "United Kingdom", "formattedAddress": ["Flat 6, 1, Coronet St", "London", "Greater London", "N1 6AE", "United Kingdom"]}, "categories": [{"id": "545419b1498ea6ccd0202f58", "name": "Home Service", "pluralName": "Home Services & Repairs", "shortName": "Home Services", "icon": {"prefix": "https://ss3.4sqi.net/img/categories_v2/shops/hardware_", "suffix": ".png"}, "primary": true}], "photos": {"count": 0, "groups": []}}, "referralId": "e-0-59bbc9132955130fbfbea091-40"}, {"reasons": {"count": 0, "items": [{"summary": "This spot is popular", "type": "general", "reasonName": "globalInteractionReason"}]}, "venue": {"id": "5fd519de9260f004657a401b", "name": "Ryan Jarvis Law", "location": {"address": "86-90 Paul Street", "lat": 51.5256447, "lng": -0.083653, "labeledLatLngs": [{"label": "display", "lat": 51.5256447, "lng": -0.083653}], "distance": 326, "postalCode": "EC2A 4NE", "cc": "GB", "city": "London", "state": "Greater London", "country": "United Kingdom", "formattedAddress": ["86-90 Paul Street", "London", "Greater London", "EC2A 4NE", "United Kingdom"]}, "categories": [{"id": "52f2ab2ebcbc57f1066b8b3f", "name": "Lawyer", "pluralName": "Lawyers", "shortName": "Lawyer", "icon": {"prefix": "https://ss3.4sqi.net/img/categories_v2/education/lawschool_", "suffix": ".png"}, "primary": true}], "photos": {"count": 0, "groups": []}, "venuePage": {"id": "1359731702"}}, "referralId": "e-0-5fd519de9260f004657a401b-41"}, {"reasons": {"count": 0, "items": [{"summary": "This spot is popular", "type": "general", "reasonName": "globalInteractionReason"}]}, "venue": {"id": "5a13bf3ac21cb165b68a8a03", "name": "Simpson Furniture Store", "location": {"address": "86-90 Paul St", "lat": 51.5256235, "lng": -0.083661, "labeledLatLngs": [{"label": "display", "lat": 51.5256235, "lng": -0.083661}], "distance": 326, "postalCode": "EC2A 4NE", "cc": "GB", "city": "London", "state": "Greater London", "country": "United Kingdom", "formattedAddress": ["86-90 Paul St", "London", "Greater London", "EC2A 4NE", "United Kingdom"]}, "categories": [{"id": "4bf58dd8d48988d1f8941735", "name": "Furniture / Home Store", "pluralName": "Furniture / Home Stores", "shortName": "Furniture / Home", "icon": {"prefix": "https://ss3.4sqi.net/img/categories_v2/shops/furniture_", "suffix": ".png"}, "primary": true}], "photos": {"count": 0, "groups": []}, "venuePage": {"id": "457643750"}}, "referralId": "e-0-5a13bf3ac21cb165b68a8a03-42"}, {"reasons": {"count": 0, "items": [{"summary": "This spot is popular", "type": "general", "reasonName": "globalInteractionReason"}]}, "venue": {"id": "56a5d44e498e4ab3051aad27", "name": "Private Army Security Systems Ltd", "location": {"address": "86-90, Paul Street", "lat": 51.5256138, "lng": -0.08364869999999999, "labeledLatLngs": [{"label": "display", "lat": 51.5256138, "lng": -0.08364869999999999}], "distance": 328, "postalCode": "EC2A 4NE", "cc": "GB", "city": "London", "state": "Greater London", "country": "United Kingdom", "formattedAddress": ["86-90, Paul Street", "London", "Greater London", "EC2A 4NE", "United Kingdom"]}, "categories": [{"id": "5453de49498eade8af355881", "name": "Business Service", "pluralName": "Business Services", "shortName": "Business Services", "icon": {"prefix": "https://ss3.4sqi.net/img/categories_v2/building/default_", "suffix": ".png"}, "primary": true}], "photos": {"count": 0, "groups": []}, "venuePage": {"id": "219272088"}}, "referralId": "e-0-56a5d44e498e4ab3051aad27-43"}, {"reasons": {"count": 0, "items": [{"summary": "This spot is popular", "type": "general", "reasonName": "globalInteractionReason"}]}, "venue": {"id": "4b3b3e25f964a520c27125e3", "name": "City Style Dry Cleaners", "location": {"address": "206 City Road", "lat": 51.528375480081586, "lng": -0.09202091648214646, "labeledLatLngs": [{"label": "display", "lat": 51.528375480081586, "lng": -0.09202091648214646}], "distance": 332, "postalCode": "EC1V 2PH", "cc": "GB", "city": "Islington", "state": "Greater London", "country": "United Kingdom", "formattedAddress": ["206 City Road", "Islington", "Greater London", "EC1V 2PH", "United Kingdom"]}, "categories": [{"id": "52f2ab2ebcbc57f1066b8b1d", "name": "Dry Cleaner", "pluralName": "Dry Cleaners", "shortName": "Dry Cleaner", "icon": {"prefix": "https://ss3.4sqi.net/img/categories_v2/shops/drycleaner_", "suffix": ".png"}, "primary": true}], "photos": {"count": 0, "groups": []}}, "referralId": "e-0-4b3b3e25f964a520c27125e3-44"}, {"reasons": {"count": 0, "items": [{"summary": "This spot is popular", "type": "general", "reasonName": "globalInteractionReason"}]}, "venue": {"id": "4dc95417c65bdbb2ee92c6e3", "name": "Zeyno Supermarket", "location": {"lat": 51.530601078853394, "lng": -0.08609861229357435, "labeledLatLngs": [{"label": "display", "lat": 51.530601078853394, "lng": -0.08609861229357435}], "distance": 382, "cc": "GB", "city": "Hackney", "state": "Greater London", "country": "United Kingdom", "formattedAddress": ["Hackney", "Greater London", "United Kingdom"]}, "categories": [{"id": "4d954b0ea243a5684a65b473", "name": "Convenience Store", "pluralName": "Convenience Stores", "shortName": "Convenience Store", "icon": {"prefix": "https://ss3.4sqi.net/img/categories_v2/shops/conveniencestore_", "suffix": ".png"}, "primary": true}], "photos": {"count": 0, "groups": []}}, "referralId": "e-0-4dc95417c65bdbb2ee92c6e3-45"}, {"reasons": {"count": 0, "items": [{"summary": "This spot is popular", "type": "general", "reasonName": "globalInteractionReason"}]}, "venue": {"id": "59fdd09267af3a3ba0cb5c21", "name": "Lady Smidgeton's Apothecary", "location": {"address": "3 Galway St", "lat": 51.526871, "lng": -0.09306319999996049, "labeledLatLngs": [{"label": "display", "lat": 51.526871, "lng": -0.09306319999996049}], "distance": 384, "postalCode": "E C1V", "cc": "GB", "city": "London", "state": "Greater London", "country": "United Kingdom", "formattedAddress": ["3 Galway St", "London", "Greater London", "E C1V", "United Kingdom"]}, "categories": [{"id": "54541900498ea6ccd0202697", "name": "Health & Beauty Service", "pluralName": "Health & Beauty Services", "shortName": "Health & Beauty", "icon": {"prefix": "https://ss3.4sqi.net/img/categories_v2/shops/salon_barber_", "suffix": ".png"}, "primary": true}], "photos": {"count": 0, "groups": []}, "venuePage": {"id": "461281216"}}, "referralId": "e-0-59fdd09267af3a3ba0cb5c21-46"}, {"reasons": {"count": 0, "items": [{"summary": "This spot is popular", "type": "general", "reasonName": "globalInteractionReason"}]}, "venue": {"id": "4b542c40f964a520bbb327e3", "name": "Tesco Express", "location": {"address": "100 E Rd", "lat": 51.5301688, "lng": -0.0862951, "labeledLatLngs": [{"label": "display", "lat": 51.5301688, "lng": -0.0862951}], "distance": 332, "postalCode": "N1 6AA", "cc": "GB", "city": "London", "state": "Greater London", "country": "United Kingdom", "formattedAddress": ["100 E Rd", "London", "Greater London", "N1 6AA", "United Kingdom"]}, "categories": [{"id": "4bf58dd8d48988d118951735", "name": "Grocery Store", "pluralName": "Grocery Stores", "shortName": "Grocery Store", "icon": {"prefix": "https://ss3.4sqi.net/img/categories_v2/shops/food_grocery_", "suffix": ".png"}, "primary": true}], "photos": {"count": 0, "groups": []}}, "referralId": "e-0-4b542c40f964a520bbb327e3-47"}, {"reasons": {"count": 0, "items": [{"summary": "This spot is popular", "type": "general", "reasonName": "globalInteractionReason"}]}, "venue": {"id": "4ad49131f964a52032e820e3", "name": "Argos", "location": {"address": "185-197 Old St", "lat": 51.52545391866663, "lng": -0.09014005692287258, "labeledLatLngs": [{"label": "display", "lat": 51.52545391866663, "lng": -0.09014005692287258}], "distance": 271, "postalCode": "EC1V 9JS", "cc": "GB", "city": "London", "state": "Greater London", "country": "United Kingdom", "formattedAddress": ["185-197 Old St", "London", "Greater London", "EC1V 9JS", "United Kingdom"]}, "categories": [{"id": "52e816a6bcbc57f1066b7a54", "name": "Warehouse Store", "pluralName": "Warehouse Stores", "shortName": "Warehouse Store", "icon": {"prefix": "https://ss3.4sqi.net/img/categories_v2/shops/default_", "suffix": ".png"}, "primary": true}], "photos": {"count": 0, "groups": []}}, "referralId": "e-0-4ad49131f964a52032e820e3-48"}, {"reasons": {"count": 0, "items": [{"summary": "This spot is popular", "type": "general", "reasonName": "globalInteractionReason"}]}, "venue": {"id": "4cc843beee718cfabc0eb73d", "name": "Sainsbury's Local", "location": {"address": "91 City Rd", "crossStreet": "Old St Roundabout", "lat": 51.52482670596604, "lng": -0.08735520026820875, "labeledLatLngs": [{"label": "display", "lat": 51.52482670596604, "lng": -0.08735520026820875}], "distance": 273, "postalCode": "EC1Y 1BD", "cc": "GB", "city": "London", "state": "Greater London", "country": "United Kingdom", "formattedAddress": ["91 City Rd (Old St Roundabout)", "London", "Greater London", "EC1Y 1BD", "United Kingdom"]}, "categories": [{"id": "4bf58dd8d48988d118951735", "name": "Grocery Store", "pluralName": "Grocery Stores", "shortName": "Grocery Store", "icon": {"prefix": "https://ss3.4sqi.net/img/categories_v2/shops/food_grocery_", "suffix": ".png"}, "primary": true}], "photos": {"count": 0, "groups": []}}, "referralId": "e-0-4cc843beee718cfabc0eb73d-49"}]}]}}