{"meta": {"code": 200, "requestId": "5feddb36ba6fa474b86565ad"}, "response": {"suggestedFilters": {"header": "Tap to show:", "filters": [{"name": "Open now", "key": "openNow"}]}, "headerLocation": "Homerton", "headerFullLocation": "Homerton, London", "headerLocationGranularity": "neighborhood", "query": "food", "totalResults": 22, "suggestedBounds": {"ne": {"lat": 51.553256003600005, "lng": -0.04775649709778867}, "sw": {"lat": 51.54605599639999, "lng": -0.05931350290221133}}, "groups": [{"type": "Recommended Places", "name": "recommended", "items": [{"reasons": {"count": 0, "items": [{"summary": "This spot is popular", "type": "general", "reasonName": "globalInteractionReason"}]}, "venue": {"id": "583438a99850a010054bbd87", "name": "Charles Good Food", "location": {"address": "51 Lower Clapton Rd", "lat": 51.55088453654192, "lng": -0.052021136699220226, "labeledLatLngs": [{"label": "display", "lat": 51.55088453654192, "lng": -0.052021136699220226}], "distance": 172, "postalCode": "E5 0NS", "cc": "GB", "city": "London", "state": "Greater London", "country": "United Kingdom", "formattedAddress": ["51 Lower Clapton Rd", "London", "Greater London", "E5 0NS", "United Kingdom"]}, "categories": [{"id": "4bf58dd8d48988d16a941735", "name": "Bakery", "pluralName": "Bakeries", "shortName": "Bakery", "icon": {"prefix": "https://ss3.4sqi.net/img/categories_v2/food/bakery_", "suffix": ".png"}, "primary": true}], "photos": {"count": 0, "groups": []}}, "referralId": "e-0-583438a99850a010054bbd87-0"}, {"reasons": {"count": 0, "items": [{"summary": "This spot is popular", "type": "general", "reasonName": "globalInteractionReason"}]}, "venue": {"id": "524f0e1c93cd7c60acf7f56a", "name": "Black Cat", "location": {"address": "76 Clarence Rd", "lat": 51.55141034753273, "lng": -0.055653776980376206, "labeledLatLngs": [{"label": "display", "lat": 51.55141034753273, "lng": -0.055653776980376206}], "distance": 244, "postalCode": "E5 8HB", "cc": "GB", "city": "London", "state": "Greater London", "country": "United Kingdom", "formattedAddress": ["76 Clarence Rd", "Homerton", "Greater London", "E5 8HB", "United Kingdom"]}, "categories": [{"id": "4bf58dd8d48988d1d3941735", "name": "Vegetarian / Vegan Restaurant", "pluralName": "Vegetarian / Vegan Restaurants", "shortName": "Vegetarian / Vegan", "icon": {"prefix": "https://ss3.4sqi.net/img/categories_v2/food/vegetarian_", "suffix": ".png"}, "primary": true}], "photos": {"count": 0, "groups": []}}, "referralId": "e-0-524f0e1c93cd7c60acf7f56a-1"}, {"reasons": {"count": 0, "items": [{"summary": "This spot is popular", "type": "general", "reasonName": "globalInteractionReason"}]}, "venue": {"id": "54b1421e498e65df242a4635", "name": "Tonkotsu Mare Street", "location": {"address": "382 Mare St", "lat": 51.54869677059156, "lng": -0.05500378244070157, "labeledLatLngs": [{"label": "display", "lat": 51.54869677059156, "lng": -0.05500378244070157}], "distance": 147, "postalCode": "E8 1HR", "cc": "GB", "city": "London", "state": "Greater London", "country": "United Kingdom", "formattedAddress": ["382 Mare St", "London", "Greater London", "E8 1HR", "United Kingdom"]}, "categories": [{"id": "55a59bace4b013909087cb24", "name": "Ramen Restaurant", "pluralName": "Ramen Restaurants", "shortName": "Ramen", "icon": {"prefix": "https://ss3.4sqi.net/img/categories_v2/food/ramen_", "suffix": ".png"}, "primary": true}], "photos": {"count": 0, "groups": []}}, "referralId": "e-0-54b1421e498e65df242a4635-2"}, {"reasons": {"count": 0, "items": [{"summary": "This spot is popular", "type": "general", "reasonName": "globalInteractionReason"}]}, "venue": {"id": "538ccc0e498e1f530098cd39", "name": "Yard Sale Pizza", "location": {"address": "105 Lower Clapton Rd", "lat": 51.55211534682703, "lng": -0.05228796192058543, "labeledLatLngs": [{"label": "display", "lat": 51.55211534682703, "lng": -0.05228796192058543}], "distance": 287, "postalCode": "E5 0NP", "cc": "GB", "city": "London", "state": "Greater London", "country": "United Kingdom", "formattedAddress": ["105 Lower Clapton Rd", "London", "Greater London", "E5 0NP", "United Kingdom"]}, "categories": [{"id": "4bf58dd8d48988d1ca941735", "name": "Pizza Place", "pluralName": "Pizza Places", "shortName": "Pizza", "icon": {"prefix": "https://ss3.4sqi.net/img/categories_v2/food/pizza_", "suffix": ".png"}, "primary": true}], "photos": {"count": 0, "groups": []}}, "referralId": "e-0-538ccc0e498e1f530098cd39-3"}, {"reasons": {"count": 0, "items": [{"summary": "This spot is popular", "type": "general", "reasonName": "globalInteractionReason"}]}, "venue": {"id": "4b755c88f964a52039082ee3", "name": "Mess Cafe", "location": {"address": "38 Amhurst Rd", "lat": 51.54803452874419, "lng": -0.05691982991811408, "labeledLatLngs": [{"label": "display", "lat": 51.54803452874419, "lng": -0.05691982991811408}], "distance": 295, "postalCode": "E8 1JN", "cc": "GB", "city": "London", "state": "Greater London", "country": "United Kingdom", "formattedAddress": ["38 Amhurst Rd", "London", "Greater London", "E8 1JN", "United Kingdom"]}, "categories": [{"id": "4bf58dd8d48988d16d941735", "name": "Caf\u00e9", "pluralName": "Caf\u00e9s", "shortName": "Caf\u00e9", "icon": {"prefix": "https://ss3.4sqi.net/img/categories_v2/food/cafe_", "suffix": ".png"}, "primary": true}], "photos": {"count": 0, "groups": []}}, "referralId": "e-0-4b755c88f964a52039082ee3-4"}, {"reasons": {"count": 0, "items": [{"summary": "This spot is popular", "type": "general", "reasonName": "globalInteractionReason"}]}, "venue": {"id": "56f1a6c6498ede8c0376e77c", "name": "Le Merlin", "location": {"address": "78 Lower Clapton Rd", "lat": 51.55282772462672, "lng": -0.052923596484328574, "labeledLatLngs": [{"label": "display", "lat": 51.55282772462672, "lng": -0.052923596484328574}], "distance": 355, "postalCode": "E5 0RN", "cc": "GB", "neighborhood": "Hackney", "city": "London", "state": "Greater London", "country": "United Kingdom", "formattedAddress": ["78 Lower Clapton Rd", "London", "Greater London", "E5 0RN", "United Kingdom"]}, "categories": [{"id": "52e81612bcbc57f1066b79f2", "name": "Creperie", "pluralName": "Creperies", "shortName": "Creperie", "icon": {"prefix": "https://ss3.4sqi.net/img/categories_v2/food/creperie_", "suffix": ".png"}, "primary": true}], "photos": {"count": 0, "groups": []}}, "referralId": "e-0-56f1a6c6498ede8c0376e77c-5"}, {"reasons": {"count": 0, "items": [{"summary": "This spot is popular", "type": "general", "reasonName": "globalInteractionReason"}]}, "venue": {"id": "51362664e4b0e122e7a1845a", "name": "B\u00e1nh M\u00ec H\u1ed9i-An", "location": {"address": "242 Graham Rd", "lat": 51.546685942912745, "lng": -0.055679009600393486, "labeledLatLngs": [{"label": "display", "lat": 51.546685942912745, "lng": -0.055679009600393486}], "distance": 362, "postalCode": "E8 1BP", "cc": "GB", "city": "London", "state": "Greater London", "country": "United Kingdom", "formattedAddress": ["242 Graham Rd", "London", "Greater London", "E8 1BP", "United Kingdom"]}, "categories": [{"id": "4bf58dd8d48988d14a941735", "name": "Vietnamese Restaurant", "pluralName": "Vietnamese Restaurants", "shortName": "Vietnamese", "icon": {"prefix": "https://ss3.4sqi.net/img/categories_v2/food/vietnamese_", "suffix": ".png"}, "primary": true}], "photos": {"count": 0, "groups": []}, "venuePage": {"id": "54425268"}}, "referralId": "e-0-51362664e4b0e122e7a1845a-6"}, {"reasons": {"count": 0, "items": [{"summary": "This spot is popular", "type": "general", "reasonName": "globalInteractionReason"}]}, "venue": {"id": "5c56ef45b9ac38002c71fc4c", "name": "We Are Vegan Everything", "location": {"address": "11 Dispensery Ln", "crossStreet": "Mare St", "lat": 51.548816988445815, "lng": -0.05467414855957031, "labeledLatLngs": [{"label": "display", "lat": 51.548816988445815, "lng": -0.05467414855957031}], "distance": 122, "postalCode": "E8 1FT", "cc": "GB", "neighborhood": "Hackney Central", "city": "London", "state": "Greater London", "country": "United Kingdom", "formattedAddress": ["11 Dispensery Ln (Mare St)", "London", "Greater London", "E8 1FT", "United Kingdom"]}, "categories": [{"id": "4bf58dd8d48988d1d3941735", "name": "Vegetarian / Vegan Restaurant", "pluralName": "Vegetarian / Vegan Restaurants", "shortName": "Vegetarian / Vegan", "icon": {"prefix": "https://ss3.4sqi.net/img/categories_v2/food/vegetarian_", "suffix": ".png"}, "primary": true}], "photos": {"count": 0, "groups": []}}, "referralId": "e-0-5c56ef45b9ac38002c71fc4c-7"}, {"reasons": {"count": 0, "items": [{"summary": "This spot is popular", "type": "general", "reasonName": "globalInteractionReason"}]}, "venue": {"id": "5c71535f31fd14002c2f663f", "name": "Pal\u00e6tte", "location": {"address": "415 Mare St", "lat": 51.549317, "lng": -0.055157, "labeledLatLngs": [{"label": "display", "lat": 51.549317, "lng": -0.055157}], "distance": 118, "postalCode": "E8 1HY", "cc": "GB", "neighborhood": "Hackney Central", "city": "London", "state": "Greater London", "country": "United Kingdom", "formattedAddress": ["415 Mare St", "London", "Greater London", "E8 1HY", "United Kingdom"]}, "categories": [{"id": "4bf58dd8d48988d143941735", "name": "Breakfast Spot", "pluralName": "Breakfast Spots", "shortName": "Breakfast", "icon": {"prefix": "https://ss3.4sqi.net/img/categories_v2/food/breakfast_", "suffix": ".png"}, "primary": true}], "photos": {"count": 0, "groups": []}}, "referralId": "e-0-5c71535f31fd14002c2f663f-8"}, {"reasons": {"count": 0, "items": [{"summary": "This spot is popular", "type": "general", "reasonName": "globalInteractionReason"}]}, "venue": {"id": "59fda08a112c6c13b97861e7", "name": "The Full English", "location": {"address": "96 Lower Clapton Rd", "lat": 51.55323344020466, "lng": -0.05317211151123047, "labeledLatLngs": [{"label": "display", "lat": 51.55323344020466, "lng": -0.05317211151123047}], "distance": 399, "postalCode": "E5 0QR", "cc": "GB", "city": "London", "state": "Greater London", "country": "United Kingdom", "formattedAddress": ["96 Lower Clapton Rd", "London", "Greater London", "E5 0QR", "United Kingdom"]}, "categories": [{"id": "4bf58dd8d48988d147941735", "name": "Diner", "pluralName": "Diners", "shortName": "Diner", "icon": {"prefix": "https://ss3.4sqi.net/img/categories_v2/food/diner_", "suffix": ".png"}, "primary": true}], "photos": {"count": 0, "groups": []}}, "referralId": "e-0-59fda08a112c6c13b97861e7-9"}, {"reasons": {"count": 0, "items": [{"summary": "This spot is popular", "type": "general", "reasonName": "globalInteractionReason"}]}, "venue": {"id": "586cec7ff16bb541f60f2ae9", "name": "Lele's", "location": {"address": "50 Lower Clapton Rd", "lat": 51.55161535616222, "lng": -0.051865760392824076, "labeledLatLngs": [{"label": "display", "lat": 51.55161535616222, "lng": -0.051865760392824076}], "distance": 246, "postalCode": "E5 0RN", "cc": "GB", "neighborhood": "Hackney", "city": "London", "state": "Greater London", "country": "United Kingdom", "formattedAddress": ["50 Lower Clapton Rd", "London", "Greater London", "E5 0RN", "United Kingdom"]}, "categories": [{"id": "4bf58dd8d48988d1d3941735", "name": "Vegetarian / Vegan Restaurant", "pluralName": "Vegetarian / Vegan Restaurants", "shortName": "Vegetarian / Vegan", "icon": {"prefix": "https://ss3.4sqi.net/img/categories_v2/food/vegetarian_", "suffix": ".png"}, "primary": true}], "photos": {"count": 0, "groups": []}}, "referralId": "e-0-586cec7ff16bb541f60f2ae9-10"}, {"reasons": {"count": 0, "items": [{"summary": "This spot is popular", "type": "general", "reasonName": "globalInteractionReason"}]}, "venue": {"id": "5914b0ec75eee46c97fd8466", "name": "The Vincent", "location": {"address": "2 Atkins Sq", "crossStreet": "Dalston Ln", "lat": 51.549640700468736, "lng": -0.05866093251392042, "labeledLatLngs": [{"label": "display", "lat": 51.549640700468736, "lng": -0.05866093251392042}], "distance": 354, "postalCode": "E8 1FA", "cc": "GB", "neighborhood": "Hackney", "city": "Hackney", "state": "Greater London", "country": "United Kingdom", "formattedAddress": ["2 Atkins Sq (Dalston Ln)", "Hackney", "Greater London", "E8 1FA", "United Kingdom"]}, "categories": [{"id": "4bf58dd8d48988d1c4941735", "name": "Restaurant", "pluralName": "Restaurants", "shortName": "Restaurant", "icon": {"prefix": "https://ss3.4sqi.net/img/categories_v2/food/default_", "suffix": ".png"}, "primary": true}], "photos": {"count": 0, "groups": []}}, "referralId": "e-0-5914b0ec75eee46c97fd8466-11"}, {"reasons": {"count": 0, "items": [{"summary": "This spot is popular", "type": "general", "reasonName": "globalInteractionReason"}]}, "venue": {"id": "595567b32aff316018d033ef", "name": "Silver Lining", "location": {"address": "13 Morning Ln", "lat": 51.546154, "lng": -0.054522604, "labeledLatLngs": [{"label": "display", "lat": 51.546154, "lng": -0.054522604}], "distance": 395, "postalCode": "E9 6ND", "cc": "GB", "city": "London", "state": "Greater London", "country": "United Kingdom", "formattedAddress": ["13 Morning Ln", "London", "Greater London", "E9 6ND", "United Kingdom"]}, "categories": [{"id": "52e81612bcbc57f1066b79f9", "name": "Modern European Restaurant", "pluralName": "Modern European Restaurants", "shortName": "Modern European", "icon": {"prefix": "https://ss3.4sqi.net/img/categories_v2/food/default_", "suffix": ".png"}, "primary": true}], "photos": {"count": 0, "groups": []}}, "referralId": "e-0-595567b32aff316018d033ef-12"}, {"reasons": {"count": 0, "items": [{"summary": "This spot is popular", "type": "general", "reasonName": "globalInteractionReason"}]}, "venue": {"id": "59f7229bb6eedb4cee459b31", "name": "The Mokapot House", "location": {"address": "48 Lower Clapton Rd", "lat": 51.551643, "lng": -0.05176261, "labeledLatLngs": [{"label": "display", "lat": 51.551643, "lng": -0.05176261}], "distance": 252, "postalCode": "E5 0RN", "cc": "GB", "city": "London", "state": "Greater London", "country": "United Kingdom", "formattedAddress": ["48 Lower Clapton Rd", "London", "Greater London", "E5 0RN", "United Kingdom"]}, "categories": [{"id": "4bf58dd8d48988d16d941735", "name": "Caf\u00e9", "pluralName": "Caf\u00e9s", "shortName": "Caf\u00e9", "icon": {"prefix": "https://ss3.4sqi.net/img/categories_v2/food/cafe_", "suffix": ".png"}, "primary": true}], "photos": {"count": 0, "groups": []}}, "referralId": "e-0-59f7229bb6eedb4cee459b31-13"}, {"reasons": {"count": 0, "items": [{"summary": "This spot is popular", "type": "general", "reasonName": "globalInteractionReason"}]}, "venue": {"id": "591aef74916bc12edf48366c", "name": "The Barrel Boulangerie", "location": {"address": "316a Mare St", "lat": 51.546401768535944, "lng": -0.05521059036254883, "labeledLatLngs": [{"label": "display", "lat": 51.546401768535944, "lng": -0.05521059036254883}], "distance": 380, "postalCode": "E8 1HA", "cc": "GB", "city": "London", "state": "Greater London", "country": "United Kingdom", "formattedAddress": ["316a Mare St", "London", "Greater London", "E8 1HA", "United Kingdom"]}, "categories": [{"id": "4bf58dd8d48988d16d941735", "name": "Caf\u00e9", "pluralName": "Caf\u00e9s", "shortName": "Caf\u00e9", "icon": {"prefix": "https://ss3.4sqi.net/img/categories_v2/food/cafe_", "suffix": ".png"}, "primary": true}], "photos": {"count": 0, "groups": []}}, "referralId": "e-0-591aef74916bc12edf48366c-14"}, {"reasons": {"count": 0, "items": [{"summary": "This spot is popular", "type": "general", "reasonName": "globalInteractionReason"}]}, "venue": {"id": "55140881498ec6dd813857fa", "name": "Greggs", "location": {"address": "387B Mare St", "lat": 51.548626412593144, "lng": -0.05519108009139018, "labeledLatLngs": [{"label": "display", "lat": 51.548626412593144, "lng": -0.05519108009139018}], "distance": 162, "postalCode": "E8 1HY", "cc": "GB", "city": "London", "state": "Greater London", "country": "United Kingdom", "formattedAddress": ["387B Mare St", "London", "Greater London", "E8 1HY", "United Kingdom"]}, "categories": [{"id": "4bf58dd8d48988d16a941735", "name": "Bakery", "pluralName": "Bakeries", "shortName": "Bakery", "icon": {"prefix": "https://ss3.4sqi.net/img/categories_v2/food/bakery_", "suffix": ".png"}, "primary": true}], "photos": {"count": 0, "groups": []}}, "referralId": "e-0-55140881498ec6dd813857fa-15"}, {"reasons": {"count": 0, "items": [{"summary": "This spot is popular", "type": "general", "reasonName": "globalInteractionReason"}]}, "venue": {"id": "4bfd9eec4cf820a18dbdecf4", "name": "Pizza Hut", "location": {"address": "321 Mare St", "crossStreet": "Graeme Rd", "lat": 51.546585, "lng": -0.055426, "labeledLatLngs": [{"label": "display", "lat": 51.546585, "lng": -0.055426}], "distance": 366, "postalCode": "E8 1EJ", "cc": "GB", "city": "London", "state": "Greater London", "country": "United Kingdom", "formattedAddress": ["321 Mare St (Graeme Rd)", "London", "Greater London", "E8 1EJ", "United Kingdom"]}, "categories": [{"id": "4bf58dd8d48988d1ca941735", "name": "Pizza Place", "pluralName": "Pizza Places", "shortName": "Pizza", "icon": {"prefix": "https://ss3.4sqi.net/img/categories_v2/food/pizza_", "suffix": ".png"}, "primary": true}], "photos": {"count": 0, "groups": []}}, "referralId": "e-0-4bfd9eec4cf820a18dbdecf4-16"}, {"reasons": {"count": 0, "items": [{"summary": "This spot is popular", "type": "general", "reasonName": "globalInteractionReason"}]}, "venue": {"id": "4ba5fe75f964a5204e2d39e3", "name": "Marina Cafe", "location": {"address": "422 Mare St", "lat": 51.549784610145366, "lng": -0.054346920991097426, "labeledLatLngs": [{"label": "display", "lat": 51.549784610145366, "lng": -0.054346920991097426}], "distance": 57, "postalCode": "E8 1HP", "cc": "GB", "city": "London", "state": "Greater London", "country": "United Kingdom", "formattedAddress": ["422 Mare St", "London", "Greater London", "E8 1HP", "United Kingdom"]}, "categories": [{"id": "4bf58dd8d48988d16d941735", "name": "Caf\u00e9", "pluralName": "Caf\u00e9s", "shortName": "Caf\u00e9", "icon": {"prefix": "https://ss3.4sqi.net/img/categories_v2/food/cafe_", "suffix": ".png"}, "primary": true}], "photos": {"count": 0, "groups": []}}, "referralId": "e-0-4ba5fe75f964a5204e2d39e3-17"}, {"reasons": {"count": 0, "items": [{"summary": "This spot is popular", "type": "general", "reasonName": "globalInteractionReason"}]}, "venue": {"id": "4b2adbdcf964a520feb024e3", "name": "Golden States", "location": {"address": "67 Lower Clapton Rd", "lat": 51.551349, "lng": -0.051522, "labeledLatLngs": [{"label": "display", "lat": 51.551349, "lng": -0.051522}], "distance": 234, "postalCode": "E5 0NP", "cc": "GB", "city": "London", "state": "Greater London", "country": "United Kingdom", "formattedAddress": ["67 Lower Clapton Rd", "London", "Greater London", "E5 0NP", "United Kingdom"]}, "categories": [{"id": "4bf58dd8d48988d145941735", "name": "Chinese Restaurant", "pluralName": "Chinese Restaurants", "shortName": "Chinese", "icon": {"prefix": "https://ss3.4sqi.net/img/categories_v2/food/asian_", "suffix": ".png"}, "primary": true}], "photos": {"count": 0, "groups": []}}, "referralId": "e-0-4b2adbdcf964a520feb024e3-18"}, {"reasons": {"count": 0, "items": [{"summary": "This spot is popular", "type": "general", "reasonName": "globalInteractionReason"}]}, "venue": {"id": "4b4c8b09f964a520a6b526e3", "name": "New Noodle Bar", "location": {"address": "9 Morning Ln", "lat": 51.54610747345996, "lng": -0.054293885865382384, "labeledLatLngs": [{"label": "display", "lat": 51.54610747345996, "lng": -0.054293885865382384}], "distance": 398, "postalCode": "E9 6ND", "cc": "GB", "city": "London", "state": "Greater London", "country": "United Kingdom", "formattedAddress": ["9 Morning Ln", "London", "Greater London", "E9 6ND", "United Kingdom"]}, "categories": [{"id": "4bf58dd8d48988d145941735", "name": "Chinese Restaurant", "pluralName": "Chinese Restaurants", "shortName": "Chinese", "icon": {"prefix": "https://ss3.4sqi.net/img/categories_v2/food/asian_", "suffix": ".png"}, "primary": true}], "photos": {"count": 0, "groups": []}}, "referralId": "e-0-4b4c8b09f964a520a6b526e3-19"}, {"reasons": {"count": 0, "items": [{"summary": "This spot is popular", "type": "general", "reasonName": "globalInteractionReason"}]}, "venue": {"id": "4bf789704a67c928abdf23cf", "name": "Amhurst Cafe", "location": {"address": "30 Amhurst Rd", "lat": 51.547919, "lng": -0.056786, "labeledLatLngs": [{"label": "display", "lat": 51.547919, "lng": -0.056786}], "distance": 296, "postalCode": "E8 1JN", "cc": "GB", "city": "London", "state": "Greater London", "country": "United Kingdom", "formattedAddress": ["30 Amhurst Rd", "London", "Greater London", "E8 1JN", "United Kingdom"]}, "categories": [{"id": "4bf58dd8d48988d16d941735", "name": "Caf\u00e9", "pluralName": "Caf\u00e9s", "shortName": "Caf\u00e9", "icon": {"prefix": "https://ss3.4sqi.net/img/categories_v2/food/cafe_", "suffix": ".png"}, "primary": true}], "photos": {"count": 0, "groups": []}}, "referralId": "e-0-4bf789704a67c928abdf23cf-20"}, {"reasons": {"count": 0, "items": [{"summary": "This spot is popular", "type": "general", "reasonName": "globalInteractionReason"}]}, "venue": {"id": "4cde9bed7e2e236a7e39801b", "name": "Venice Cafe", "location": {"address": "313a Mare St", "lat": 51.54627617838654, "lng": -0.055359424553177224, "labeledLatLngs": [{"label": "display", "lat": 51.54627617838654, "lng": -0.055359424553177224}], "distance": 396, "postalCode": "E8 1EJ", "cc": "GB", "city": "London", "state": "Greater London", "country": "United Kingdom", "formattedAddress": ["313a Mare St", "London", "Greater London", "E8 1EJ", "United Kingdom"]}, "categories": [{"id": "4bf58dd8d48988d16d941735", "name": "Caf\u00e9", "pluralName": "Caf\u00e9s", "shortName": "Caf\u00e9", "icon": {"prefix": "https://ss3.4sqi.net/img/categories_v2/food/cafe_", "suffix": ".png"}, "primary": true}], "photos": {"count": 0, "groups": []}}, "referralId": "e-0-4cde9bed7e2e236a7e39801b-21"}]}]}}