{"meta": {"code": 200, "requestId": "5feddad3f26a273600f5b2e4"}, "response": {"suggestedFilters": {"header": "Tap to show:", "filters": [{"name": "Open now", "key": "openNow"}]}, "headerLocation": "Hackney", "headerFullLocation": "Hackney, London", "headerLocationGranularity": "neighborhood", "query": "food", "totalResults": 20, "suggestedBounds": {"ne": {"lat": 51.534665003600004, "lng": -0.066050857193493}, "sw": {"lat": 51.52746499639999, "lng": -0.077603142806507}}, "groups": [{"type": "Recommended Places", "name": "recommended", "items": [{"reasons": {"count": 0, "items": [{"summary": "This spot is popular", "type": "general", "reasonName": "globalInteractionReason"}]}, "venue": {"id": "572dcf4b498e6743a25b14dc", "name": "Morito", "location": {"address": "195 Hackney Rd", "lat": 51.530903807600346, "lng": -0.0721104801932266, "labeledLatLngs": [{"label": "display", "lat": 51.530903807600346, "lng": -0.0721104801932266}], "distance": 26, "postalCode": "E2 8JL", "cc": "GB", "neighborhood": "Hackney", "city": "London", "state": "Greater London", "country": "United Kingdom", "formattedAddress": ["195 Hackney Rd", "London", "Greater London", "E2 8JL", "United Kingdom"]}, "categories": [{"id": "4bf58dd8d48988d1db931735", "name": "Tapas Restaurant", "pluralName": "Tapas Restaurants", "shortName": "Tapas", "icon": {"prefix": "https://ss3.4sqi.net/img/categories_v2/food/tapas_", "suffix": ".png"}, "primary": true}], "photos": {"count": 0, "groups": []}, "venuePage": {"id": "354125193"}}, "referralId": "e-0-572dcf4b498e6743a25b14dc-0"}, {"reasons": {"count": 0, "items": [{"summary": "This spot is popular", "type": "general", "reasonName": "globalInteractionReason"}]}, "venue": {"id": "4ceed4e213aea143e6e16f9f", "name": "Brawn", "location": {"address": "49 Columbia Rd", "lat": 51.528912924034444, "lng": -0.0703129817333181, "labeledLatLngs": [{"label": "display", "lat": 51.528912924034444, "lng": -0.0703129817333181}], "distance": 261, "postalCode": "E2 7RG", "cc": "GB", "city": "Shoreditch", "state": "Greater London", "country": "United Kingdom", "formattedAddress": ["49 Columbia Rd", "Shoreditch", "Greater London", "E2 7RG", "United Kingdom"]}, "categories": [{"id": "4bf58dd8d48988d1c4941735", "name": "Restaurant", "pluralName": "Restaurants", "shortName": "Restaurant", "icon": {"prefix": "https://ss3.4sqi.net/img/categories_v2/food/default_", "suffix": ".png"}, "primary": true}], "photos": {"count": 0, "groups": []}}, "referralId": "e-0-4ceed4e213aea143e6e16f9f-1"}, {"reasons": {"count": 0, "items": [{"summary": "This spot is popular", "type": "general", "reasonName": "globalInteractionReason"}]}, "venue": {"id": "4b08090bf964a520ad0223e3", "name": "Premises Cafe Bistro", "location": {"address": "209 Hackney Rd", "crossStreet": "near Ravenscroft Street", "lat": 51.531008017168325, "lng": -0.07147688077628597, "labeledLatLngs": [{"label": "display", "lat": 51.531008017168325, "lng": -0.07147688077628597}], "distance": 25, "postalCode": "E2 8JL", "cc": "GB", "city": "London", "state": "Greater London", "country": "United Kingdom", "formattedAddress": ["209 Hackney Rd (near Ravenscroft Street)", "Haggerston", "Greater London", "E2 8JL", "United Kingdom"]}, "categories": [{"id": "4bf58dd8d48988d16d941735", "name": "Caf\u00e9", "pluralName": "Caf\u00e9s", "shortName": "Caf\u00e9", "icon": {"prefix": "https://ss3.4sqi.net/img/categories_v2/food/cafe_", "suffix": ".png"}, "primary": true}], "photos": {"count": 0, "groups": []}}, "referralId": "e-0-4b08090bf964a520ad0223e3-2"}, {"reasons": {"count": 0, "items": [{"summary": "This spot is popular", "type": "general", "reasonName": "globalInteractionReason"}]}, "venue": {"id": "555a43d5498e549e358f3625", "name": "Marksman", "location": {"address": "254 Hackney Rd", "crossStreet": "Queensbridge Rd", "lat": 51.530947, "lng": -0.069542, "labeledLatLngs": [{"label": "display", "lat": 51.530947, "lng": -0.069542}], "distance": 158, "postalCode": "E2 7SJ", "cc": "GB", "city": "London", "state": "Greater London", "country": "United Kingdom", "formattedAddress": ["254 Hackney Rd (Queensbridge Rd)", "London", "Greater London", "E2 7SJ", "United Kingdom"]}, "categories": [{"id": "4bf58dd8d48988d155941735", "name": "Gastropub", "pluralName": "Gastropubs", "shortName": "Gastropub", "icon": {"prefix": "https://ss3.4sqi.net/img/categories_v2/food/gastropub_", "suffix": ".png"}, "primary": true}], "photos": {"count": 0, "groups": []}}, "referralId": "e-0-555a43d5498e549e358f3625-3"}, {"reasons": {"count": 0, "items": [{"summary": "This spot is popular", "type": "general", "reasonName": "globalInteractionReason"}]}, "venue": {"id": "529f9914498edf741fd295d2", "name": "Clutch", "location": {"address": "4 Ravenscroft St", "lat": 51.529822119951305, "lng": -0.07105610181975072, "labeledLatLngs": [{"label": "display", "lat": 51.529822119951305, "lng": -0.07105610181975072}], "distance": 148, "postalCode": "E2 7QG", "cc": "GB", "city": "London", "state": "Greater London", "country": "United Kingdom", "formattedAddress": ["4 Ravenscroft St", "Tower Hamlets", "Greater London", "E2 7QG", "United Kingdom"]}, "categories": [{"id": "4d4ae6fc7a7b7dea34424761", "name": "Fried Chicken Joint", "pluralName": "Fried Chicken Joints", "shortName": "Fried Chicken", "icon": {"prefix": "https://ss3.4sqi.net/img/categories_v2/food/friedchicken_", "suffix": ".png"}, "primary": true}], "photos": {"count": 0, "groups": []}}, "referralId": "e-0-529f9914498edf741fd295d2-4"}, {"reasons": {"count": 0, "items": [{"summary": "This spot is popular", "type": "general", "reasonName": "globalInteractionReason"}]}, "venue": {"id": "50b0bbf4e4b0a2172dcf18a4", "name": "Fabrique Bakery", "location": {"address": "Arch 385", "crossStreet": "Geffryre Street", "lat": 51.532036, "lng": -0.07566042, "labeledLatLngs": [{"label": "display", "lat": 51.532036, "lng": -0.07566042}], "distance": 286, "postalCode": "E2 8HZ", "cc": "GB", "neighborhood": "Hackney", "city": "London", "state": "Greater London", "country": "United Kingdom", "formattedAddress": ["Arch 385 (Geffryre Street)", "London", "Greater London", "E2 8HZ", "United Kingdom"]}, "categories": [{"id": "4bf58dd8d48988d16a941735", "name": "Bakery", "pluralName": "Bakeries", "shortName": "Bakery", "icon": {"prefix": "https://ss3.4sqi.net/img/categories_v2/food/bakery_", "suffix": ".png"}, "primary": true}], "photos": {"count": 0, "groups": []}}, "referralId": "e-0-50b0bbf4e4b0a2172dcf18a4-5"}, {"reasons": {"count": 0, "items": [{"summary": "This spot is popular", "type": "general", "reasonName": "globalInteractionReason"}]}, "venue": {"id": "4bb5fb2cf562ef3b93732f97", "name": "Campania Gastronomia", "location": {"address": "95 Columbia Road", "crossStreet": "Barnet Grove", "lat": 51.529850795667194, "lng": -0.06868630681944737, "labeledLatLngs": [{"label": "display", "lat": 51.529850795667194, "lng": -0.06868630681944737}], "distance": 256, "postalCode": "E2  7RG", "cc": "GB", "neighborhood": "Tower Hamlets", "city": "Bethnal Green", "state": "Greater London", "country": "United Kingdom", "formattedAddress": ["95 Columbia Road (Barnet Grove)", "Bethnal Green", "Greater London", "E2  7RG", "United Kingdom"]}, "categories": [{"id": "4bf58dd8d48988d110941735", "name": "Italian Restaurant", "pluralName": "Italian Restaurants", "shortName": "Italian", "icon": {"prefix": "https://ss3.4sqi.net/img/categories_v2/food/italian_", "suffix": ".png"}, "primary": true}], "photos": {"count": 0, "groups": []}}, "referralId": "e-0-4bb5fb2cf562ef3b93732f97-6"}, {"reasons": {"count": 0, "items": [{"summary": "This spot is popular", "type": "general", "reasonName": "globalInteractionReason"}]}, "venue": {"id": "572f580c498e77d16cfe8945", "name": "Pavilion Bakery", "location": {"address": "Columbia Road", "lat": 51.52926176852781, "lng": -0.06958545795762676, "labeledLatLngs": [{"label": "display", "lat": 51.52926176852781, "lng": -0.06958545795762676}], "distance": 253, "cc": "GB", "city": "Hoxton", "state": "Greater London", "country": "United Kingdom", "formattedAddress": ["Columbia Road", "Hoxton", "Greater London", "United Kingdom"]}, "categories": [{"id": "4bf58dd8d48988d16a941735", "name": "Bakery", "pluralName": "Bakeries", "shortName": "Bakery", "icon": {"prefix": "https://ss3.4sqi.net/img/categories_v2/food/bakery_", "suffix": ".png"}, "primary": true}], "photos": {"count": 0, "groups": []}}, "referralId": "e-0-572f580c498e77d16cfe8945-7"}, {"reasons": {"count": 0, "items": [{"summary": "This spot is popular", "type": "general", "reasonName": "globalInteractionReason"}]}, "venue": {"id": "4b127df2f964a5203a8a23e3", "name": "Laxeiro", "location": {"address": "93 Columbia Rd.", "lat": 51.52981414968927, "lng": -0.06869989303600905, "labeledLatLngs": [{"label": "display", "lat": 51.52981414968927, "lng": -0.06869989303600905}], "distance": 257, "postalCode": "E2 7RG", "cc": "GB", "city": "London", "state": "Greater London", "country": "United Kingdom", "formattedAddress": ["93 Columbia Rd.", "London", "Greater London", "E2 7RG", "United Kingdom"]}, "categories": [{"id": "4bf58dd8d48988d1db931735", "name": "Tapas Restaurant", "pluralName": "Tapas Restaurants", "shortName": "Tapas", "icon": {"prefix": "https://ss3.4sqi.net/img/categories_v2/food/tapas_", "suffix": ".png"}, "primary": true}], "photos": {"count": 0, "groups": []}}, "referralId": "e-0-4b127df2f964a5203a8a23e3-8"}, {"reasons": {"count": 0, "items": [{"summary": "This spot is popular", "type": "general", "reasonName": "globalInteractionReason"}]}, "venue": {"id": "54086528498e4f691ec091b3", "name": "BunBunBun Vietnamese Food", "location": {"address": "134B Kingsland Rd", "lat": 51.53093012782418, "lng": -0.07708444328536329, "labeledLatLngs": [{"label": "display", "lat": 51.53093012782418, "lng": -0.07708444328536329}], "distance": 364, "postalCode": "E2 8DY", "cc": "GB", "city": "London", "state": "Greater London", "country": "United Kingdom", "formattedAddress": ["134B Kingsland Rd", "London", "Greater London", "E2 8DY", "United Kingdom"]}, "categories": [{"id": "4bf58dd8d48988d14a941735", "name": "Vietnamese Restaurant", "pluralName": "Vietnamese Restaurants", "shortName": "Vietnamese", "icon": {"prefix": "https://ss3.4sqi.net/img/categories_v2/food/vietnamese_", "suffix": ".png"}, "primary": true}], "photos": {"count": 0, "groups": []}, "venuePage": {"id": "96617935"}}, "referralId": "e-0-54086528498e4f691ec091b3-9"}, {"reasons": {"count": 0, "items": [{"summary": "This spot is popular", "type": "general", "reasonName": "globalInteractionReason"}]}, "venue": {"id": "4acf3132f964a520aed220e3", "name": "S\u00f4ng Qu\u00ea", "location": {"address": "134 Kingsland Rd", "crossStreet": "Falkirk St", "lat": 51.53069111901953, "lng": -0.07708650216838302, "labeledLatLngs": [{"label": "display", "lat": 51.53069111901953, "lng": -0.07708650216838302}], "distance": 366, "postalCode": "E2 8DY", "cc": "GB", "neighborhood": "Hoxton, London, Greater London", "city": "Hoxton", "state": "Greater London", "country": "United Kingdom", "formattedAddress": ["134 Kingsland Rd (Falkirk St)", "Hoxton", "Greater London", "E2 8DY", "United Kingdom"]}, "categories": [{"id": "4bf58dd8d48988d14a941735", "name": "Vietnamese Restaurant", "pluralName": "Vietnamese Restaurants", "shortName": "Vietnamese", "icon": {"prefix": "https://ss3.4sqi.net/img/categories_v2/food/vietnamese_", "suffix": ".png"}, "primary": true}], "photos": {"count": 0, "groups": []}}, "referralId": "e-0-4acf3132f964a520aed220e3-10"}, {"reasons": {"count": 0, "items": [{"summary": "This spot is popular", "type": "general", "reasonName": "globalInteractionReason"}]}, "venue": {"id": "4f256932e4b0a93fbfe0a57b", "name": "Hundred Years Gallery Cafe", "location": {"address": "13 Pearson Street", "lat": 51.53301803009266, "lng": -0.07615622383906907, "labeledLatLngs": [{"label": "display", "lat": 51.53301803009266, "lng": -0.07615622383906907}], "distance": 370, "postalCode": "E2 8JD", "cc": "GB", "city": "London", "state": "Greater London", "country": "United Kingdom", "formattedAddress": ["13 Pearson Street", "London", "Greater London", "E2 8JD", "United Kingdom"]}, "categories": [{"id": "4bf58dd8d48988d16d941735", "name": "Caf\u00e9", "pluralName": "Caf\u00e9s", "shortName": "Caf\u00e9", "icon": {"prefix": "https://ss3.4sqi.net/img/categories_v2/food/cafe_", "suffix": ".png"}, "primary": true}], "photos": {"count": 0, "groups": []}}, "referralId": "e-0-4f256932e4b0a93fbfe0a57b-11"}, {"reasons": {"count": 0, "items": [{"summary": "This spot is popular", "type": "general", "reasonName": "globalInteractionReason"}]}, "venue": {"id": "4af55318f964a520cef821e3", "name": "Frizzante", "location": {"address": "Hackney City Farm, 1a Goldsmiths Row", "crossStreet": "Hackney Road", "lat": 51.5316948795553, "lng": -0.06639513778714735, "labeledLatLngs": [{"label": "display", "lat": 51.5316948795553, "lng": -0.06639513778714735}], "distance": 382, "postalCode": "E2 8QA", "cc": "GB", "city": "London", "state": "Greater London", "country": "United Kingdom", "formattedAddress": ["Hackney City Farm, 1a Goldsmiths Row (Hackney Road)", "Haggerston", "Greater London", "E2 8QA", "United Kingdom"]}, "categories": [{"id": "4bf58dd8d48988d110941735", "name": "Italian Restaurant", "pluralName": "Italian Restaurants", "shortName": "Italian", "icon": {"prefix": "https://ss3.4sqi.net/img/categories_v2/food/italian_", "suffix": ".png"}, "primary": true}], "photos": {"count": 0, "groups": []}}, "referralId": "e-0-4af55318f964a520cef821e3-12"}, {"reasons": {"count": 0, "items": [{"summary": "This spot is popular", "type": "general", "reasonName": "globalInteractionReason"}]}, "venue": {"id": "4e07092918a8382643b1bca3", "name": "Long White Cloud", "location": {"address": "151 Hackney Rd.", "lat": 51.53038835195166, "lng": -0.07357744459981226, "labeledLatLngs": [{"label": "display", "lat": 51.53038835195166, "lng": -0.07357744459981226}], "distance": 142, "postalCode": "E2 8JL", "cc": "GB", "city": "Hoxton", "state": "Greater London", "country": "United Kingdom", "formattedAddress": ["151 Hackney Rd.", "Hoxton", "Greater London", "E2 8JL", "United Kingdom"]}, "categories": [{"id": "4bf58dd8d48988d16d941735", "name": "Caf\u00e9", "pluralName": "Caf\u00e9s", "shortName": "Caf\u00e9", "icon": {"prefix": "https://ss3.4sqi.net/img/categories_v2/food/cafe_", "suffix": ".png"}, "primary": true}], "photos": {"count": 0, "groups": []}}, "referralId": "e-0-4e07092918a8382643b1bca3-13"}, {"reasons": {"count": 0, "items": [{"summary": "This spot is popular", "type": "general", "reasonName": "globalInteractionReason"}]}, "venue": {"id": "52e01f72498ec75d48300391", "name": "Green Papaya", "location": {"address": "97 Kingsland Road", "lat": 51.5305599001313, "lng": -0.0772069554136478, "labeledLatLngs": [{"label": "display", "lat": 51.5305599001313, "lng": -0.0772069554136478}], "distance": 376, "postalCode": "E2 8AG", "cc": "GB", "city": "Hoxton", "state": "Greater London", "country": "United Kingdom", "formattedAddress": ["97 Kingsland Road", "Hoxton", "Greater London", "E2 8AG", "United Kingdom"]}, "categories": [{"id": "4bf58dd8d48988d14a941735", "name": "Vietnamese Restaurant", "pluralName": "Vietnamese Restaurants", "shortName": "Vietnamese", "icon": {"prefix": "https://ss3.4sqi.net/img/categories_v2/food/vietnamese_", "suffix": ".png"}, "primary": true}], "photos": {"count": 0, "groups": []}}, "referralId": "e-0-52e01f72498ec75d48300391-14"}, {"reasons": {"count": 0, "items": [{"summary": "This spot is popular", "type": "general", "reasonName": "globalInteractionReason"}]}, "venue": {"id": "4ad210abf964a5202bdf20e3", "name": "Stringray Globe", "location": {"address": "109 Columbia Rd", "lat": 51.53035356916949, "lng": -0.06815007972602627, "labeledLatLngs": [{"label": "display", "lat": 51.53035356916949, "lng": -0.06815007972602627}], "distance": 266, "postalCode": "E2 7RL", "cc": "GB", "city": "London", "state": "Greater London", "country": "United Kingdom", "formattedAddress": ["109 Columbia Rd", "London", "Greater London", "E2 7RL", "United Kingdom"]}, "categories": [{"id": "4bf58dd8d48988d1ca941735", "name": "Pizza Place", "pluralName": "Pizza Places", "shortName": "Pizza", "icon": {"prefix": "https://ss3.4sqi.net/img/categories_v2/food/pizza_", "suffix": ".png"}, "primary": true}], "photos": {"count": 0, "groups": []}}, "referralId": "e-0-4ad210abf964a5202bdf20e3-15"}, {"reasons": {"count": 0, "items": [{"summary": "This spot is popular", "type": "general", "reasonName": "globalInteractionReason"}]}, "venue": {"id": "4b79c586f964a520fc102fe3", "name": "Loong Kee Cafe", "location": {"address": "134g Kingsland Rd", "lat": 51.531100270838, "lng": -0.07710958533482162, "labeledLatLngs": [{"label": "display", "lat": 51.531100270838, "lng": -0.07710958533482162}], "distance": 365, "postalCode": "EC2 8DY", "cc": "GB", "city": "Hackney", "state": "Greater London", "country": "United Kingdom", "formattedAddress": ["134g Kingsland Rd", "Hackney", "Greater London", "EC2 8DY", "United Kingdom"]}, "categories": [{"id": "4bf58dd8d48988d14a941735", "name": "Vietnamese Restaurant", "pluralName": "Vietnamese Restaurants", "shortName": "Vietnamese", "icon": {"prefix": "https://ss3.4sqi.net/img/categories_v2/food/vietnamese_", "suffix": ".png"}, "primary": true}], "photos": {"count": 0, "groups": []}}, "referralId": "e-0-4b79c586f964a520fc102fe3-16"}, {"reasons": {"count": 0, "items": [{"summary": "This spot is popular", "type": "general", "reasonName": "globalInteractionReason"}]}, "venue": {"id": "4afabdf6f964a520761822e3", "name": "Mien Tay", "location": {"address": "122 Kingsland Rd", "lat": 51.53044043644521, "lng": -0.0771797386520526, "labeledLatLngs": [{"label": "display", "lat": 51.53044043644521, "lng": -0.0771797386520526}], "distance": 377, "postalCode": "E2 8DP", "cc": "GB", "city": "London", "state": "Greater London", "country": "United Kingdom", "formattedAddress": ["122 Kingsland Rd", "London", "Greater London", "E2 8DP", "United Kingdom"]}, "categories": [{"id": "4bf58dd8d48988d14a941735", "name": "Vietnamese Restaurant", "pluralName": "Vietnamese Restaurants", "shortName": "Vietnamese", "icon": {"prefix": "https://ss3.4sqi.net/img/categories_v2/food/vietnamese_", "suffix": ".png"}, "primary": true}], "photos": {"count": 0, "groups": []}}, "referralId": "e-0-4afabdf6f964a520761822e3-17"}, {"reasons": {"count": 0, "items": [{"summary": "This spot is popular", "type": "general", "reasonName": "globalInteractionReason"}]}, "venue": {"id": "4c39c3501e06d13a4e107a3e", "name": "Cafe Columbia", "location": {"address": "138 Columbia Rd.", "lat": 51.52933880684907, "lng": -0.06930033524705101, "labeledLatLngs": [{"label": "display", "lat": 51.52933880684907, "lng": -0.06930033524705101}], "distance": 259, "postalCode": "E2 7RG", "cc": "GB", "city": "London", "state": "Greater London", "country": "United Kingdom", "formattedAddress": ["138 Columbia Rd.", "London", "Greater London", "E2 7RG", "United Kingdom"]}, "categories": [{"id": "4bf58dd8d48988d16d941735", "name": "Caf\u00e9", "pluralName": "Caf\u00e9s", "shortName": "Caf\u00e9", "icon": {"prefix": "https://ss3.4sqi.net/img/categories_v2/food/cafe_", "suffix": ".png"}, "primary": true}], "photos": {"count": 0, "groups": []}}, "referralId": "e-0-4c39c3501e06d13a4e107a3e-18"}, {"reasons": {"count": 0, "items": [{"summary": "This spot is popular", "type": "general", "reasonName": "globalInteractionReason"}]}, "venue": {"id": "4f338724e4b0b5f6dea5c52d", "name": "Val's Sandwich Bar", "location": {"address": "108 Columbia Rd", "lat": 51.5286746212159, "lng": -0.07043474576349461, "labeledLatLngs": [{"label": "display", "lat": 51.5286746212159, "lng": -0.07043474576349461}], "distance": 283, "postalCode": "E2 7RG", "cc": "GB", "city": "London", "state": "Greater London", "country": "United Kingdom", "formattedAddress": ["108 Columbia Rd", "London", "Greater London", "E2 7RG", "United Kingdom"]}, "categories": [{"id": "4bf58dd8d48988d1c5941735", "name": "Sandwich Place", "pluralName": "Sandwich Places", "shortName": "Sandwiches", "icon": {"prefix": "https://ss3.4sqi.net/img/categories_v2/food/deli_", "suffix": ".png"}, "primary": true}], "photos": {"count": 0, "groups": []}}, "referralId": "e-0-4f338724e4b0b5f6dea5c52d-19"}]}]}}