{"meta": {"code": 200, "requestId": "5feddca1fb7e627cbe9f0e66"}, "response": {"headerLocation": "Lambeth", "headerFullLocation": "Lambeth, London", "headerLocationGranularity": "neighborhood", "query": "food", "totalResults": 8, "suggestedBounds": {"ne": {"lat": 51.47276000360001, "lng": -0.12099169767544418}, "sw": {"lat": 51.465559996399996, "lng": -0.13252830232455584}}, "groups": [{"type": "Recommended Places", "name": "recommended", "items": [{"reasons": {"count": 0, "items": [{"summary": "This spot is popular", "type": "general", "reasonName": "globalInteractionReason"}]}, "venue": {"id": "4fade2886aa3268602c2084c", "name": "Cafe Cairo", "location": {"address": "88 Landor Rd", "lat": 51.46596029112749, "lng": -0.125035124420223, "labeledLatLngs": [{"label": "display", "lat": 51.46596029112749, "lng": -0.125035124420223}], "distance": 375, "postalCode": "SW9 9PE", "cc": "GB", "city": "London", "state": "Greater London", "country": "United Kingdom", "formattedAddress": ["88 Landor Rd", "London", "Greater London", "SW9 9PE", "United Kingdom"]}, "categories": [{"id": "4bf58dd8d48988d16d941735", "name": "Caf\u00e9", "pluralName": "Caf\u00e9s", "shortName": "Caf\u00e9", "icon": {"prefix": "https://ss3.4sqi.net/img/categories_v2/food/cafe_", "suffix": ".png"}, "primary": true}], "photos": {"count": 0, "groups": []}}, "referralId": "e-0-4fade2886aa3268602c2084c-0"}, {"reasons": {"count": 0, "items": [{"summary": "This spot is popular", "type": "general", "reasonName": "globalInteractionReason"}]}, "venue": {"id": "4b2757edf964a520f58524e3", "name": "Old Post Office Bakery", "location": {"address": "76 Landor Rd", "lat": 51.46586771218627, "lng": -0.1258054550130419, "labeledLatLngs": [{"label": "display", "lat": 51.46586771218627, "lng": -0.1258054550130419}], "distance": 372, "postalCode": "SW9 9PH", "cc": "GB", "city": "London", "state": "Greater London", "country": "United Kingdom", "formattedAddress": ["76 Landor Rd", "London", "Greater London", "SW9 9PH", "United Kingdom"]}, "categories": [{"id": "4bf58dd8d48988d16a941735", "name": "Bakery", "pluralName": "Bakeries", "shortName": "Bakery", "icon": {"prefix": "https://ss3.4sqi.net/img/categories_v2/food/bakery_", "suffix": ".png"}, "primary": true}], "photos": {"count": 0, "groups": []}}, "referralId": "e-0-4b2757edf964a520f58524e3-1"}, {"reasons": {"count": 0, "items": [{"summary": "This spot is popular", "type": "general", "reasonName": "globalInteractionReason"}]}, "venue": {"id": "5211fc1511d21f2a070174ff", "name": "Leila's Corner", "location": {"address": "Levehurst Way", "crossStreet": "Clapham Road", "lat": 51.4711979733832, "lng": -0.12453197525012774, "labeledLatLngs": [{"label": "display", "lat": 51.4711979733832, "lng": -0.12453197525012774}], "distance": 274, "cc": "GB", "city": "London", "state": "Greater London", "country": "United Kingdom", "formattedAddress": ["Levehurst Way (Clapham Road)", "London", "Greater London", "United Kingdom"]}, "categories": [{"id": "4bf58dd8d48988d16d941735", "name": "Caf\u00e9", "pluralName": "Caf\u00e9s", "shortName": "Caf\u00e9", "icon": {"prefix": "https://ss3.4sqi.net/img/categories_v2/food/cafe_", "suffix": ".png"}, "primary": true}], "photos": {"count": 0, "groups": []}}, "referralId": "e-0-5211fc1511d21f2a070174ff-2"}, {"reasons": {"count": 0, "items": [{"summary": "This spot is popular", "type": "general", "reasonName": "globalInteractionReason"}]}, "venue": {"id": "51d87bf8498ef5f3540a2a3e", "name": "Tito\u2019s", "location": {"address": "273 Clapham Road", "lat": 51.470918762164786, "lng": -0.12387568941855691, "labeledLatLngs": [{"label": "display", "lat": 51.470918762164786, "lng": -0.12387568941855691}], "distance": 279, "postalCode": "SW9 9BQ", "cc": "GB", "city": "London", "state": "Greater London", "country": "United Kingdom", "formattedAddress": ["273 Clapham Road", "London", "Greater London", "SW9 9BQ", "United Kingdom"]}, "categories": [{"id": "4eb1bfa43b7b52c0e1adc2e8", "name": "Peruvian Restaurant", "pluralName": "Peruvian Restaurants", "shortName": "Peruvian", "icon": {"prefix": "https://ss3.4sqi.net/img/categories_v2/food/peruvian_", "suffix": ".png"}, "primary": true}], "photos": {"count": 0, "groups": []}}, "referralId": "e-0-51d87bf8498ef5f3540a2a3e-3"}, {"reasons": {"count": 0, "items": [{"summary": "This spot is popular", "type": "general", "reasonName": "globalInteractionReason"}]}, "venue": {"id": "5729e272498e2cb0d5f3b482", "name": "Greggs", "location": {"address": "312 Clapham Rd", "lat": 51.470499, "lng": -0.124342, "labeledLatLngs": [{"label": "display", "lat": 51.470499, "lng": -0.124342}], "distance": 224, "postalCode": "SW9 9AE", "cc": "GB", "city": "Stockwell", "state": "Greater London", "country": "United Kingdom", "formattedAddress": ["312 Clapham Rd", "Stockwell", "Greater London", "SW9 9AE", "United Kingdom"]}, "categories": [{"id": "4bf58dd8d48988d16a941735", "name": "Bakery", "pluralName": "Bakeries", "shortName": "Bakery", "icon": {"prefix": "https://ss3.4sqi.net/img/categories_v2/food/bakery_", "suffix": ".png"}, "primary": true}], "photos": {"count": 0, "groups": []}}, "referralId": "e-0-5729e272498e2cb0d5f3b482-4"}, {"reasons": {"count": 0, "items": [{"summary": "This spot is popular", "type": "general", "reasonName": "globalInteractionReason"}]}, "venue": {"id": "4d12757b80f6721e3aba17eb", "name": "Millenium Fried Chicken", "location": {"address": "360 Clapham Road", "lat": 51.468397, "lng": -0.127269, "labeledLatLngs": [{"label": "display", "lat": 51.468397, "lng": -0.127269}], "distance": 91, "postalCode": "SW9 9AR", "cc": "GB", "city": "London", "state": "Greater London", "country": "United Kingdom", "formattedAddress": ["360 Clapham Road", "London", "Greater London", "SW9 9AR", "United Kingdom"]}, "categories": [{"id": "4d4ae6fc7a7b7dea34424761", "name": "Fried Chicken Joint", "pluralName": "Fried Chicken Joints", "shortName": "Fried Chicken", "icon": {"prefix": "https://ss3.4sqi.net/img/categories_v2/food/friedchicken_", "suffix": ".png"}, "primary": true}], "photos": {"count": 0, "groups": []}}, "referralId": "e-0-4d12757b80f6721e3aba17eb-5"}, {"reasons": {"count": 0, "items": [{"summary": "This spot is popular", "type": "general", "reasonName": "globalInteractionReason"}]}, "venue": {"id": "4e35b28c6284ea7e11033a7e", "name": "Red Spice", "location": {"address": "91 Landor Rd", "lat": 51.465985688684114, "lng": -0.12519615638778278, "labeledLatLngs": [{"label": "display", "lat": 51.465985688684114, "lng": -0.12519615638778278}], "distance": 369, "postalCode": "SW9 9RT", "cc": "GB", "city": "London", "state": "Greater London", "country": "United Kingdom", "formattedAddress": ["91 Landor Rd", "London", "Greater London", "SW9 9RT", "United Kingdom"]}, "categories": [{"id": "4bf58dd8d48988d10f941735", "name": "Indian Restaurant", "pluralName": "Indian Restaurants", "shortName": "Indian", "icon": {"prefix": "https://ss3.4sqi.net/img/categories_v2/food/indian_", "suffix": ".png"}, "primary": true}], "photos": {"count": 0, "groups": []}}, "referralId": "e-0-4e35b28c6284ea7e11033a7e-6"}, {"reasons": {"count": 0, "items": [{"summary": "This spot is popular", "type": "general", "reasonName": "globalInteractionReason"}]}, "venue": {"id": "4f11cbc6e4b0297e569ed73b", "name": "Porto Restaurant", "location": {"address": "Landor Road", "lat": 51.465913547389746, "lng": -0.12527047037216285, "labeledLatLngs": [{"label": "display", "lat": 51.465913547389746, "lng": -0.12527047037216285}], "distance": 375, "cc": "GB", "city": "London", "state": "Greater London", "country": "United Kingdom", "formattedAddress": ["Landor Road", "London", "Greater London", "United Kingdom"]}, "categories": [{"id": "4def73e84765ae376e57713a", "name": "Portuguese Restaurant", "pluralName": "Portuguese Restaurants", "shortName": "Portuguese", "icon": {"prefix": "https://ss3.4sqi.net/img/categories_v2/food/portuguese_", "suffix": ".png"}, "primary": true}], "photos": {"count": 0, "groups": []}}, "referralId": "e-0-4f11cbc6e4b0297e569ed73b-7"}]}]}}