{"meta": {"code": 200, "requestId": "5feddc502742ec1772395bc3"}, "response": {"suggestedFilters": {"header": "Tap to show:", "filters": [{"name": "Open now", "key": "openNow"}]}, "headerLocation": "Islington", "headerFullLocation": "Islington, London", "headerLocationGranularity": "neighborhood", "query": "college education", "totalResults": 35, "suggestedBounds": {"ne": {"lat": 51.527210003600004, "lng": -0.08991480288081087}, "sw": {"lat": 51.52000999639999, "lng": -0.10146519711918912}}, "groups": [{"type": "Recommended Places", "name": "recommended", "items": [{"reasons": {"count": 0, "items": [{"summary": "This spot is popular", "type": "general", "reasonName": "globalInteractionReason"}]}, "venue": {"id": "4ac518eef964a52021ad20e3", "name": "Whitecross Street Market", "location": {"address": "Whitecross St", "lat": 51.52348342351405, "lng": -0.09317372951900009, "labeledLatLngs": [{"label": "display", "lat": 51.52348342351405, "lng": -0.09317372951900009}], "distance": 174, "postalCode": "EC1Y 8JA", "cc": "GB", "city": "London", "state": "Greater London", "country": "United Kingdom", "formattedAddress": ["Whitecross St", "St. Luke's", "Greater London", "EC1Y 8JA", "United Kingdom"]}, "categories": [{"id": "53e0feef498e5aac066fd8a9", "name": "Street Food Gathering", "pluralName": "Street Food Gatherings", "shortName": "Street Food Gathering", "icon": {"prefix": "https://ss3.4sqi.net/img/categories_v2/food/streetfood_", "suffix": ".png"}, "primary": true}], "photos": {"count": 0, "groups": []}}, "referralId": "e-0-4ac518eef964a52021ad20e3-0"}, {"reasons": {"count": 0, "items": [{"summary": "This spot is popular", "type": "general", "reasonName": "globalInteractionReason"}]}, "venue": {"id": "4b20fb61f964a520c73524e3", "name": "Waitrose & Partners", "location": {"address": "Whitecross Street, Cherry Tree Walk Centre", "crossStreet": "at Whitecross St", "lat": 51.52219785500499, "lng": -0.09205541884637114, "labeledLatLngs": [{"label": "display", "lat": 51.52219785500499, "lng": -0.09205541884637114}], "distance": 296, "postalCode": "EC1Y 8NX", "cc": "GB", "city": "Barbican", "state": "Greater London", "country": "United Kingdom", "formattedAddress": ["Whitecross Street, Cherry Tree Walk Centre (at Whitecross St)", "Barbican", "Greater London", "EC1Y 8NX", "United Kingdom"]}, "categories": [{"id": "52f2ab2ebcbc57f1066b8b46", "name": "Supermarket", "pluralName": "Supermarkets", "shortName": "Supermarket", "icon": {"prefix": "https://ss3.4sqi.net/img/categories_v2/shops/food_grocery_", "suffix": ".png"}, "primary": true}], "photos": {"count": 0, "groups": []}}, "referralId": "e-0-4b20fb61f964a520c73524e3-1"}, {"reasons": {"count": 0, "items": [{"summary": "This spot is popular", "type": "general", "reasonName": "globalInteractionReason"}]}, "venue": {"id": "511fa34ae4b0781dd680af0f", "name": "Lodos Food Centre", "location": {"address": "87-91 Old Street", "lat": 51.52422280558504, "lng": -0.09490841486001189, "labeledLatLngs": [{"label": "display", "lat": 51.52422280558504, "lng": -0.09490841486001189}], "distance": 87, "postalCode": "EC1V 9JJ", "cc": "GB", "city": "London", "state": "Greater London", "country": "United Kingdom", "formattedAddress": ["87-91 Old Street", "London", "Greater London", "EC1V 9JJ", "United Kingdom"]}, "categories": [{"id": "4bf58dd8d48988d1f9941735", "name": "Food & Drink Shop", "pluralName": "Food & Drink Shops", "shortName": "Food & Drink", "icon": {"prefix": "https://ss3.4sqi.net/img/categories_v2/shops/foodanddrink_", "suffix": ".png"}, "primary": true}], "photos": {"count": 0, "groups": []}}, "referralId": "e-0-511fa34ae4b0781dd680af0f-2"}, {"reasons": {"count": 0, "items": [{"summary": "This spot is popular", "type": "general", "reasonName": "globalInteractionReason"}]}, "venue": {"id": "537bc0ac498e79a3c4ccc582", "name": "Tesco Express", "location": {"address": "20-24 Kirby Street", "lat": 51.523866938613736, "lng": -0.09682364118790256, "labeledLatLngs": [{"label": "display", "lat": 51.523866938613736, "lng": -0.09682364118790256}], "distance": 83, "postalCode": "EC1N 8TS", "cc": "GB", "city": "London", "state": "Greater London", "country": "United Kingdom", "formattedAddress": ["20-24 Kirby Street", "London", "Greater London", "EC1N 8TS", "United Kingdom"]}, "categories": [{"id": "4bf58dd8d48988d118951735", "name": "Grocery Store", "pluralName": "Grocery Stores", "shortName": "Grocery Store", "icon": {"prefix": "https://ss3.4sqi.net/img/categories_v2/shops/food_grocery_", "suffix": ".png"}, "primary": true}], "photos": {"count": 0, "groups": []}}, "referralId": "e-0-537bc0ac498e79a3c4ccc582-3"}, {"reasons": {"count": 0, "items": [{"summary": "This spot is popular", "type": "general", "reasonName": "globalInteractionReason"}]}, "venue": {"id": "4b79315ff964a5208dee2ee3", "name": "Service Point City", "location": {"address": "65 Old Street", "lat": 51.524294130486844, "lng": -0.09517237285536793, "labeledLatLngs": [{"label": "display", "lat": 51.524294130486844, "lng": -0.09517237285536793}], "distance": 84, "cc": "GB", "city": "Islington", "state": "Greater London", "country": "United Kingdom", "formattedAddress": ["65 Old Street", "Islington", "Greater London", "United Kingdom"]}, "categories": [{"id": "52f2ab2ebcbc57f1066b8b28", "name": "Print Shop", "pluralName": "Print Shops", "shortName": "Print Shop", "icon": {"prefix": "https://ss3.4sqi.net/img/categories_v2/shops/default_", "suffix": ".png"}, "primary": true}], "photos": {"count": 0, "groups": []}}, "referralId": "e-0-4b79315ff964a5208dee2ee3-4"}, {"reasons": {"count": 0, "items": [{"summary": "This spot is popular", "type": "general", "reasonName": "globalInteractionReason"}]}, "venue": {"id": "59e8bd2449281462d7b09cb2", "name": "PMT London", "location": {"address": "35-39 Old Street", "lat": 51.52383461948381, "lng": -0.09723544120788574, "labeledLatLngs": [{"label": "display", "lat": 51.52383461948381, "lng": -0.09723544120788574}], "distance": 109, "postalCode": "EC1V 9HX", "cc": "GB", "city": "London", "state": "Greater London", "country": "United Kingdom", "formattedAddress": ["35-39 Old Street", "London", "Greater London", "EC1V 9HX", "United Kingdom"]}, "categories": [{"id": "4bf58dd8d48988d1fe941735", "name": "Music Store", "pluralName": "Music Stores", "shortName": "Music Store", "icon": {"prefix": "https://ss3.4sqi.net/img/categories_v2/shops/music_instruments_", "suffix": ".png"}, "primary": true}], "photos": {"count": 0, "groups": []}}, "referralId": "e-0-59e8bd2449281462d7b09cb2-5"}, {"reasons": {"count": 0, "items": [{"summary": "This spot is popular", "type": "general", "reasonName": "globalInteractionReason"}]}, "venue": {"id": "5724fd67498e259d1a60abcc", "name": "Bar Hair Ink", "location": {"address": "161 Whitecross St", "lat": 51.52335, "lng": -0.093152784, "labeledLatLngs": [{"label": "display", "lat": 51.52335, "lng": -0.093152784}], "distance": 178, "postalCode": "EC1Y 8JL", "cc": "GB", "city": "London", "state": "Greater London", "country": "United Kingdom", "formattedAddress": ["161 Whitecross St", "London", "Greater London", "EC1Y 8JL", "United Kingdom"]}, "categories": [{"id": "54541900498ea6ccd0202697", "name": "Health & Beauty Service", "pluralName": "Health & Beauty Services", "shortName": "Health & Beauty", "icon": {"prefix": "https://ss3.4sqi.net/img/categories_v2/shops/salon_barber_", "suffix": ".png"}, "primary": true}], "photos": {"count": 0, "groups": []}}, "referralId": "e-0-5724fd67498e259d1a60abcc-6"}, {"reasons": {"count": 0, "items": [{"summary": "This spot is popular", "type": "general", "reasonName": "globalInteractionReason"}]}, "venue": {"id": "4e71bf04d1647c08d3d122a7", "name": "The Barbican Fruiterers & Greengrocers", "location": {"address": "26 Goswell Rd.", "lat": 51.52337293198947, "lng": -0.096424622830635, "labeledLatLngs": [{"label": "display", "lat": 51.52337293198947, "lng": -0.096424622830635}], "distance": 57, "cc": "GB", "city": "London", "state": "Greater London", "country": "United Kingdom", "formattedAddress": ["26 Goswell Rd.", "London", "Greater London", "United Kingdom"]}, "categories": [{"id": "4d954b0ea243a5684a65b473", "name": "Convenience Store", "pluralName": "Convenience Stores", "shortName": "Convenience Store", "icon": {"prefix": "https://ss3.4sqi.net/img/categories_v2/shops/conveniencestore_", "suffix": ".png"}, "primary": true}], "photos": {"count": 0, "groups": []}}, "referralId": "e-0-4e71bf04d1647c08d3d122a7-7"}, {"reasons": {"count": 0, "items": [{"summary": "This spot is popular", "type": "general", "reasonName": "globalInteractionReason"}]}, "venue": {"id": "4afd7c93f964a520132822e3", "name": "Goswell News", "location": {"address": "Goswell Road", "lat": 51.52380458033574, "lng": -0.09883403778076172, "labeledLatLngs": [{"label": "display", "lat": 51.52380458033574, "lng": -0.09883403778076172}], "distance": 218, "postalCode": "EC1V 7DB", "cc": "GB", "city": "London", "state": "Greater London", "country": "United Kingdom", "formattedAddress": ["Goswell Road", "London", "Greater London", "EC1V 7DB", "United Kingdom"]}, "categories": [{"id": "4bf58dd8d48988d121951735", "name": "Paper / Office Supplies Store", "pluralName": "Paper / Office Supplies Stores", "shortName": "Office Supplies", "icon": {"prefix": "https://ss3.4sqi.net/img/categories_v2/shops/papergoods_", "suffix": ".png"}, "primary": true}], "photos": {"count": 0, "groups": []}}, "referralId": "e-0-4afd7c93f964a520132822e3-8"}, {"reasons": {"count": 0, "items": [{"summary": "This spot is popular", "type": "general", "reasonName": "globalInteractionReason"}]}, "venue": {"id": "5bdc1b9a250cab003919af7c", "name": "Oud & Partners Ltd", "location": {"address": "120 Old St", "lat": 51.5248801, "lng": -0.09270779999997103, "labeledLatLngs": [{"label": "display", "lat": 51.5248801, "lng": -0.09270779999997103}], "distance": 250, "postalCode": "EC1V 9BD", "cc": "GB", "city": "London", "state": "Greater London", "country": "United Kingdom", "formattedAddress": ["120 Old St", "London", "Greater London", "EC1V 9BD", "United Kingdom"]}, "categories": [{"id": "4bf58dd8d48988d10c951735", "name": "Cosmetics Shop", "pluralName": "Cosmetics Shops", "shortName": "Cosmetics", "icon": {"prefix": "https://ss3.4sqi.net/img/categories_v2/shops/beauty_cosmetic_", "suffix": ".png"}, "primary": true}], "photos": {"count": 0, "groups": []}, "venuePage": {"id": "512854911"}}, "referralId": "e-0-5bdc1b9a250cab003919af7c-9"}, {"reasons": {"count": 0, "items": [{"summary": "This spot is popular", "type": "general", "reasonName": "globalInteractionReason"}]}, "venue": {"id": "5dcac42502f0400008ec59c1", "name": "By Benji Ltd", "location": {"address": "130 Old St", "lat": 51.52485337608569, "lng": -0.09226999999998498, "labeledLatLngs": [{"label": "display", "lat": 51.52485337608569, "lng": -0.09226999999998498}], "distance": 274, "postalCode": "EC1V 9BD", "cc": "GB", "city": "London", "state": "Greater London", "country": "United Kingdom", "formattedAddress": ["130 Old St", "London", "Greater London", "EC1V 9BD", "United Kingdom"]}, "categories": [{"id": "4bf58dd8d48988d108951735", "name": "Women's Store", "pluralName": "Women's Stores", "shortName": "Women's Store", "icon": {"prefix": "https://ss3.4sqi.net/img/categories_v2/shops/apparel_women_", "suffix": ".png"}, "primary": true}], "photos": {"count": 0, "groups": []}, "venuePage": {"id": "581607694"}}, "referralId": "e-0-5dcac42502f0400008ec59c1-10"}, {"reasons": {"count": 0, "items": [{"summary": "This spot is popular", "type": "general", "reasonName": "globalInteractionReason"}]}, "venue": {"id": "5ae0601b178a2a1d9d173a17", "name": "MIRACULEAN.COM LTD", "location": {"address": "130 Old St", "lat": 51.5248692, "lng": -0.09226599999999507, "labeledLatLngs": [{"label": "display", "lat": 51.5248692, "lng": -0.09226599999999507}], "distance": 275, "postalCode": "EC1V 9BD", "cc": "GB", "city": "London", "state": "Greater London", "country": "United Kingdom", "formattedAddress": ["130 Old St", "London", "Greater London", "EC1V 9BD", "United Kingdom"]}, "categories": [{"id": "50aa9e744b90af0d42d5de0e", "name": "Health Food Store", "pluralName": "Health Food Stores", "shortName": "Health Food Store", "icon": {"prefix": "https://ss3.4sqi.net/img/categories_v2/shops/food_grocery_", "suffix": ".png"}, "primary": true}], "photos": {"count": 0, "groups": []}, "venuePage": {"id": "492721714"}}, "referralId": "e-0-5ae0601b178a2a1d9d173a17-11"}, {"reasons": {"count": 0, "items": [{"summary": "This spot is popular", "type": "general", "reasonName": "globalInteractionReason"}]}, "venue": {"id": "5c3f3c6d9411f2002c84a011", "name": "When Night Falls In London", "location": {"address": "130 Old St", "lat": 51.5248621, "lng": -0.09225960000003397, "labeledLatLngs": [{"label": "display", "lat": 51.5248621, "lng": -0.09225960000003397}], "distance": 275, "postalCode": "EC1V 9BD", "cc": "GB", "city": "London", "state": "Greater London", "country": "United Kingdom", "formattedAddress": ["130 Old St", "London", "Greater London", "EC1V 9BD", "United Kingdom"]}, "categories": [{"id": "5453de49498eade8af355881", "name": "Business Service", "pluralName": "Business Services", "shortName": "Business Services", "icon": {"prefix": "https://ss3.4sqi.net/img/categories_v2/building/default_", "suffix": ".png"}, "primary": true}], "photos": {"count": 0, "groups": []}, "venuePage": {"id": "532425087"}}, "referralId": "e-0-5c3f3c6d9411f2002c84a011-12"}, {"reasons": {"count": 0, "items": [{"summary": "This spot is popular", "type": "general", "reasonName": "globalInteractionReason"}]}, "venue": {"id": "4ba2558ff964a52063ee37e3", "name": "Vitra", "location": {"address": "30 Clerkenwell Road London London EC1M 5PG", "lat": 51.523133786104076, "lng": -0.09960102538261971, "labeledLatLngs": [{"label": "display", "lat": 51.523133786104076, "lng": -0.09960102538261971}], "distance": 276, "cc": "GB", "city": "Islington", "state": "Greater London", "country": "United Kingdom", "formattedAddress": ["30 Clerkenwell Road London London EC1M 5PG", "Islington", "Greater London", "United Kingdom"]}, "categories": [{"id": "4bf58dd8d48988d1f8941735", "name": "Furniture / Home Store", "pluralName": "Furniture / Home Stores", "shortName": "Furniture / Home", "icon": {"prefix": "https://ss3.4sqi.net/img/categories_v2/shops/furniture_", "suffix": ".png"}, "primary": true}], "photos": {"count": 0, "groups": []}}, "referralId": "e-0-4ba2558ff964a52063ee37e3-13"}, {"reasons": {"count": 0, "items": [{"summary": "This spot is popular", "type": "general", "reasonName": "globalInteractionReason"}]}, "venue": {"id": "58bc7ed00e0a1e40757e0a1b", "name": "Creoqode", "location": {"address": "130 Old St", "lat": 51.5248578, "lng": -0.09223099999996975, "labeledLatLngs": [{"label": "display", "lat": 51.5248578, "lng": -0.09223099999996975}], "distance": 276, "postalCode": "EC1V 9BD", "cc": "GB", "city": "London", "state": "Greater London", "country": "United Kingdom", "formattedAddress": ["130 Old St", "London", "Greater London", "EC1V 9BD", "United Kingdom"]}, "categories": [{"id": "4bf58dd8d48988d122951735", "name": "Electronics Store", "pluralName": "Electronics Stores", "shortName": "Electronics", "icon": {"prefix": "https://ss3.4sqi.net/img/categories_v2/shops/technology_", "suffix": ".png"}, "primary": true}], "photos": {"count": 0, "groups": []}, "venuePage": {"id": "409663479"}}, "referralId": "e-0-58bc7ed00e0a1e40757e0a1b-14"}, {"reasons": {"count": 0, "items": [{"summary": "This spot is popular", "type": "general", "reasonName": "globalInteractionReason"}]}, "venue": {"id": "56450487498ebb7b4eefbc39", "name": "The sexy chic closet", "location": {"address": "130 Old Street", "lat": 51.5250153, "lng": -0.09230090000005475, "labeledLatLngs": [{"label": "display", "lat": 51.5250153, "lng": -0.09230090000005475}], "distance": 282, "postalCode": "EC1V 9BD", "cc": "GB", "city": "London", "state": "Greater London", "country": "United Kingdom", "formattedAddress": ["130 Old Street", "London", "Greater London", "EC1V 9BD", "United Kingdom"]}, "categories": [{"id": "4bf58dd8d48988d107951735", "name": "Shoe Store", "pluralName": "Shoe Stores", "shortName": "Shoes", "icon": {"prefix": "https://ss3.4sqi.net/img/categories_v2/shops/apparel_shoestore_", "suffix": ".png"}, "primary": true}], "photos": {"count": 0, "groups": []}, "venuePage": {"id": "146098554"}}, "referralId": "e-0-56450487498ebb7b4eefbc39-15"}, {"reasons": {"count": 0, "items": [{"summary": "This spot is popular", "type": "general", "reasonName": "globalInteractionReason"}]}, "venue": {"id": "4c332d953ffc95216f8290f5", "name": "Portmans Pharmacy", "location": {"address": "5 Cherry Tree Walk", "crossStreet": "btw Cherry Tree Walk & Whitecross Street", "lat": 51.521775732306764, "lng": -0.09191913752190393, "labeledLatLngs": [{"label": "display", "lat": 51.521775732306764, "lng": -0.09191913752190393}], "distance": 331, "postalCode": "EC1Y 8NX", "cc": "GB", "city": "London", "state": "Greater London", "country": "United Kingdom", "formattedAddress": ["5 Cherry Tree Walk (btw Cherry Tree Walk & Whitecross Street)", "London", "Greater London", "EC1Y 8NX", "United Kingdom"]}, "categories": [{"id": "4bf58dd8d48988d10f951735", "name": "Pharmacy", "pluralName": "Pharmacies", "shortName": "Pharmacy", "icon": {"prefix": "https://ss3.4sqi.net/img/categories_v2/shops/pharmacy_", "suffix": ".png"}, "primary": true}], "photos": {"count": 0, "groups": []}}, "referralId": "e-0-4c332d953ffc95216f8290f5-16"}, {"reasons": {"count": 0, "items": [{"summary": "This spot is popular", "type": "general", "reasonName": "globalInteractionReason"}]}, "venue": {"id": "51c4586d498e8dcd93aa21f8", "name": "Minuit moins 7", "location": {"address": "165 whitecross street", "lat": 51.523556654905455, "lng": -0.09295170868264856, "labeledLatLngs": [{"label": "display", "lat": 51.523556654905455, "lng": -0.09295170868264856}], "distance": 189, "postalCode": "EC1Y 8JT", "cc": "GB", "city": "London", "state": "Greater London", "country": "United Kingdom", "formattedAddress": ["165 whitecross street", "London", "Greater London", "EC1Y 8JT", "United Kingdom"]}, "categories": [{"id": "4bf58dd8d48988d107951735", "name": "Shoe Store", "pluralName": "Shoe Stores", "shortName": "Shoes", "icon": {"prefix": "https://ss3.4sqi.net/img/categories_v2/shops/apparel_shoestore_", "suffix": ".png"}, "primary": true}], "photos": {"count": 0, "groups": []}}, "referralId": "e-0-51c4586d498e8dcd93aa21f8-17"}, {"reasons": {"count": 0, "items": [{"summary": "This spot is popular", "type": "general", "reasonName": "globalInteractionReason"}]}, "venue": {"id": "4f09bd04e4b09a8a4046c36b", "name": "Mace", "location": {"address": "Goswell Rd", "lat": 51.52312140959021, "lng": -0.09820194819706748, "labeledLatLngs": [{"label": "display", "lat": 51.52312140959021, "lng": -0.09820194819706748}], "distance": 182, "cc": "GB", "city": "London", "state": "Greater London", "country": "United Kingdom", "formattedAddress": ["Goswell Rd", "London", "Greater London", "United Kingdom"]}, "categories": [{"id": "4d954b0ea243a5684a65b473", "name": "Convenience Store", "pluralName": "Convenience Stores", "shortName": "Convenience Store", "icon": {"prefix": "https://ss3.4sqi.net/img/categories_v2/shops/conveniencestore_", "suffix": ".png"}, "primary": true}], "photos": {"count": 0, "groups": []}}, "referralId": "e-0-4f09bd04e4b09a8a4046c36b-18"}, {"reasons": {"count": 0, "items": [{"summary": "This spot is popular", "type": "general", "reasonName": "globalInteractionReason"}]}, "venue": {"id": "4f1e80b5e4b0c7cc914fc6aa", "name": "TellyJuice", "location": {"address": "20-24 Old St", "lat": 51.52354728, "lng": -0.09746189, "labeledLatLngs": [{"label": "display", "lat": 51.52354728, "lng": -0.09746189}], "distance": 122, "postalCode": "EC1V 9AB", "cc": "GB", "city": "London", "state": "Greater London", "country": "United Kingdom", "formattedAddress": ["20-24 Old St", "London", "Greater London", "EC1V 9AB", "United Kingdom"]}, "categories": [{"id": "4bf58dd8d48988d126951735", "name": "Video Store", "pluralName": "Video Stores", "shortName": "Video Store", "icon": {"prefix": "https://ss3.4sqi.net/img/categories_v2/shops/video_", "suffix": ".png"}, "primary": true}], "photos": {"count": 0, "groups": []}, "venuePage": {"id": "188278959"}}, "referralId": "e-0-4f1e80b5e4b0c7cc914fc6aa-19"}, {"reasons": {"count": 0, "items": [{"summary": "This spot is popular", "type": "general", "reasonName": "globalInteractionReason"}]}, "venue": {"id": "5764010e498ebe1c9681152d", "name": "Quest Technologies (London) Ltd", "location": {"address": "195, Whitecross St", "lat": 51.5242886, "lng": -0.093917, "labeledLatLngs": [{"label": "display", "lat": 51.5242886, "lng": -0.093917}], "distance": 144, "postalCode": "EC1Y 8QP", "cc": "GB", "city": "London", "state": "Greater London", "country": "United Kingdom", "formattedAddress": ["195, Whitecross St", "London", "Greater London", "EC1Y 8QP", "United Kingdom"]}, "categories": [{"id": "52f2ab2ebcbc57f1066b8b2f", "name": "Other Repair Shop", "pluralName": "Other Repair Shops", "shortName": "Other Repair", "icon": {"prefix": "https://ss3.4sqi.net/img/categories_v2/shops/default_", "suffix": ".png"}, "primary": true}], "photos": {"count": 0, "groups": []}, "venuePage": {"id": "213826581"}}, "referralId": "e-0-5764010e498ebe1c9681152d-20"}, {"reasons": {"count": 0, "items": [{"summary": "This spot is popular", "type": "general", "reasonName": "globalInteractionReason"}]}, "venue": {"id": "4e01c1c7aeb76b610988d914", "name": "Barbican Stationers", "location": {"address": "4 Charterhouse Buildings, Goswell Road", "lat": 51.5227970156153, "lng": -0.09792202159771136, "labeledLatLngs": [{"label": "display", "lat": 51.5227970156153, "lng": -0.09792202159771136}], "distance": 179, "cc": "GB", "city": "Islington", "state": "Greater London", "country": "United Kingdom", "formattedAddress": ["4 Charterhouse Buildings, Goswell Road", "Islington", "Greater London", "United Kingdom"]}, "categories": [{"id": "4bf58dd8d48988d121951735", "name": "Paper / Office Supplies Store", "pluralName": "Paper / Office Supplies Stores", "shortName": "Office Supplies", "icon": {"prefix": "https://ss3.4sqi.net/img/categories_v2/shops/papergoods_", "suffix": ".png"}, "primary": true}], "photos": {"count": 0, "groups": []}}, "referralId": "e-0-4e01c1c7aeb76b610988d914-21"}, {"reasons": {"count": 0, "items": [{"summary": "This spot is popular", "type": "general", "reasonName": "globalInteractionReason"}]}, "venue": {"id": "58342f046cda1c3685f251e0", "name": "Billi UK", "location": {"address": "Synergy London", "lat": 51.522803264061395, "lng": -0.09009003639221191, "labeledLatLngs": [{"label": "display", "lat": 51.522803264061395, "lng": -0.09009003639221191}], "distance": 398, "postalCode": "EC1Y 8PD", "cc": "GB", "city": "London", "state": "Greater London", "country": "United Kingdom", "formattedAddress": ["Synergy London", "London", "Greater London", "EC1Y 8PD", "United Kingdom"]}, "categories": [{"id": "545419b1498ea6ccd0202f58", "name": "Home Service", "pluralName": "Home Services & Repairs", "shortName": "Home Services", "icon": {"prefix": "https://ss3.4sqi.net/img/categories_v2/shops/hardware_", "suffix": ".png"}, "primary": true}], "photos": {"count": 0, "groups": []}, "venuePage": {"id": "370395560"}}, "referralId": "e-0-58342f046cda1c3685f251e0-22"}, {"reasons": {"count": 0, "items": [{"summary": "This spot is popular", "type": "general", "reasonName": "globalInteractionReason"}]}, "venue": {"id": "58cbddaffb549a2dd4037f6e", "name": "Tesco Express", "location": {"address": "55 Central St, Clerkenwell", "lat": 51.525919, "lng": -0.0965354, "labeledLatLngs": [{"label": "display", "lat": 51.525919, "lng": -0.0965354}], "distance": 263, "postalCode": "EC1V 3AF", "cc": "GB", "city": "London", "state": "Greater London", "country": "United Kingdom", "formattedAddress": ["55 Central St, Clerkenwell", "London", "Greater London", "EC1V 3AF", "United Kingdom"]}, "categories": [{"id": "4bf58dd8d48988d118951735", "name": "Grocery Store", "pluralName": "Grocery Stores", "shortName": "Grocery Store", "icon": {"prefix": "https://ss3.4sqi.net/img/categories_v2/shops/food_grocery_", "suffix": ".png"}, "primary": true}], "photos": {"count": 0, "groups": []}}, "referralId": "e-0-58cbddaffb549a2dd4037f6e-23"}, {"reasons": {"count": 0, "items": [{"summary": "This spot is popular", "type": "general", "reasonName": "globalInteractionReason"}]}, "venue": {"id": "5bed3015628c83002cd4f5bd", "name": "Property Acquisitions 2017", "location": {"address": "130 Old Street", "lat": 51.52439880371094, "lng": -0.0919089987874031, "labeledLatLngs": [{"label": "display", "lat": 51.52439880371094, "lng": -0.0919089987874031}], "distance": 276, "postalCode": "EC1V 9BD", "cc": "GB", "city": "London", "state": "Greater London", "country": "United Kingdom", "formattedAddress": ["130 Old Street", "London", "Greater London", "EC1V 9BD", "United Kingdom"]}, "categories": [{"id": "5454144b498ec1f095bff2f2", "name": "Construction & Landscaping", "pluralName": "Construction & Landscaping", "shortName": "Construction", "icon": {"prefix": "https://ss3.4sqi.net/img/categories_v2/shops/realestate_", "suffix": ".png"}, "primary": true}], "photos": {"count": 0, "groups": []}}, "referralId": "e-0-5bed3015628c83002cd4f5bd-24"}, {"reasons": {"count": 0, "items": [{"summary": "This spot is popular", "type": "general", "reasonName": "globalInteractionReason"}]}, "venue": {"id": "57ad0138498e2d74c0eb1bf7", "name": "Gaknobi Collections", "location": {"address": "130 Old Street", "lat": 51.5248731, "lng": -0.0922362000000021, "labeledLatLngs": [{"label": "display", "lat": 51.5248731, "lng": -0.0922362000000021}], "distance": 277, "postalCode": "EC1V 9BD", "cc": "GB", "city": "London", "state": "Greater London", "country": "United Kingdom", "formattedAddress": ["130 Old Street", "London", "Greater London", "EC1V 9BD", "United Kingdom"]}, "categories": [{"id": "4bf58dd8d48988d102951735", "name": "Accessories Store", "pluralName": "Accessories Stores", "shortName": "Accessories", "icon": {"prefix": "https://ss3.4sqi.net/img/categories_v2/shops/apparel_accessories_", "suffix": ".png"}, "primary": true}], "photos": {"count": 0, "groups": []}, "venuePage": {"id": "327186241"}}, "referralId": "e-0-57ad0138498e2d74c0eb1bf7-25"}, {"reasons": {"count": 0, "items": [{"summary": "This spot is popular", "type": "general", "reasonName": "globalInteractionReason"}]}, "venue": {"id": "5730731d498ea4b93500b66c", "name": "Bagseyed", "location": {"address": "130 Old St", "lat": 51.5248578, "lng": -0.092231, "labeledLatLngs": [{"label": "display", "lat": 51.5248578, "lng": -0.092231}], "distance": 276, "postalCode": "EC1V 9BD", "cc": "GB", "city": "City of London", "state": "Greater London", "country": "United Kingdom", "formattedAddress": ["130 Old St", "City of London", "Greater London", "EC1V 9BD", "United Kingdom"]}, "categories": [{"id": "4bf58dd8d48988d102951735", "name": "Accessories Store", "pluralName": "Accessories Stores", "shortName": "Accessories", "icon": {"prefix": "https://ss3.4sqi.net/img/categories_v2/shops/apparel_accessories_", "suffix": ".png"}, "primary": true}], "photos": {"count": 0, "groups": []}, "venuePage": {"id": "192631983"}}, "referralId": "e-0-5730731d498ea4b93500b66c-26"}, {"reasons": {"count": 0, "items": [{"summary": "This spot is popular", "type": "general", "reasonName": "globalInteractionReason"}]}, "venue": {"id": "5becd4756e4650002cfed72e", "name": "POSITIVE SPACE DESIGN AND BUILD LTD", "location": {"address": "130 Old Street", "lat": 51.52505, "lng": -0.0923699, "labeledLatLngs": [{"label": "display", "lat": 51.52505, "lng": -0.0923699}], "distance": 280, "postalCode": "EC1V 9BD", "cc": "GB", "city": "London", "state": "Greater London", "country": "United Kingdom", "formattedAddress": ["130 Old Street", "St. Luke's", "Greater London", "EC1V 9BD", "United Kingdom"]}, "categories": [{"id": "545419b1498ea6ccd0202f58", "name": "Home Service", "pluralName": "Home Services & Repairs", "shortName": "Home Services", "icon": {"prefix": "https://ss3.4sqi.net/img/categories_v2/shops/hardware_", "suffix": ".png"}, "primary": true}], "photos": {"count": 0, "groups": []}}, "referralId": "e-0-5becd4756e4650002cfed72e-27"}, {"reasons": {"count": 0, "items": [{"summary": "This spot is popular", "type": "general", "reasonName": "globalInteractionReason"}]}, "venue": {"id": "5f6fb0056d20cb5900465bbc", "name": "Radiate Web Design and Management", "location": {"address": "65 Goswell Road", "lat": 51.52443659999999, "lng": -0.0997695, "labeledLatLngs": [{"label": "display", "lat": 51.52443659999999, "lng": -0.0997695}], "distance": 297, "postalCode": "EC1V 7EN", "cc": "GB", "city": "London", "state": "Greater London", "country": "United Kingdom", "formattedAddress": ["65 Goswell Road", "London", "Greater London", "EC1V 7EN", "United Kingdom"]}, "categories": [{"id": "5453de49498eade8af355881", "name": "Business Service", "pluralName": "Business Services", "shortName": "Business Services", "icon": {"prefix": "https://ss3.4sqi.net/img/categories_v2/building/default_", "suffix": ".png"}, "primary": true}], "photos": {"count": 0, "groups": []}, "venuePage": {"id": "591036482"}}, "referralId": "e-0-5f6fb0056d20cb5900465bbc-28"}, {"reasons": {"count": 0, "items": [{"summary": "This spot is popular", "type": "general", "reasonName": "globalInteractionReason"}]}, "venue": {"id": "4c162b62127f9521fe272525", "name": "Ryman", "location": {"address": "Unit 2B, Cherry Tree Walk, Whitecross Street", "lat": 51.52182866891457, "lng": -0.0923450932540959, "labeledLatLngs": [{"label": "display", "lat": 51.52182866891457, "lng": -0.0923450932540959}], "distance": 304, "postalCode": "EC1Y 8NX", "cc": "GB", "city": "Barbican", "state": "Greater London", "country": "United Kingdom", "formattedAddress": ["Unit 2B, Cherry Tree Walk, Whitecross Street", "Barbican", "Greater London", "EC1Y 8NX", "United Kingdom"]}, "categories": [{"id": "52f2ab2ebcbc57f1066b8b21", "name": "Stationery Store", "pluralName": "Stationery Stores", "shortName": "Stationery Store", "icon": {"prefix": "https://ss3.4sqi.net/img/categories_v2/shops/default_", "suffix": ".png"}, "primary": true}], "photos": {"count": 0, "groups": []}}, "referralId": "e-0-4c162b62127f9521fe272525-29"}, {"reasons": {"count": 0, "items": [{"summary": "This spot is popular", "type": "general", "reasonName": "globalInteractionReason"}]}, "venue": {"id": "4d3ae6fc687ca35dbc488ec4", "name": "London Eye Optique", "location": {"address": "2a Cherry Tree Walk", "crossStreet": "Whitecross St", "lat": 51.52136132994498, "lng": -0.09234309196472168, "labeledLatLngs": [{"label": "display", "lat": 51.52136132994498, "lng": -0.09234309196472168}], "distance": 341, "postalCode": "EC1Y 8NX", "cc": "GB", "city": "London", "state": "Greater London", "country": "United Kingdom", "formattedAddress": ["2a Cherry Tree Walk (Whitecross St)", "London", "Greater London", "EC1Y 8NX", "United Kingdom"]}, "categories": [{"id": "4d954afda243a5684865b473", "name": "Optical Shop", "pluralName": "Optical Shops", "shortName": "Optical", "icon": {"prefix": "https://ss3.4sqi.net/img/categories_v2/building/medical_opticalshop_", "suffix": ".png"}, "primary": true}], "photos": {"count": 0, "groups": []}}, "referralId": "e-0-4d3ae6fc687ca35dbc488ec4-30"}, {"reasons": {"count": 0, "items": [{"summary": "This spot is popular", "type": "general", "reasonName": "globalInteractionReason"}]}, "venue": {"id": "50f1366be4b06b1e92886cad", "name": "Tesco Express", "location": {"address": "Clerkenwell Street Exp", "crossStreet": "CENTRAL STREET", "lat": 51.52582598871163, "lng": -0.09645688851949112, "labeledLatLngs": [{"label": "display", "lat": 51.52582598871163, "lng": -0.09645688851949112}], "distance": 252, "postalCode": "EC1V 8DT", "cc": "GB", "neighborhood": "Islington", "city": "Clerkenwell", "state": "Greater London", "country": "United Kingdom", "formattedAddress": ["Clerkenwell Street Exp (CENTRAL STREET)", "Clerkenwell", "Greater London", "EC1V 8DT", "United Kingdom"]}, "categories": [{"id": "4bf58dd8d48988d118951735", "name": "Grocery Store", "pluralName": "Grocery Stores", "shortName": "Grocery Store", "icon": {"prefix": "https://ss3.4sqi.net/img/categories_v2/shops/food_grocery_", "suffix": ".png"}, "primary": true}], "photos": {"count": 0, "groups": []}}, "referralId": "e-0-50f1366be4b06b1e92886cad-31"}, {"reasons": {"count": 0, "items": [{"summary": "This spot is popular", "type": "general", "reasonName": "globalInteractionReason"}]}, "venue": {"id": "4c876ad4f554236ad85ccc55", "name": "Barbican Chimes Music Shop", "location": {"address": "Cromwell Tower", "crossStreet": "Barbican", "lat": 51.52081580697403, "lng": -0.09248507103680309, "labeledLatLngs": [{"label": "display", "lat": 51.52081580697403, "lng": -0.09248507103680309}], "distance": 382, "postalCode": "EC2Y 8DD", "cc": "GB", "city": "London", "state": "Greater London", "country": "United Kingdom", "formattedAddress": ["Cromwell Tower (Barbican)", "London", "Greater London", "EC2Y 8DD", "United Kingdom"]}, "categories": [{"id": "4bf58dd8d48988d1fe941735", "name": "Music Store", "pluralName": "Music Stores", "shortName": "Music Store", "icon": {"prefix": "https://ss3.4sqi.net/img/categories_v2/shops/music_instruments_", "suffix": ".png"}, "primary": true}], "photos": {"count": 0, "groups": []}}, "referralId": "e-0-4c876ad4f554236ad85ccc55-32"}, {"reasons": {"count": 0, "items": [{"summary": "This spot is popular", "type": "general", "reasonName": "globalInteractionReason"}]}, "venue": {"id": "589e15190b7e937af7f1bbc5", "name": "Havwoods Flooring - London Clerkenwell", "location": {"address": "26-27 Great Sutton St", "lat": 51.52310726, "lng": -0.10120812, "labeledLatLngs": [{"label": "display", "lat": 51.52310726, "lng": -0.10120812}], "distance": 386, "postalCode": "EC1V 0DS", "cc": "GB", "city": "London", "state": "Greater London", "country": "United Kingdom", "formattedAddress": ["26-27 Great Sutton St", "London", "Greater London", "EC1V 0DS", "United Kingdom"]}, "categories": [{"id": "52f2ab2ebcbc57f1066b8b22", "name": "Outdoor Supply Store", "pluralName": "Outdoor Supply Stores", "shortName": "Outdoor Supplies", "icon": {"prefix": "https://ss3.4sqi.net/img/categories_v2/shops/default_", "suffix": ".png"}, "primary": true}], "photos": {"count": 0, "groups": []}}, "referralId": "e-0-589e15190b7e937af7f1bbc5-33"}, {"reasons": {"count": 0, "items": [{"summary": "This spot is popular", "type": "general", "reasonName": "globalInteractionReason"}]}, "venue": {"id": "4b93e06ff964a520db5634e3", "name": "Tesco Express", "location": {"address": "131 Aldersgate St, Barbican", "crossStreet": "near Barbican Station", "lat": 51.5205760908343, "lng": -0.09774774312973022, "labeledLatLngs": [{"label": "display", "lat": 51.5205760908343, "lng": -0.09774774312973022}], "distance": 366, "postalCode": "EC1A 4JQ", "cc": "GB", "city": "Barbican", "state": "Greater London", "country": "United Kingdom", "formattedAddress": ["131 Aldersgate St, Barbican (near Barbican Station)", "Barbican", "Greater London", "EC1A 4JQ", "United Kingdom"]}, "categories": [{"id": "4bf58dd8d48988d118951735", "name": "Grocery Store", "pluralName": "Grocery Stores", "shortName": "Grocery Store", "icon": {"prefix": "https://ss3.4sqi.net/img/categories_v2/shops/food_grocery_", "suffix": ".png"}, "primary": true}], "photos": {"count": 0, "groups": []}}, "referralId": "e-0-4b93e06ff964a520db5634e3-34"}]}]}}