{"meta": {"code": 200, "requestId": "5feddcef960a06004f582349"}, "response": {"headerLocation": "Hacton", "headerFullLocation": "Hacton, London", "headerLocationGranularity": "neighborhood", "query": "travel", "totalResults": 5, "suggestedBounds": {"ne": {"lat": 51.55583000360001, "lng": 0.22588882986708292}, "sw": {"lat": 51.548629996399995, "lng": 0.21433117013291708}}, "groups": [{"type": "Recommended Places", "name": "recommended", "items": [{"reasons": {"count": 0, "items": [{"summary": "This spot is popular", "type": "general", "reasonName": "globalInteractionReason"}]}, "venue": {"id": "4d8c42ad12496a31f323dad8", "name": "Platform 1", "location": {"address": "Hornchurch Underground Station, Station Ln.", "lat": 51.55339931240616, "lng": 0.2187174536112597, "labeledLatLngs": [{"label": "display", "lat": 51.55339931240616, "lng": 0.2187174536112597}], "distance": 161, "postalCode": "RM12 6LS", "cc": "GB", "city": "Hornchurch", "state": "Greater London", "country": "United Kingdom", "formattedAddress": ["Hornchurch Underground Station, Station Ln.", "Hornchurch", "Greater London", "RM12 6LS", "United Kingdom"]}, "categories": [{"id": "4bf58dd8d48988d1fd931735", "name": "Metro Station", "pluralName": "Metro Stations", "shortName": "Metro", "icon": {"prefix": "https://ss3.4sqi.net/img/categories_v2/travel/subway_", "suffix": ".png"}, "primary": true}], "photos": {"count": 0, "groups": []}}, "referralId": "e-0-4d8c42ad12496a31f323dad8-0"}, {"reasons": {"count": 0, "items": [{"summary": "This spot is popular", "type": "general", "reasonName": "globalInteractionReason"}]}, "venue": {"id": "4add6827f964a520f66421e3", "name": "Hornchurch London Underground Station", "location": {"address": "Station Ln", "lat": 51.5539500370762, "lng": 0.21846385485102218, "labeledLatLngs": [{"label": "display", "lat": 51.5539500370762, "lng": 0.21846385485102218}], "distance": 222, "postalCode": "RM12 6LS", "cc": "GB", "city": "Hornchurch", "state": "Greater London", "country": "United Kingdom", "formattedAddress": ["Station Ln", "Hornchurch", "Greater London", "RM12 6LS", "United Kingdom"]}, "categories": [{"id": "4bf58dd8d48988d1fd931735", "name": "Metro Station", "pluralName": "Metro Stations", "shortName": "Metro", "icon": {"prefix": "https://ss3.4sqi.net/img/categories_v2/travel/subway_", "suffix": ".png"}, "primary": true}], "photos": {"count": 0, "groups": []}}, "referralId": "e-0-4add6827f964a520f66421e3-1"}, {"reasons": {"count": 0, "items": [{"summary": "This spot is popular", "type": "general", "reasonName": "globalInteractionReason"}]}, "venue": {"id": "575c7c18498e50e8cddfabe0", "name": "Star Mini Cabs", "location": {"lat": 51.554226, "lng": 0.21922868, "labeledLatLngs": [{"label": "display", "lat": 51.554226, "lng": 0.21922868}], "distance": 230, "cc": "GB", "country": "United Kingdom", "formattedAddress": ["United Kingdom"]}, "categories": [{"id": "53fca564498e1a175f32528b", "name": "Taxi Stand", "pluralName": "Taxi Stands", "shortName": "Taxi Stand", "icon": {"prefix": "https://ss3.4sqi.net/img/categories_v2/travel/taxi_", "suffix": ".png"}, "primary": true}], "photos": {"count": 0, "groups": []}}, "referralId": "e-0-575c7c18498e50e8cddfabe0-2"}, {"reasons": {"count": 0, "items": [{"summary": "This spot is popular", "type": "general", "reasonName": "globalInteractionReason"}]}, "venue": {"id": "4d8c433712496a31b928dad8", "name": "Platform 2", "location": {"address": "Hornchurch Underground Station", "lat": 51.553840502017344, "lng": 0.2176344394683838, "labeledLatLngs": [{"label": "display", "lat": 51.553840502017344, "lng": 0.2176344394683838}], "distance": 247, "postalCode": "RM12 6LS", "cc": "GB", "city": "Hornchurch", "state": "Greater London", "country": "United Kingdom", "formattedAddress": ["Hornchurch Underground Station", "Hornchurch", "Greater London", "RM12 6LS", "United Kingdom"]}, "categories": [{"id": "4bf58dd8d48988d1fd931735", "name": "Metro Station", "pluralName": "Metro Stations", "shortName": "Metro", "icon": {"prefix": "https://ss3.4sqi.net/img/categories_v2/travel/subway_", "suffix": ".png"}, "primary": true}], "photos": {"count": 0, "groups": []}}, "referralId": "e-0-4d8c433712496a31b928dad8-3"}, {"reasons": {"count": 0, "items": [{"summary": "This spot is popular", "type": "general", "reasonName": "globalInteractionReason"}]}, "venue": {"id": "5e2eba6d3034f30008cd546f", "name": "Innkeeper's Lodge", "location": {"address": "Station Ln", "lat": 51.55499990087735, "lng": 0.21879100786463823, "labeledLatLngs": [{"label": "display", "lat": 51.55499990087735, "lng": 0.21879100786463823}], "distance": 321, "postalCode": "RM12 6SB", "cc": "GB", "city": "Hornchurch", "state": "Greater London", "country": "United Kingdom", "formattedAddress": ["Station Ln", "Hornchurch", "Greater London", "RM12 6SB", "United Kingdom"]}, "categories": [{"id": "5bae9231bedf3950379f89cb", "name": "Inn", "pluralName": "Inns", "shortName": "Inn", "icon": {"prefix": "https://ss3.4sqi.net/img/categories_v2/travel/hotel_", "suffix": ".png"}, "primary": true}], "photos": {"count": 0, "groups": []}}, "referralId": "e-0-5e2eba6d3034f30008cd546f-4"}]}]}}