{"meta": {"code": 200, "requestId": "5feddad14536486d2a48fdd7"}, "response": {"warning": {"text": "There aren't a lot of results near you. Try something more general, reset your filters, or expand the search area."}, "headerLocation": "Lambeth", "headerFullLocation": "Lambeth, London", "headerLocationGranularity": "neighborhood", "query": "arts entertainment", "totalResults": 3, "suggestedBounds": {"ne": {"lat": 51.50117000360001, "lng": -0.10929810293173876}, "sw": {"lat": 51.4939699964, "lng": -0.12084189706826125}}, "groups": [{"type": "Recommended Places", "name": "recommended", "items": [{"reasons": {"count": 0, "items": [{"summary": "This spot is popular", "type": "general", "reasonName": "globalInteractionReason"}]}, "venue": {"id": "54401384498e91d43f178011", "name": "I'klectik Art Lab and Cafe", "location": {"lat": 51.498320306089276, "lng": -0.1165044660899756, "labeledLatLngs": [{"label": "display", "lat": 51.498320306089276, "lng": -0.1165044660899756}], "distance": 129, "cc": "GB", "country": "United Kingdom", "formattedAddress": ["United Kingdom"]}, "categories": [{"id": "4bf58dd8d48988d1e2931735", "name": "Art Gallery", "pluralName": "Art Galleries", "shortName": "Art Gallery", "icon": {"prefix": "https://ss3.4sqi.net/img/categories_v2/arts_entertainment/artgallery_", "suffix": ".png"}, "primary": true}], "photos": {"count": 0, "groups": []}}, "referralId": "e-0-54401384498e91d43f178011-0"}, {"reasons": {"count": 0, "items": [{"summary": "This spot is popular", "type": "general", "reasonName": "globalInteractionReason"}]}, "venue": {"id": "4ac518d2f964a52043a720e3", "name": "Florence Nightingale Museum", "location": {"address": "2 Lambeth Palace Rd", "lat": 51.49991096616918, "lng": -0.11743629374618789, "labeledLatLngs": [{"label": "display", "lat": 51.49991096616918, "lng": -0.11743629374618789}], "distance": 307, "postalCode": "SE1 7EW", "cc": "GB", "city": "London", "state": "Greater London", "country": "United Kingdom", "formattedAddress": ["2 Lambeth Palace Rd", "London", "Greater London", "SE1 7EW", "United Kingdom"]}, "categories": [{"id": "4bf58dd8d48988d190941735", "name": "History Museum", "pluralName": "History Museums", "shortName": "History Museum", "icon": {"prefix": "https://ss3.4sqi.net/img/categories_v2/arts_entertainment/museum_history_", "suffix": ".png"}, "primary": true}], "photos": {"count": 0, "groups": []}}, "referralId": "e-0-4ac518d2f964a52043a720e3-1"}, {"reasons": {"count": 0, "items": [{"summary": "This spot is popular", "type": "general", "reasonName": "globalInteractionReason"}]}, "venue": {"id": "50395222e4b01bb8068ecfe7", "name": "lambeth mansions", "location": {"lat": 51.49793780349378, "lng": -0.11199955440631613, "labeledLatLngs": [{"label": "display", "lat": 51.49793780349378, "lng": -0.11199955440631613}], "distance": 216, "cc": "GB", "country": "United Kingdom", "formattedAddress": ["United Kingdom"]}, "categories": [{"id": "4bf58dd8d48988d134941735", "name": "Dance Studio", "pluralName": "Dance Studios", "shortName": "Dance Studio", "icon": {"prefix": "https://ss3.4sqi.net/img/categories_v2/arts_entertainment/performingarts_dancestudio_", "suffix": ".png"}, "primary": true}], "photos": {"count": 0, "groups": []}}, "referralId": "e-0-50395222e4b01bb8068ecfe7-2"}]}]}}