{"meta": {"code": 200, "requestId": "5fedda7c6ef73c60c64145c0"}, "response": {"suggestedFilters": {"header": "Tap to show:", "filters": [{"name": "Open now", "key": "openNow"}]}, "headerLocation": "Golders Green", "headerFullLocation": "Golders Green, London", "headerLocationGranularity": "neighborhood", "query": "food", "totalResults": 15, "suggestedBounds": {"ne": {"lat": 51.57326700360001, "lng": -0.18987195389887682}, "sw": {"lat": 51.5660669964, "lng": -0.20143404610112317}}, "groups": [{"type": "Recommended Places", "name": "recommended", "items": [{"reasons": {"count": 0, "items": [{"summary": "This spot is popular", "type": "general", "reasonName": "globalInteractionReason"}]}, "venue": {"id": "4bc99d873740b713adf75e65", "name": "eat TOKYO", "location": {"address": "14 North End Rd", "lat": 51.571433, "lng": -0.194361, "labeledLatLngs": [{"label": "display", "lat": 51.571433, "lng": -0.194361}], "distance": 215, "postalCode": "NW11 7PH", "cc": "GB", "city": "Golders Green", "state": "Greater London", "country": "United Kingdom", "formattedAddress": ["14 North End Rd", "Golders Green", "Greater London", "NW11 7PH", "United Kingdom"]}, "categories": [{"id": "4bf58dd8d48988d1d2941735", "name": "Sushi Restaurant", "pluralName": "Sushi Restaurants", "shortName": "Sushi", "icon": {"prefix": "https://ss3.4sqi.net/img/categories_v2/food/sushi_", "suffix": ".png"}, "primary": true}], "photos": {"count": 0, "groups": []}}, "referralId": "e-0-4bc99d873740b713adf75e65-0"}, {"reasons": {"count": 0, "items": [{"summary": "This spot is popular", "type": "general", "reasonName": "globalInteractionReason"}]}, "venue": {"id": "4b3f4359f964a52012a525e3", "name": "Cafe Japan", "location": {"address": "626 Finchley Rd", "lat": 51.57113132580502, "lng": -0.19527906670983944, "labeledLatLngs": [{"label": "display", "lat": 51.57113132580502, "lng": -0.19527906670983944}], "distance": 165, "postalCode": "NW11 7RR", "cc": "GB", "city": "London", "state": "Greater London", "country": "United Kingdom", "formattedAddress": ["626 Finchley Rd", "London", "Greater London", "NW11 7RR", "United Kingdom"]}, "categories": [{"id": "4bf58dd8d48988d111941735", "name": "Japanese Restaurant", "pluralName": "Japanese Restaurants", "shortName": "Japanese", "icon": {"prefix": "https://ss3.4sqi.net/img/categories_v2/food/japanese_", "suffix": ".png"}, "primary": true}], "photos": {"count": 0, "groups": []}}, "referralId": "e-0-4b3f4359f964a52012a525e3-1"}, {"reasons": {"count": 0, "items": [{"summary": "This spot is popular", "type": "general", "reasonName": "globalInteractionReason"}]}, "venue": {"id": "56828417498e47c08946290e", "name": "eat Tokyo G2 Shabu-Shabu", "location": {"address": "628 Finchley Rd", "lat": 51.57120990690054, "lng": -0.19523014360714142, "labeledLatLngs": [{"label": "display", "lat": 51.57120990690054, "lng": -0.19523014360714142}], "distance": 174, "postalCode": "NW11 7RR", "cc": "GB", "city": "London", "state": "Greater London", "country": "United Kingdom", "formattedAddress": ["628 Finchley Rd", "London", "Greater London", "NW11 7RR", "United Kingdom"]}, "categories": [{"id": "55a59bace4b013909087cb15", "name": "Shabu-Shabu Restaurant", "pluralName": "Shabu-Shabu Restaurants", "shortName": "Shabu-Shabu", "icon": {"prefix": "https://ss3.4sqi.net/img/categories_v2/food/japanese_", "suffix": ".png"}, "primary": true}], "photos": {"count": 0, "groups": []}}, "referralId": "e-0-56828417498e47c08946290e-2"}, {"reasons": {"count": 0, "items": [{"summary": "This spot is popular", "type": "general", "reasonName": "globalInteractionReason"}]}, "venue": {"id": "530a6420498eb58694f8f764", "name": "Durum Ocakbasi", "location": {"lat": 51.57122848377827, "lng": -0.1931261910983638, "labeledLatLngs": [{"label": "display", "lat": 51.57122848377827, "lng": -0.1931261910983638}], "distance": 246, "cc": "GB", "country": "United Kingdom", "formattedAddress": ["United Kingdom"]}, "categories": [{"id": "4f04af1f2fb6e1c99f3db0bb", "name": "Turkish Restaurant", "pluralName": "Turkish Restaurants", "shortName": "Turkish", "icon": {"prefix": "https://ss3.4sqi.net/img/categories_v2/food/turkish_", "suffix": ".png"}, "primary": true}], "photos": {"count": 0, "groups": []}}, "referralId": "e-0-530a6420498eb58694f8f764-3"}, {"reasons": {"count": 0, "items": [{"summary": "This spot is popular", "type": "general", "reasonName": "globalInteractionReason"}]}, "venue": {"id": "4b60a23cf964a52079f129e3", "name": "L'Artista", "location": {"address": "917 Finchley Rd.", "lat": 51.572942485471046, "lng": -0.1958192777928135, "labeledLatLngs": [{"label": "display", "lat": 51.572942485471046, "lng": -0.1958192777928135}], "distance": 364, "postalCode": "NW11 7PE", "cc": "GB", "city": "Golders Green", "state": "Greater London", "country": "United Kingdom", "formattedAddress": ["917 Finchley Rd.", "Golders Green", "Greater London", "NW11 7PE", "United Kingdom"]}, "categories": [{"id": "4bf58dd8d48988d110941735", "name": "Italian Restaurant", "pluralName": "Italian Restaurants", "shortName": "Italian", "icon": {"prefix": "https://ss3.4sqi.net/img/categories_v2/food/italian_", "suffix": ".png"}, "primary": true}], "photos": {"count": 0, "groups": []}}, "referralId": "e-0-4b60a23cf964a52079f129e3-4"}, {"reasons": {"count": 0, "items": [{"summary": "This spot is popular", "type": "general", "reasonName": "globalInteractionReason"}]}, "venue": {"id": "56b5dc94498e8bc7ca64034d", "name": "Damoa", "location": {"lat": 51.57226314211949, "lng": -0.1974564419440589, "labeledLatLngs": [{"label": "display", "lat": 51.57226314211949, "lng": -0.1974564419440589}], "distance": 314, "postalCode": "NW11 8LL", "cc": "GB", "city": "London", "country": "United Kingdom", "formattedAddress": ["London", "NW11 8LL", "United Kingdom"]}, "categories": [{"id": "4bf58dd8d48988d113941735", "name": "Korean Restaurant", "pluralName": "Korean Restaurants", "shortName": "Korean", "icon": {"prefix": "https://ss3.4sqi.net/img/categories_v2/food/korean_", "suffix": ".png"}, "primary": true}], "photos": {"count": 0, "groups": []}}, "referralId": "e-0-56b5dc94498e8bc7ca64034d-5"}, {"reasons": {"count": 0, "items": [{"summary": "This spot is popular", "type": "general", "reasonName": "globalInteractionReason"}]}, "venue": {"id": "4bd6b795637ba593468df870", "name": "Moccha cafe", "location": {"address": "40 golders green high st", "lat": 51.572303773683, "lng": -0.19782950049662076, "labeledLatLngs": [{"label": "display", "lat": 51.572303773683, "lng": -0.19782950049662076}], "distance": 329, "postalCode": "N W11", "cc": "GB", "city": "Golders Green", "state": "Greater London", "country": "United Kingdom", "formattedAddress": ["40 golders green high st", "Golders Green", "Greater London", "N W11", "United Kingdom"]}, "categories": [{"id": "4bf58dd8d48988d16d941735", "name": "Caf\u00e9", "pluralName": "Caf\u00e9s", "shortName": "Caf\u00e9", "icon": {"prefix": "https://ss3.4sqi.net/img/categories_v2/food/cafe_", "suffix": ".png"}, "primary": true}], "photos": {"count": 0, "groups": []}}, "referralId": "e-0-4bd6b795637ba593468df870-6"}, {"reasons": {"count": 0, "items": [{"summary": "This spot is popular", "type": "general", "reasonName": "globalInteractionReason"}]}, "venue": {"id": "4f0f3391e4b0b3060841b5ee", "name": "Sarang", "location": {"address": "Golders Green", "lat": 51.571368, "lng": -0.19559, "labeledLatLngs": [{"label": "display", "lat": 51.571368, "lng": -0.19559}], "distance": 189, "postalCode": "NW11 8RR", "cc": "GB", "city": "Golders Green", "state": "Greater London", "country": "United Kingdom", "formattedAddress": ["Golders Green", "Golders Green", "Greater London", "NW11 8RR", "United Kingdom"]}, "categories": [{"id": "4bf58dd8d48988d113941735", "name": "Korean Restaurant", "pluralName": "Korean Restaurants", "shortName": "Korean", "icon": {"prefix": "https://ss3.4sqi.net/img/categories_v2/food/korean_", "suffix": ".png"}, "primary": true}], "photos": {"count": 0, "groups": []}}, "referralId": "e-0-4f0f3391e4b0b3060841b5ee-7"}, {"reasons": {"count": 0, "items": [{"summary": "This spot is popular", "type": "general", "reasonName": "globalInteractionReason"}]}, "venue": {"id": "4ba77519f964a520719539e3", "name": "KFC", "location": {"address": "12-14 Golders Green", "lat": 51.5724423, "lng": -0.1970094, "labeledLatLngs": [{"label": "display", "lat": 51.5724423, "lng": -0.1970094}], "distance": 322, "postalCode": "NW11 8LL", "cc": "GB", "city": "London", "state": "Greater London", "country": "United Kingdom", "formattedAddress": ["12-14 Golders Green", "London", "Greater London", "NW11 8LL", "United Kingdom"]}, "categories": [{"id": "4bf58dd8d48988d16e941735", "name": "Fast Food Restaurant", "pluralName": "Fast Food Restaurants", "shortName": "Fast Food", "icon": {"prefix": "https://ss3.4sqi.net/img/categories_v2/food/fastfood_", "suffix": ".png"}, "primary": true}], "photos": {"count": 0, "groups": []}, "venuePage": {"id": "584734267"}}, "referralId": "e-0-4ba77519f964a520719539e3-8"}, {"reasons": {"count": 0, "items": [{"summary": "This spot is popular", "type": "general", "reasonName": "globalInteractionReason"}]}, "venue": {"id": "4d876a66651041bd8e179b30", "name": "Subway", "location": {"address": "42 Golders Green High Rd", "lat": 51.57241004971501, "lng": -0.1978140172952738, "labeledLatLngs": [{"label": "display", "lat": 51.57241004971501, "lng": -0.1978140172952738}], "distance": 339, "postalCode": "NW11 8LL", "cc": "GB", "city": "Golders Green", "state": "Greater London", "country": "United Kingdom", "formattedAddress": ["42 Golders Green High Rd", "Golders Green", "Greater London", "NW11 8LL", "United Kingdom"]}, "categories": [{"id": "4bf58dd8d48988d1c5941735", "name": "Sandwich Place", "pluralName": "Sandwich Places", "shortName": "Sandwiches", "icon": {"prefix": "https://ss3.4sqi.net/img/categories_v2/food/deli_", "suffix": ".png"}, "primary": true}], "photos": {"count": 0, "groups": []}}, "referralId": "e-0-4d876a66651041bd8e179b30-9"}, {"reasons": {"count": 0, "items": [{"summary": "This spot is popular", "type": "general", "reasonName": "globalInteractionReason"}]}, "venue": {"id": "4c33a6cf16adc928dbf8c39c", "name": "Charlie's", "location": {"lat": 51.57125505545671, "lng": -0.1932692527770996, "labeledLatLngs": [{"label": "display", "lat": 51.57125505545671, "lng": -0.1932692527770996}], "distance": 241, "cc": "GB", "country": "United Kingdom", "formattedAddress": ["United Kingdom"]}, "categories": [{"id": "4bf58dd8d48988d110941735", "name": "Italian Restaurant", "pluralName": "Italian Restaurants", "shortName": "Italian", "icon": {"prefix": "https://ss3.4sqi.net/img/categories_v2/food/italian_", "suffix": ".png"}, "primary": true}], "photos": {"count": 0, "groups": []}}, "referralId": "e-0-4c33a6cf16adc928dbf8c39c-10"}, {"reasons": {"count": 0, "items": [{"summary": "This spot is popular", "type": "general", "reasonName": "globalInteractionReason"}]}, "venue": {"id": "5061b13fe4b07f87198fc558", "name": "Bar Linda Golders Green Station", "location": {"lat": 51.57207330829408, "lng": -0.19493517365385696, "labeledLatLngs": [{"label": "display", "lat": 51.57207330829408, "lng": -0.19493517365385696}], "distance": 272, "cc": "GB", "country": "United Kingdom", "formattedAddress": ["United Kingdom"]}, "categories": [{"id": "4bf58dd8d48988d16d941735", "name": "Caf\u00e9", "pluralName": "Caf\u00e9s", "shortName": "Caf\u00e9", "icon": {"prefix": "https://ss3.4sqi.net/img/categories_v2/food/cafe_", "suffix": ".png"}, "primary": true}], "photos": {"count": 0, "groups": []}}, "referralId": "e-0-5061b13fe4b07f87198fc558-11"}, {"reasons": {"count": 0, "items": [{"summary": "This spot is popular", "type": "general", "reasonName": "globalInteractionReason"}]}, "venue": {"id": "4c710423b5a5236a19ee5152", "name": "Golders Green TfL Staff Canteen", "location": {"lat": 51.572259644472645, "lng": -0.19459619402796707, "labeledLatLngs": [{"label": "display", "lat": 51.572259644472645, "lng": -0.19459619402796707}], "distance": 297, "cc": "GB", "country": "United Kingdom", "formattedAddress": ["United Kingdom"]}, "categories": [{"id": "4bf58dd8d48988d128941735", "name": "Cafeteria", "pluralName": "Cafeterias", "shortName": "Cafeteria", "icon": {"prefix": "https://ss3.4sqi.net/img/categories_v2/education/cafeteria_", "suffix": ".png"}, "primary": true}], "photos": {"count": 0, "groups": []}}, "referralId": "e-0-4c710423b5a5236a19ee5152-12"}, {"reasons": {"count": 0, "items": [{"summary": "This spot is popular", "type": "general", "reasonName": "globalInteractionReason"}]}, "venue": {"id": "5c0c478df129b5002524139b", "name": "Hosh", "location": {"address": "40 Golders Green Road", "lat": 51.572467, "lng": -0.197792, "labeledLatLngs": [{"label": "display", "lat": 51.572467, "lng": -0.197792}], "distance": 345, "postalCode": "NW11 8LL", "cc": "GB", "city": "London", "state": "Greater London", "country": "United Kingdom", "formattedAddress": ["40 Golders Green Road", "London", "Greater London", "NW11 8LL", "United Kingdom"]}, "categories": [{"id": "4f04af1f2fb6e1c99f3db0bb", "name": "Turkish Restaurant", "pluralName": "Turkish Restaurants", "shortName": "Turkish", "icon": {"prefix": "https://ss3.4sqi.net/img/categories_v2/food/turkish_", "suffix": ".png"}, "primary": true}], "photos": {"count": 0, "groups": []}}, "referralId": "e-0-5c0c478df129b5002524139b-13"}, {"reasons": {"count": 0, "items": [{"summary": "This spot is popular", "type": "general", "reasonName": "globalInteractionReason"}]}, "venue": {"id": "4e9ac2ee775b2c05adf1c2af", "name": "Dim Sum House", "location": {"address": "63 Golders Green Rd.", "lat": 51.572390831792475, "lng": -0.1981189198643456, "labeledLatLngs": [{"label": "display", "lat": 51.572390831792475, "lng": -0.1981189198643456}], "distance": 347, "postalCode": "NW11 8EL", "cc": "GB", "city": "Golders Green", "state": "Greater London", "country": "United Kingdom", "formattedAddress": ["63 Golders Green Rd.", "Golders Green", "Greater London", "NW11 8EL", "United Kingdom"]}, "categories": [{"id": "4bf58dd8d48988d1f5931735", "name": "Dim Sum Restaurant", "pluralName": "Dim Sum Restaurants", "shortName": "Dim Sum", "icon": {"prefix": "https://ss3.4sqi.net/img/categories_v2/food/dimsum_", "suffix": ".png"}, "primary": true}], "photos": {"count": 0, "groups": []}}, "referralId": "e-0-4e9ac2ee775b2c05adf1c2af-14"}]}]}}