{"meta": {"code": 200, "requestId": "5feddb61f2127f1c9f748042"}, "response": {"headerLocation": "De Beauvoir", "headerFullLocation": "De Beauvoir, London", "headerLocationGranularity": "neighborhood", "query": "arts entertainment", "totalResults": 4, "suggestedBounds": {"ne": {"lat": 51.54922500360001, "lng": -0.0710710090417488}, "sw": {"lat": 51.542024996399995, "lng": -0.0826269909582512}}, "groups": [{"type": "Recommended Places", "name": "recommended", "items": [{"reasons": {"count": 0, "items": [{"summary": "This spot is popular", "type": "general", "reasonName": "globalInteractionReason"}]}, "venue": {"id": "4d28f2296e27a143b5951f24", "name": "Arcola Theatre", "location": {"address": "24 Ashwin St", "lat": 51.546894, "lng": -0.074952, "labeledLatLngs": [{"label": "display", "lat": 51.546894, "lng": -0.074952}], "distance": 192, "postalCode": "E8 2DJ", "cc": "GB", "city": "London", "state": "Greater London", "country": "United Kingdom", "formattedAddress": ["24 Ashwin St", "London", "Greater London", "E8 2DJ", "United Kingdom"]}, "categories": [{"id": "4bf58dd8d48988d137941735", "name": "Theater", "pluralName": "Theaters", "shortName": "Theater", "icon": {"prefix": "https://ss3.4sqi.net/img/categories_v2/arts_entertainment/performingarts_theater_", "suffix": ".png"}, "primary": true}], "photos": {"count": 0, "groups": []}}, "referralId": "e-0-4d28f2296e27a143b5951f24-0"}, {"reasons": {"count": 0, "items": [{"summary": "This spot is popular", "type": "general", "reasonName": "globalInteractionReason"}]}, "venue": {"id": "4b08016df964a520320223e3", "name": "Vortex Jazz Club", "location": {"address": "11 Gillett St", "crossStreet": "Boleyn Rd", "lat": 51.548855539560535, "lng": -0.07637873883879677, "labeledLatLngs": [{"label": "display", "lat": 51.548855539560535, "lng": -0.07637873883879677}], "distance": 361, "postalCode": "N16 8JH", "cc": "GB", "city": "London", "state": "Greater London", "country": "United Kingdom", "formattedAddress": ["11 Gillett St (Boleyn Rd)", "London", "Greater London", "N16 8JH", "United Kingdom"]}, "categories": [{"id": "4bf58dd8d48988d1e7931735", "name": "Jazz Club", "pluralName": "Jazz Clubs", "shortName": "Jazz Club", "icon": {"prefix": "https://ss3.4sqi.net/img/categories_v2/arts_entertainment/musicvenue_jazzclub_", "suffix": ".png"}, "primary": true}], "photos": {"count": 0, "groups": []}}, "referralId": "e-0-4b08016df964a520320223e3-1"}, {"reasons": {"count": 0, "items": [{"summary": "This spot is popular", "type": "general", "reasonName": "globalInteractionReason"}]}, "venue": {"id": "4ad907baf964a520531721e3", "name": "Dalston Jazz Bar", "location": {"address": "4 Bradbury St", "lat": 51.54866300531482, "lng": -0.07597925499456984, "labeledLatLngs": [{"label": "display", "lat": 51.54866300531482, "lng": -0.07597925499456984}], "distance": 343, "postalCode": "N16 8JN", "cc": "GB", "city": "London", "state": "Greater London", "country": "United Kingdom", "formattedAddress": ["4 Bradbury St", "London", "Greater London", "N16 8JN", "United Kingdom"]}, "categories": [{"id": "4bf58dd8d48988d1e7931735", "name": "Jazz Club", "pluralName": "Jazz Clubs", "shortName": "Jazz Club", "icon": {"prefix": "https://ss3.4sqi.net/img/categories_v2/arts_entertainment/musicvenue_jazzclub_", "suffix": ".png"}, "primary": true}], "photos": {"count": 0, "groups": []}}, "referralId": "e-0-4ad907baf964a520531721e3-2"}, {"reasons": {"count": 0, "items": [{"summary": "This spot is popular", "type": "general", "reasonName": "globalInteractionReason"}]}, "venue": {"id": "5c9ca661396de0002cc62094", "name": "The Jago", "location": {"address": "440 Kingsland Rd", "lat": 51.542334, "lng": -0.075603, "labeledLatLngs": [{"label": "display", "lat": 51.542334, "lng": -0.075603}], "distance": 376, "postalCode": "E8 4AA", "cc": "GB", "city": "London", "state": "Greater London", "country": "United Kingdom", "formattedAddress": ["440 Kingsland Rd", "London", "Greater London", "E8 4AA", "United Kingdom"]}, "categories": [{"id": "4bf58dd8d48988d1e5931735", "name": "Music Venue", "pluralName": "Music Venues", "shortName": "Music Venue", "icon": {"prefix": "https://ss3.4sqi.net/img/categories_v2/arts_entertainment/musicvenue_", "suffix": ".png"}, "primary": true}], "photos": {"count": 0, "groups": []}}, "referralId": "e-0-5c9ca661396de0002cc62094-3"}]}]}}