{"meta": {"code": 200, "requestId": "5fedd9d020e8e966758227ad"}, "response": {"headerLocation": "Childs Hill", "headerFullLocation": "Childs Hill, London", "headerLocationGranularity": "neighborhood", "query": "college education", "totalResults": 4, "suggestedBounds": {"ne": {"lat": 51.5665150036, "lng": -0.19140481233988632}, "sw": {"lat": 51.55931499639999, "lng": -0.20296518766011368}}, "groups": [{"type": "Recommended Places", "name": "recommended", "items": [{"reasons": {"count": 0, "items": [{"summary": "This spot is popular", "type": "general", "reasonName": "globalInteractionReason"}]}, "venue": {"id": "5a5cbe7b65cdf82a55fddc4f", "name": "Co-Op", "location": {"address": "713 Finchley Rd", "lat": 51.56312, "lng": -0.19729356, "labeledLatLngs": [{"label": "display", "lat": 51.56312, "lng": -0.19729356}], "distance": 24, "postalCode": "NW11 2JN", "cc": "GB", "city": "Childs Hill", "state": "Greater London", "country": "United Kingdom", "formattedAddress": ["713 Finchley Rd", "Childs Hill", "Greater London", "NW11 2JN", "United Kingdom"]}, "categories": [{"id": "4bf58dd8d48988d118951735", "name": "Grocery Store", "pluralName": "Grocery Stores", "shortName": "Grocery Store", "icon": {"prefix": "https://ss3.4sqi.net/img/categories_v2/shops/food_grocery_", "suffix": ".png"}, "primary": true}], "photos": {"count": 0, "groups": []}}, "referralId": "e-0-5a5cbe7b65cdf82a55fddc4f-0"}, {"reasons": {"count": 0, "items": [{"summary": "This spot is popular", "type": "general", "reasonName": "globalInteractionReason"}]}, "venue": {"id": "55adf73b498efe1245e32fb0", "name": "Danny Hair & Beauty", "location": {"address": "446", "crossStreet": "Frinchley Road", "lat": 51.56259676868674, "lng": -0.19692553074231245, "labeledLatLngs": [{"label": "display", "lat": 51.56259676868674, "lng": -0.19692553074231245}], "distance": 39, "cc": "GB", "city": "London", "state": "Greater London", "country": "United Kingdom", "formattedAddress": ["446 (Frinchley Road)", "London", "Greater London", "United Kingdom"]}, "categories": [{"id": "54541900498ea6ccd0202697", "name": "Health & Beauty Service", "pluralName": "Health & Beauty Services", "shortName": "Health & Beauty", "icon": {"prefix": "https://ss3.4sqi.net/img/categories_v2/shops/salon_barber_", "suffix": ".png"}, "primary": true}], "photos": {"count": 0, "groups": []}}, "referralId": "e-0-55adf73b498efe1245e32fb0-1"}, {"reasons": {"count": 0, "items": [{"summary": "This spot is popular", "type": "general", "reasonName": "globalInteractionReason"}]}, "venue": {"id": "4e9cc433722e2953f76d286c", "name": "ScubaZone", "location": {"address": "380 Finchley Road", "crossStreet": "Church Walk", "lat": 51.559508397354875, "lng": -0.19701380709526853, "labeledLatLngs": [{"label": "display", "lat": 51.559508397354875, "lng": -0.19701380709526853}], "distance": 379, "postalCode": "NW2 2HP", "cc": "GB", "city": "London", "state": "Greater London", "country": "United Kingdom", "formattedAddress": ["380 Finchley Road (Church Walk)", "London", "Greater London", "NW2 2HP", "United Kingdom"]}, "categories": [{"id": "4bf58dd8d48988d1f2941735", "name": "Sporting Goods Shop", "pluralName": "Sporting Goods Shops", "shortName": "Sporting Goods", "icon": {"prefix": "https://ss3.4sqi.net/img/categories_v2/shops/sports_outdoors_", "suffix": ".png"}, "primary": true}], "photos": {"count": 0, "groups": []}}, "referralId": "e-0-4e9cc433722e2953f76d286c-2"}, {"reasons": {"count": 0, "items": [{"summary": "This spot is popular", "type": "general", "reasonName": "globalInteractionReason"}]}, "venue": {"id": "597090bc0fe7a019d04f44b9", "name": "Jessica Beecham", "location": {"address": "45 Garth Road", "lat": 51.5646996, "lng": -0.20212270000001809, "labeledLatLngs": [{"label": "display", "lat": 51.5646996, "lng": -0.20212270000001809}], "distance": 395, "postalCode": "NW2 2NH", "cc": "GB", "city": "London", "state": "Greater London", "country": "United Kingdom", "formattedAddress": ["45 Garth Road", "London", "Greater London", "NW2 2NH", "United Kingdom"]}, "categories": [{"id": "4bf58dd8d48988d107951735", "name": "Shoe Store", "pluralName": "Shoe Stores", "shortName": "Shoes", "icon": {"prefix": "https://ss3.4sqi.net/img/categories_v2/shops/apparel_shoestore_", "suffix": ".png"}, "primary": true}], "photos": {"count": 0, "groups": []}}, "referralId": "e-0-597090bc0fe7a019d04f44b9-3"}]}]}}