{"meta": {"code": 200, "requestId": "5feddc446ef73c60c64796c2"}, "response": {"suggestedFilters": {"header": "Tap to show:", "filters": [{"name": "Open now", "key": "openNow"}]}, "headerLocation": "Burnt Oak", "headerFullLocation": "Burnt Oak, London", "headerLocationGranularity": "neighborhood", "query": "college education", "totalResults": 7, "suggestedBounds": {"ne": {"lat": 51.59917000360001, "lng": -0.25351565751085653}, "sw": {"lat": 51.591969996399996, "lng": -0.2650843424891434}}, "groups": [{"type": "Recommended Places", "name": "recommended", "items": [{"reasons": {"count": 0, "items": [{"summary": "This spot is popular", "type": "general", "reasonName": "globalInteractionReason"}]}, "venue": {"id": "56e98b18498e05b91ce2b1e7", "name": "Morrisons", "location": {"address": "399 Edgware Rd", "lat": 51.59354941371572, "lng": -0.26016034989535924, "labeledLatLngs": [{"label": "display", "lat": 51.59354941371572, "lng": -0.26016034989535924}], "distance": 232, "postalCode": "NW9 0AS", "cc": "GB", "city": "London", "state": "Greater London", "country": "United Kingdom", "formattedAddress": ["399 Edgware Rd", "London", "Greater London", "NW9 0AS", "United Kingdom"]}, "categories": [{"id": "52f2ab2ebcbc57f1066b8b46", "name": "Supermarket", "pluralName": "Supermarkets", "shortName": "Supermarket", "icon": {"prefix": "https://ss3.4sqi.net/img/categories_v2/shops/food_grocery_", "suffix": ".png"}, "primary": true}], "photos": {"count": 0, "groups": []}}, "referralId": "e-0-56e98b18498e05b91ce2b1e7-0"}, {"reasons": {"count": 0, "items": [{"summary": "This spot is popular", "type": "general", "reasonName": "globalInteractionReason"}]}, "venue": {"id": "59b3ad4e3c858d7f3b1e520f", "name": "Loon Fung Colindale", "location": {"address": "399 Edgware Road", "lat": 51.59294081968189, "lng": -0.25852591796761004, "labeledLatLngs": [{"label": "display", "lat": 51.59294081968189, "lng": -0.25852591796761004}], "distance": 297, "postalCode": "NW9 0FH", "cc": "GB", "city": "London", "state": "Greater London", "country": "United Kingdom", "formattedAddress": ["399 Edgware Road", "London", "Greater London", "NW9 0FH", "United Kingdom"]}, "categories": [{"id": "52f2ab2ebcbc57f1066b8b46", "name": "Supermarket", "pluralName": "Supermarkets", "shortName": "Supermarket", "icon": {"prefix": "https://ss3.4sqi.net/img/categories_v2/shops/food_grocery_", "suffix": ".png"}, "primary": true}], "photos": {"count": 0, "groups": []}}, "referralId": "e-0-59b3ad4e3c858d7f3b1e520f-1"}, {"reasons": {"count": 0, "items": [{"summary": "This spot is popular", "type": "general", "reasonName": "globalInteractionReason"}]}, "venue": {"id": "5b4eede8de3bbf002c8f864b", "name": "M&S Foodhall", "location": {"address": "47A Capitol Way", "lat": 51.594557, "lng": -0.261816, "labeledLatLngs": [{"label": "display", "lat": 51.594557, "lng": -0.261816}], "distance": 207, "postalCode": "NW9 0AW", "cc": "GB", "city": "London", "state": "Greater London", "country": "United Kingdom", "formattedAddress": ["47A Capitol Way", "London", "Greater London", "NW9 0AW", "United Kingdom"]}, "categories": [{"id": "4bf58dd8d48988d118951735", "name": "Grocery Store", "pluralName": "Grocery Stores", "shortName": "Grocery Store", "icon": {"prefix": "https://ss3.4sqi.net/img/categories_v2/shops/food_grocery_", "suffix": ".png"}, "primary": true}], "photos": {"count": 0, "groups": []}, "venuePage": {"id": "572554896"}}, "referralId": "e-0-5b4eede8de3bbf002c8f864b-2"}, {"reasons": {"count": 0, "items": [{"summary": "This spot is popular", "type": "general", "reasonName": "globalInteractionReason"}]}, "venue": {"id": "4b599a73f964a5206d8e28e3", "name": "Asda", "location": {"address": "Capitol Way off Edgware Road, Colindale", "crossStreet": "Off Edgware Rd", "lat": 51.5942498, "lng": -0.2617698, "labeledLatLngs": [{"label": "display", "lat": 51.5942498, "lng": -0.2617698}], "distance": 225, "postalCode": "NW9 0AS", "cc": "GB", "city": "London", "state": "Greater London", "country": "United Kingdom", "formattedAddress": ["Capitol Way off Edgware Road, Colindale (Off Edgware Rd)", "London", "Greater London", "NW9 0AS", "United Kingdom"]}, "categories": [{"id": "52f2ab2ebcbc57f1066b8b46", "name": "Supermarket", "pluralName": "Supermarkets", "shortName": "Supermarket", "icon": {"prefix": "https://ss3.4sqi.net/img/categories_v2/shops/food_grocery_", "suffix": ".png"}, "primary": true}], "photos": {"count": 0, "groups": []}}, "referralId": "e-0-4b599a73f964a5206d8e28e3-3"}, {"reasons": {"count": 0, "items": [{"summary": "This spot is popular", "type": "general", "reasonName": "globalInteractionReason"}]}, "venue": {"id": "5fd45ec49260f00465ce2b8b", "name": "Aesthetic Beauty Academy", "location": {"address": "The Greenway", "lat": 51.59528384, "lng": -0.25887853, "labeledLatLngs": [{"label": "display", "lat": 51.59528384, "lng": -0.25887853}], "distance": 43, "postalCode": "NW9 5AP", "cc": "GB", "city": "London", "state": "Greater London", "country": "United Kingdom", "formattedAddress": ["The Greenway", "London", "Greater London", "NW9 5AP", "United Kingdom"]}, "categories": [{"id": "54541900498ea6ccd0202697", "name": "Health & Beauty Service", "pluralName": "Health & Beauty Services", "shortName": "Health & Beauty", "icon": {"prefix": "https://ss3.4sqi.net/img/categories_v2/shops/salon_barber_", "suffix": ".png"}, "primary": true}], "photos": {"count": 0, "groups": []}, "venuePage": {"id": "1359690865"}}, "referralId": "e-0-5fd45ec49260f00465ce2b8b-4"}, {"reasons": {"count": 0, "items": [{"summary": "This spot is popular", "type": "general", "reasonName": "globalInteractionReason"}]}, "venue": {"id": "4e74609745ddd4323f3ee1ce", "name": "Kwik-Fit", "location": {"address": "Edgware Rd", "lat": 51.59283845, "lng": -0.25782306, "labeledLatLngs": [{"label": "display", "lat": 51.59283845, "lng": -0.25782306}], "distance": 320, "postalCode": "NW9 6LP", "cc": "GB", "city": "London", "state": "Greater London", "country": "United Kingdom", "formattedAddress": ["Edgware Rd", "London", "Greater London", "NW9 6LP", "United Kingdom"]}, "categories": [{"id": "52f2ab2ebcbc57f1066b8b44", "name": "Auto Garage", "pluralName": "Auto Garages", "shortName": "Auto Garage", "icon": {"prefix": "https://ss3.4sqi.net/img/categories_v2/shops/automotive_", "suffix": ".png"}, "primary": true}], "photos": {"count": 0, "groups": []}}, "referralId": "e-0-4e74609745ddd4323f3ee1ce-5"}, {"reasons": {"count": 0, "items": [{"summary": "This spot is popular", "type": "general", "reasonName": "globalInteractionReason"}]}, "venue": {"id": "5a0fe2c9e65d0c5465bdef60", "name": "A2z Accessories Ltd", "location": {"address": "Unit 11 Capital Industrial Park", "lat": 51.5946411, "lng": -0.264516700000058, "labeledLatLngs": [{"label": "display", "lat": 51.5946411, "lng": -0.264516700000058}], "distance": 375, "postalCode": "NW9 0EQ", "cc": "GB", "city": "London", "state": "Greater London", "country": "United Kingdom", "formattedAddress": ["Unit 11 Capital Industrial Park", "Brent", "Greater London", "NW9 0EQ", "United Kingdom"]}, "categories": [{"id": "4bf58dd8d48988d122951735", "name": "Electronics Store", "pluralName": "Electronics Stores", "shortName": "Electronics", "icon": {"prefix": "https://ss3.4sqi.net/img/categories_v2/shops/technology_", "suffix": ".png"}, "primary": true}], "photos": {"count": 0, "groups": []}}, "referralId": "e-0-5a0fe2c9e65d0c5465bdef60-6"}]}]}}