{"meta": {"code": 200, "requestId": "5feddc8fee40976c11446e2b"}, "response": {"suggestedFilters": {"header": "Tap to show:", "filters": [{"name": "Open now", "key": "openNow"}]}, "headerLocation": "Hackney", "headerFullLocation": "Hackney, London", "headerLocationGranularity": "neighborhood", "query": "food", "totalResults": 14, "suggestedBounds": {"ne": {"lat": 51.540800003600005, "lng": -0.04118307864610619}, "sw": {"lat": 51.53359999639999, "lng": -0.052736921353893816}}, "groups": [{"type": "Recommended Places", "name": "recommended", "items": [{"reasons": {"count": 0, "items": [{"summary": "This spot is popular", "type": "general", "reasonName": "globalInteractionReason"}]}, "venue": {"id": "4c96152594a0236a5fa69b12", "name": "The Deli Downstairs", "location": {"address": "211 Lauriston Rd", "lat": 51.53825566410911, "lng": -0.045213859699347325, "labeledLatLngs": [{"label": "display", "lat": 51.53825566410911, "lng": -0.045213859699347325}], "distance": 168, "postalCode": "E9 7JN", "cc": "GB", "city": "Hackney", "state": "Greater London", "country": "United Kingdom", "formattedAddress": ["211 Lauriston Rd", "Hackney", "Greater London", "E9 7JN", "United Kingdom"]}, "categories": [{"id": "4bf58dd8d48988d146941735", "name": "Deli / Bodega", "pluralName": "Delis / Bodegas", "shortName": "Deli / Bodega", "icon": {"prefix": "https://ss3.4sqi.net/img/categories_v2/food/deli_", "suffix": ".png"}, "primary": true}], "photos": {"count": 0, "groups": []}}, "referralId": "e-0-4c96152594a0236a5fa69b12-0"}, {"reasons": {"count": 0, "items": [{"summary": "This spot is popular", "type": "general", "reasonName": "globalInteractionReason"}]}, "venue": {"id": "4e5d5cdecc3f288d99095c84", "name": "The Empress", "location": {"address": "130 Lauriston Rd", "lat": 51.53704789933189, "lng": -0.04453316442281491, "labeledLatLngs": [{"label": "display", "lat": 51.53704789933189, "lng": -0.04453316442281491}], "distance": 168, "postalCode": "E9 7LH", "cc": "GB", "city": "Hackney", "state": "Greater London", "country": "United Kingdom", "formattedAddress": ["130 Lauriston Rd", "Hackney", "Greater London", "E9 7LH", "United Kingdom"]}, "categories": [{"id": "4bf58dd8d48988d155941735", "name": "Gastropub", "pluralName": "Gastropubs", "shortName": "Gastropub", "icon": {"prefix": "https://ss3.4sqi.net/img/categories_v2/food/gastropub_", "suffix": ".png"}, "primary": true}], "photos": {"count": 0, "groups": []}}, "referralId": "e-0-4e5d5cdecc3f288d99095c84-1"}, {"reasons": {"count": 0, "items": [{"summary": "This spot is popular", "type": "general", "reasonName": "globalInteractionReason"}]}, "venue": {"id": "4ad0995bf964a520abd820e3", "name": "Fish House", "location": {"address": "126-128 Lauriston Rd", "lat": 51.53713023143103, "lng": -0.04457463201319822, "labeledLatLngs": [{"label": "display", "lat": 51.53713023143103, "lng": -0.04457463201319822}], "distance": 165, "postalCode": "E9 7LH", "cc": "GB", "city": "Hackney", "state": "Greater London", "country": "United Kingdom", "formattedAddress": ["126-128 Lauriston Rd", "Hackney", "Greater London", "E9 7LH", "United Kingdom"]}, "categories": [{"id": "4edd64a0c7ddd24ca188df1a", "name": "Fish & Chips Shop", "pluralName": "Fish & Chips Shops", "shortName": "Fish & Chips", "icon": {"prefix": "https://ss3.4sqi.net/img/categories_v2/food/fishandchips_", "suffix": ".png"}, "primary": true}], "photos": {"count": 0, "groups": []}}, "referralId": "e-0-4ad0995bf964a520abd820e3-2"}, {"reasons": {"count": 0, "items": [{"summary": "This spot is popular", "type": "general", "reasonName": "globalInteractionReason"}]}, "venue": {"id": "57c16071498e5d14ae19bb3c", "name": "GAIL's Bakery", "location": {"address": "87 Lauriston Rd", "lat": 51.537828792327545, "lng": -0.04476815122626007, "labeledLatLngs": [{"label": "display", "lat": 51.537828792327545, "lng": -0.04476815122626007}], "distance": 167, "postalCode": "E9 7HJ", "cc": "GB", "city": "Victoria Park", "state": "Greater London", "country": "United Kingdom", "formattedAddress": ["87 Lauriston Rd", "Victoria Park", "Greater London", "E9 7HJ", "United Kingdom"]}, "categories": [{"id": "4bf58dd8d48988d16a941735", "name": "Bakery", "pluralName": "Bakeries", "shortName": "Bakery", "icon": {"prefix": "https://ss3.4sqi.net/img/categories_v2/food/bakery_", "suffix": ".png"}, "primary": true}], "photos": {"count": 0, "groups": []}}, "referralId": "e-0-57c16071498e5d14ae19bb3c-3"}, {"reasons": {"count": 0, "items": [{"summary": "This spot is popular", "type": "general", "reasonName": "globalInteractionReason"}]}, "venue": {"id": "5172760580556c49760962bf", "name": "Refreshment Room at The Deli Downstairs", "location": {"address": "211 Victoria Park Road", "crossStreet": "Victoria Park Village", "lat": 51.538274479439075, "lng": -0.045168399810791016, "labeledLatLngs": [{"label": "display", "lat": 51.538274479439075, "lng": -0.045168399810791016}], "distance": 172, "postalCode": "E9 7JN", "cc": "GB", "city": "London", "state": "Greater London", "country": "United Kingdom", "formattedAddress": ["211 Victoria Park Road (Victoria Park Village)", "London", "Greater London", "E9 7JN", "United Kingdom"]}, "categories": [{"id": "4bf58dd8d48988d16d941735", "name": "Caf\u00e9", "pluralName": "Caf\u00e9s", "shortName": "Caf\u00e9", "icon": {"prefix": "https://ss3.4sqi.net/img/categories_v2/food/cafe_", "suffix": ".png"}, "primary": true}], "photos": {"count": 0, "groups": []}}, "referralId": "e-0-5172760580556c49760962bf-4"}, {"reasons": {"count": 0, "items": [{"summary": "This spot is popular", "type": "general", "reasonName": "globalInteractionReason"}]}, "venue": {"id": "4ad095d5f964a52091d820e3", "name": "Elbows", "location": {"address": "103 Lauriston Rd", "lat": 51.537249068041305, "lng": -0.04451161085733462, "labeledLatLngs": [{"label": "display", "lat": 51.537249068041305, "lng": -0.04451161085733462}], "distance": 169, "postalCode": "E9 7HJ", "cc": "GB", "city": "Hackney", "state": "Greater London", "country": "United Kingdom", "formattedAddress": ["103 Lauriston Rd", "Hackney", "Greater London", "E9 7HJ", "United Kingdom"]}, "categories": [{"id": "4bf58dd8d48988d16d941735", "name": "Caf\u00e9", "pluralName": "Caf\u00e9s", "shortName": "Caf\u00e9", "icon": {"prefix": "https://ss3.4sqi.net/img/categories_v2/food/cafe_", "suffix": ".png"}, "primary": true}], "photos": {"count": 0, "groups": []}}, "referralId": "e-0-4ad095d5f964a52091d820e3-5"}, {"reasons": {"count": 0, "items": [{"summary": "This spot is popular", "type": "general", "reasonName": "globalInteractionReason"}]}, "venue": {"id": "4dff64b088779f08f9986db9", "name": "Bagel on the Park", "location": {"address": "105 Gore Rd", "crossStreet": "Victoria Park", "lat": 51.53656855031377, "lng": -0.04381383060946689, "labeledLatLngs": [{"label": "display", "lat": 51.53656855031377, "lng": -0.04381383060946689}], "distance": 228, "postalCode": "E9 7HW", "cc": "GB", "city": "Hackney", "state": "Greater London", "country": "United Kingdom", "formattedAddress": ["105 Gore Rd (Victoria Park)", "Hackney", "Greater London", "E9 7HW", "United Kingdom"]}, "categories": [{"id": "4bf58dd8d48988d179941735", "name": "Bagel Shop", "pluralName": "Bagel Shops", "shortName": "Bagels", "icon": {"prefix": "https://ss3.4sqi.net/img/categories_v2/food/bagels_", "suffix": ".png"}, "primary": true}], "photos": {"count": 0, "groups": []}}, "referralId": "e-0-4dff64b088779f08f9986db9-6"}, {"reasons": {"count": 0, "items": [{"summary": "This spot is popular", "type": "general", "reasonName": "globalInteractionReason"}]}, "venue": {"id": "54e8bcf8498e3c879d2cff94", "name": "Hector & Noble", "location": {"address": "Victoria Park Rd", "lat": 51.53837539540951, "lng": -0.04379244834389411, "labeledLatLngs": [{"label": "display", "lat": 51.53837539540951, "lng": -0.04379244834389411}], "distance": 255, "cc": "GB", "city": "London", "state": "Greater London", "country": "United Kingdom", "formattedAddress": ["Victoria Park Rd", "London", "Greater London", "United Kingdom"]}, "categories": [{"id": "4bf58dd8d48988d155941735", "name": "Gastropub", "pluralName": "Gastropubs", "shortName": "Gastropub", "icon": {"prefix": "https://ss3.4sqi.net/img/categories_v2/food/gastropub_", "suffix": ".png"}, "primary": true}], "photos": {"count": 0, "groups": []}}, "referralId": "e-0-54e8bcf8498e3c879d2cff94-7"}, {"reasons": {"count": 0, "items": [{"summary": "This spot is popular", "type": "general", "reasonName": "globalInteractionReason"}]}, "venue": {"id": "4ef07eec9a52cecf42f985fb", "name": "Chambers", "location": {"address": "132 Lauriston road", "lat": 51.53690487583527, "lng": -0.04445830136877491, "labeledLatLngs": [{"label": "display", "lat": 51.53690487583527, "lng": -0.04445830136877491}], "distance": 176, "cc": "GB", "city": "London", "state": "Greater London", "country": "United Kingdom", "formattedAddress": ["132 Lauriston road", "London", "Greater London", "United Kingdom"]}, "categories": [{"id": "4bf58dd8d48988d115941735", "name": "Middle Eastern Restaurant", "pluralName": "Middle Eastern Restaurants", "shortName": "Middle Eastern", "icon": {"prefix": "https://ss3.4sqi.net/img/categories_v2/food/middleeastern_", "suffix": ".png"}, "primary": true}], "photos": {"count": 0, "groups": []}}, "referralId": "e-0-4ef07eec9a52cecf42f985fb-8"}, {"reasons": {"count": 0, "items": [{"summary": "This spot is popular", "type": "general", "reasonName": "globalInteractionReason"}]}, "venue": {"id": "56423c7f498e5d69a92f33fc", "name": "buon appetito", "location": {"address": "136 Lauriston Road", "lat": 51.536819, "lng": -0.044797, "labeledLatLngs": [{"label": "display", "lat": 51.536819, "lng": -0.044797}], "distance": 155, "postalCode": "E9 7LH", "cc": "GB", "country": "United Kingdom", "formattedAddress": ["136 Lauriston Road", "E9 7LH", "United Kingdom"]}, "categories": [{"id": "4bf58dd8d48988d110941735", "name": "Italian Restaurant", "pluralName": "Italian Restaurants", "shortName": "Italian", "icon": {"prefix": "https://ss3.4sqi.net/img/categories_v2/food/italian_", "suffix": ".png"}, "primary": true}], "photos": {"count": 0, "groups": []}}, "referralId": "e-0-56423c7f498e5d69a92f33fc-9"}, {"reasons": {"count": 0, "items": [{"summary": "This spot is popular", "type": "general", "reasonName": "globalInteractionReason"}]}, "venue": {"id": "4cc891475c17b60cdf110405", "name": "Standard Tandoori", "location": {"lat": 51.53747899836356, "lng": -0.04459667494387482, "labeledLatLngs": [{"label": "display", "lat": 51.53747899836356, "lng": -0.04459667494387482}], "distance": 166, "cc": "GB", "country": "United Kingdom", "formattedAddress": ["United Kingdom"]}, "categories": [{"id": "4bf58dd8d48988d10f941735", "name": "Indian Restaurant", "pluralName": "Indian Restaurants", "shortName": "Indian", "icon": {"prefix": "https://ss3.4sqi.net/img/categories_v2/food/indian_", "suffix": ".png"}, "primary": true}], "photos": {"count": 0, "groups": []}}, "referralId": "e-0-4cc891475c17b60cdf110405-10"}, {"reasons": {"count": 0, "items": [{"summary": "This spot is popular", "type": "general", "reasonName": "globalInteractionReason"}]}, "venue": {"id": "5c619cbe12f0a9002c96fdc5", "name": "Boulangerie Jade", "location": {"address": "79 Lauriston Rd", "lat": 51.537926, "lng": -0.044791, "labeledLatLngs": [{"label": "display", "lat": 51.537926, "lng": -0.044791}], "distance": 170, "postalCode": "E9 7HJ", "cc": "GB", "city": "London", "state": "Greater London", "country": "United Kingdom", "formattedAddress": ["79 Lauriston Rd", "London", "Greater London", "E9 7HJ", "United Kingdom"]}, "categories": [{"id": "4bf58dd8d48988d16a941735", "name": "Bakery", "pluralName": "Bakeries", "shortName": "Bakery", "icon": {"prefix": "https://ss3.4sqi.net/img/categories_v2/food/bakery_", "suffix": ".png"}, "primary": true}], "photos": {"count": 0, "groups": []}}, "referralId": "e-0-5c619cbe12f0a9002c96fdc5-11"}, {"reasons": {"count": 0, "items": [{"summary": "This spot is popular", "type": "general", "reasonName": "globalInteractionReason"}]}, "venue": {"id": "4e18b337d4c062b044eb0a80", "name": "Victoria Balti Tandoori", "location": {"address": "200-216 Victoria Park Rd", "lat": 51.53844989231713, "lng": -0.043582920470335816, "labeledLatLngs": [{"label": "display", "lat": 51.53844989231713, "lng": -0.043582920470335816}], "distance": 272, "postalCode": "E 9 7", "cc": "GB", "city": "Hackney", "state": "Greater London", "country": "United Kingdom", "formattedAddress": ["200-216 Victoria Park Rd", "Hackney", "Greater London", "E 9 7", "United Kingdom"]}, "categories": [{"id": "4bf58dd8d48988d10f941735", "name": "Indian Restaurant", "pluralName": "Indian Restaurants", "shortName": "Indian", "icon": {"prefix": "https://ss3.4sqi.net/img/categories_v2/food/indian_", "suffix": ".png"}, "primary": true}], "photos": {"count": 0, "groups": []}}, "referralId": "e-0-4e18b337d4c062b044eb0a80-12"}, {"reasons": {"count": 0, "items": [{"summary": "This spot is popular", "type": "general", "reasonName": "globalInteractionReason"}]}, "venue": {"id": "5d484d5a57df85000823507b", "name": "My Neighbours The Dumplings", "location": {"address": "178-180 Victoria Park Road", "lat": 51.53825779631848, "lng": -0.04385814070701599, "labeledLatLngs": [{"label": "display", "lat": 51.53825779631848, "lng": -0.04385814070701599}], "distance": 244, "postalCode": "E9 7HD", "cc": "GB", "city": "London", "state": "Greater London", "country": "United Kingdom", "formattedAddress": ["178-180 Victoria Park Road", "London", "Greater London", "E9 7HD", "United Kingdom"]}, "categories": [{"id": "4bf58dd8d48988d108941735", "name": "Dumpling Restaurant", "pluralName": "Dumpling Restaurants", "shortName": "Dumplings", "icon": {"prefix": "https://ss3.4sqi.net/img/categories_v2/food/dumplings_", "suffix": ".png"}, "primary": true}], "photos": {"count": 0, "groups": []}}, "referralId": "e-0-5d484d5a57df85000823507b-13"}]}]}}