{"meta": {"code": 200, "requestId": "5fedda2967c4b002072334b8"}, "response": {"warning": {"text": "There aren't a lot of results near you. Try something more general, reset your filters, or expand the search area."}, "headerLocation": "Hackney", "headerFullLocation": "Hackney, London", "headerLocationGranularity": "neighborhood", "query": "travel", "totalResults": 3, "suggestedBounds": {"ne": {"lat": 51.543555003600005, "lng": -0.03817172893962969}, "sw": {"lat": 51.53635499639999, "lng": -0.049726271060370315}}, "groups": [{"type": "Recommended Places", "name": "recommended", "items": [{"reasons": {"count": 0, "items": [{"summary": "This spot is popular", "type": "general", "reasonName": "globalInteractionReason"}]}, "venue": {"id": "4f638a24e4b02cbb7e2aafbe", "name": "The Residential Suite", "location": {"address": "229 Victoria Park Road", "lat": 51.538274, "lng": -0.044074, "labeledLatLngs": [{"label": "display", "lat": 51.538274, "lng": -0.044074}], "distance": 187, "postalCode": "E9 7HD", "cc": "GB", "city": "London", "state": "Greater London", "country": "United Kingdom", "formattedAddress": ["229 Victoria Park Road", "London", "Greater London", "E9 7HD", "United Kingdom"]}, "categories": [{"id": "4bf58dd8d48988d1fa931735", "name": "Hotel", "pluralName": "Hotels", "shortName": "Hotel", "icon": {"prefix": "https://ss3.4sqi.net/img/categories_v2/travel/hotel_", "suffix": ".png"}, "primary": true}], "photos": {"count": 0, "groups": []}}, "referralId": "e-0-4f638a24e4b02cbb7e2aafbe-0"}, {"reasons": {"count": 0, "items": [{"summary": "This spot is popular", "type": "general", "reasonName": "globalInteractionReason"}]}, "venue": {"id": "51a38be0498e38ca0ad33b35", "name": "Victoria Park Road Bus Stop X", "location": {"lat": 51.53723907470703, "lng": -0.044503211975097656, "labeledLatLngs": [{"label": "display", "lat": 51.53723907470703, "lng": -0.044503211975097656}], "distance": 304, "cc": "GB", "country": "United Kingdom", "formattedAddress": ["United Kingdom"]}, "categories": [{"id": "52f2ab2ebcbc57f1066b8b4f", "name": "Bus Stop", "pluralName": "Bus Stops", "shortName": "Bus Stop", "icon": {"prefix": "https://ss3.4sqi.net/img/categories_v2/travel/busstation_", "suffix": ".png"}, "primary": true}], "photos": {"count": 0, "groups": []}}, "referralId": "e-0-51a38be0498e38ca0ad33b35-1"}, {"reasons": {"count": 0, "items": [{"summary": "This spot is popular", "type": "general", "reasonName": "globalInteractionReason"}]}, "venue": {"id": "4fece7a9e4b0b26449cefb5c", "name": "Terrace Road Bus Stop - 277", "location": {"address": "31 Terrace Road", "lat": 51.54158577972989, "lng": -0.04798349155629465, "labeledLatLngs": [{"label": "display", "lat": 51.54158577972989, "lng": -0.04798349155629465}], "distance": 333, "cc": "GB", "country": "United Kingdom", "formattedAddress": ["31 Terrace Road", "United Kingdom"]}, "categories": [{"id": "52f2ab2ebcbc57f1066b8b4f", "name": "Bus Stop", "pluralName": "Bus Stops", "shortName": "Bus Stop", "icon": {"prefix": "https://ss3.4sqi.net/img/categories_v2/travel/busstation_", "suffix": ".png"}, "primary": true}], "photos": {"count": 0, "groups": []}}, "referralId": "e-0-4fece7a9e4b0b26449cefb5c-2"}]}]}}