{"meta": {"code": 200, "requestId": "5feddc6e671d1b692158821e"}, "response": {"suggestedFilters": {"header": "Tap to show:", "filters": [{"name": "Open now", "key": "openNow"}]}, "headerLocation": "De Beauvoir", "headerFullLocation": "De Beauvoir, London", "headerLocationGranularity": "neighborhood", "query": "college education", "totalResults": 6, "suggestedBounds": {"ne": {"lat": 51.53875000360001, "lng": -0.08049333882712972}, "sw": {"lat": 51.531549996399995, "lng": -0.09204666117287028}}, "groups": [{"type": "Recommended Places", "name": "recommended", "items": [{"reasons": {"count": 0, "items": [{"summary": "This spot is popular", "type": "general", "reasonName": "globalInteractionReason"}]}, "venue": {"id": "4ba66068f964a520c94b39e3", "name": "Co-op Food", "location": {"address": "Gainsborough Studios, 136 New North Road", "lat": 51.53569304277973, "lng": -0.08922279913936751, "labeledLatLngs": [{"label": "display", "lat": 51.53569304277973, "lng": -0.08922279913936751}], "distance": 213, "postalCode": "N1 6SU", "cc": "GB", "city": "London", "state": "Greater London", "country": "United Kingdom", "formattedAddress": ["Gainsborough Studios, 136 New North Road", "London", "Greater London", "N1 6SU", "United Kingdom"]}, "categories": [{"id": "4bf58dd8d48988d118951735", "name": "Grocery Store", "pluralName": "Grocery Stores", "shortName": "Grocery Store", "icon": {"prefix": "https://ss3.4sqi.net/img/categories_v2/shops/food_grocery_", "suffix": ".png"}, "primary": true}], "photos": {"count": 0, "groups": []}}, "referralId": "e-0-4ba66068f964a520c94b39e3-0"}, {"reasons": {"count": 0, "items": [{"summary": "This spot is popular", "type": "general", "reasonName": "globalInteractionReason"}]}, "venue": {"id": "58d502224f218a6c1de405f8", "name": "Wimborne Studios", "location": {"address": "394 Wimbourne Street", "lat": 51.53391, "lng": -0.088322125, "labeledLatLngs": [{"label": "display", "lat": 51.53391, "lng": -0.088322125}], "distance": 198, "postalCode": "N1", "cc": "GB", "city": "London", "state": "Greater London", "country": "United Kingdom", "formattedAddress": ["394 Wimbourne Street", "London", "Greater London", "N1", "United Kingdom"]}, "categories": [{"id": "554a5e17498efabeda6cc559", "name": "Photography Studio", "pluralName": "Photography Studios", "shortName": "Photo Studio", "icon": {"prefix": "https://ss3.4sqi.net/img/categories_v2/shops/camerastore_", "suffix": ".png"}, "primary": true}], "photos": {"count": 0, "groups": []}}, "referralId": "e-0-58d502224f218a6c1de405f8-1"}, {"reasons": {"count": 0, "items": [{"summary": "This spot is popular", "type": "general", "reasonName": "globalInteractionReason"}]}, "venue": {"id": "5ee9bf87091b530008b22758", "name": "Clovertone Ltd", "location": {"address": "9 Canal Walk", "lat": 51.53769029999999, "lng": -0.08514139999999999, "labeledLatLngs": [{"label": "display", "lat": 51.53769029999999, "lng": -0.08514139999999999}], "distance": 293, "postalCode": "N1 5SA", "cc": "GB", "city": "London", "state": "Greater London", "country": "United Kingdom", "formattedAddress": ["9 Canal Walk", "London", "Greater London", "N1 5SA", "United Kingdom"]}, "categories": [{"id": "52f2ab2ebcbc57f1066b8b28", "name": "Print Shop", "pluralName": "Print Shops", "shortName": "Print Shop", "icon": {"prefix": "https://ss3.4sqi.net/img/categories_v2/shops/default_", "suffix": ".png"}, "primary": true}], "photos": {"count": 0, "groups": []}, "venuePage": {"id": "586056350"}}, "referralId": "e-0-5ee9bf87091b530008b22758-2"}, {"reasons": {"count": 0, "items": [{"summary": "This spot is popular", "type": "general", "reasonName": "globalInteractionReason"}]}, "venue": {"id": "5d7b8f27049f0a00089486ea", "name": "MIKI Studios", "location": {"address": "Suite 206 275 New N Rd", "lat": 51.53684638217311, "lng": -0.09063720703125, "labeledLatLngs": [{"label": "display", "lat": 51.53684638217311, "lng": -0.09063720703125}], "distance": 356, "postalCode": "N1 7AA", "cc": "GB", "city": "London", "state": "Greater London", "country": "United Kingdom", "formattedAddress": ["Suite 206 275 New N Rd", "London", "Greater London", "N1 7AA", "United Kingdom"]}, "categories": [{"id": "554a5e17498efabeda6cc559", "name": "Photography Studio", "pluralName": "Photography Studios", "shortName": "Photo Studio", "icon": {"prefix": "https://ss3.4sqi.net/img/categories_v2/shops/camerastore_", "suffix": ".png"}, "primary": true}], "photos": {"count": 0, "groups": []}, "venuePage": {"id": "586825017"}}, "referralId": "e-0-5d7b8f27049f0a00089486ea-3"}, {"reasons": {"count": 0, "items": [{"summary": "This spot is popular", "type": "general", "reasonName": "globalInteractionReason"}]}, "venue": {"id": "4c27abff783d9c7467278f6b", "name": "Tesco Express", "location": {"address": "14-18 Southgate Rd", "lat": 51.53821275186232, "lng": -0.08587092161178589, "labeledLatLngs": [{"label": "display", "lat": 51.53821275186232, "lng": -0.08587092161178589}], "distance": 342, "postalCode": "N1 3JE", "cc": "GB", "city": "London", "state": "Greater London", "country": "United Kingdom", "formattedAddress": ["14-18 Southgate Rd", "London", "Greater London", "N1 3JE", "United Kingdom"]}, "categories": [{"id": "4bf58dd8d48988d118951735", "name": "Grocery Store", "pluralName": "Grocery Stores", "shortName": "Grocery Store", "icon": {"prefix": "https://ss3.4sqi.net/img/categories_v2/shops/food_grocery_", "suffix": ".png"}, "primary": true}], "photos": {"count": 0, "groups": []}}, "referralId": "e-0-4c27abff783d9c7467278f6b-4"}, {"reasons": {"count": 0, "items": [{"summary": "This spot is popular", "type": "general", "reasonName": "globalInteractionReason"}]}, "venue": {"id": "5d11fb483e8ac4002df5c7b8", "name": "Big Bang Bouncy Castle Hire", "location": {"address": "2 Purcell St", "lat": 51.5327601, "lng": -0.08270360000005894, "labeledLatLngs": [{"label": "display", "lat": 51.5327601, "lng": -0.08270360000005894}], "distance": 362, "postalCode": "N1 6RD", "cc": "GB", "city": "2 Purcell Street London N1 6RD", "country": "United Kingdom", "formattedAddress": ["2 Purcell St", "2 Purcell Street London N1 6RD", "N1 6RD", "United Kingdom"]}, "categories": [{"id": "5454152e498ef71e2b9132c6", "name": "Event Service", "pluralName": "Event Services", "shortName": "Event Services", "icon": {"prefix": "https://ss3.4sqi.net/img/categories_v2/event/default_", "suffix": ".png"}, "primary": true}], "photos": {"count": 0, "groups": []}, "venuePage": {"id": "544379722"}}, "referralId": "e-0-5d11fb483e8ac4002df5c7b8-5"}]}]}}