{"meta": {"code": 200, "requestId": "5fedd9d00062d40d7ed4ae56"}, "response": {"warning": {"text": "There aren't a lot of results near you. Try something more general, reset your filters, or expand the search area."}, "headerLocation": "Childs Hill", "headerFullLocation": "Childs Hill, London", "headerLocationGranularity": "neighborhood", "query": "travel", "totalResults": 3, "suggestedBounds": {"ne": {"lat": 51.5665150036, "lng": -0.19140481233988632}, "sw": {"lat": 51.55931499639999, "lng": -0.20296518766011368}}, "groups": [{"type": "Recommended Places", "name": "recommended", "items": [{"reasons": {"count": 0, "items": [{"summary": "This spot is popular", "type": "general", "reasonName": "globalInteractionReason"}]}, "venue": {"id": "5295925d498ea202f7f4f4e1", "name": "palmhoteluk12@gmail.com", "location": {"address": "64-76 Hendon Way", "crossStreet": "North West London", "lat": 51.56398590726656, "lng": -0.20030736923217773, "labeledLatLngs": [{"label": "display", "lat": 51.56398590726656, "lng": -0.20030736923217773}], "distance": 246, "postalCode": "NW2 2NL", "cc": "GB", "city": "London", "state": "Greater London", "country": "United Kingdom", "formattedAddress": ["64-76 Hendon Way (North West London)", "London", "Greater London", "NW2 2NL", "United Kingdom"]}, "categories": [{"id": "4bf58dd8d48988d1f8931735", "name": "Bed & Breakfast", "pluralName": "Bed & Breakfasts", "shortName": "B & B", "icon": {"prefix": "https://ss3.4sqi.net/img/categories_v2/travel/bedandbreakfast_", "suffix": ".png"}, "primary": true}], "photos": {"count": 0, "groups": []}}, "referralId": "e-0-5295925d498ea202f7f4f4e1-0"}, {"reasons": {"count": 0, "items": [{"summary": "This spot is popular", "type": "general", "reasonName": "globalInteractionReason"}]}, "venue": {"id": "50643d12e4b05cb353616cc5", "name": "bus stop d", "location": {"lat": 51.56516110205261, "lng": -0.19636174116724248, "labeledLatLngs": [{"label": "display", "lat": 51.56516110205261, "lng": -0.19636174116724248}], "distance": 256, "cc": "GB", "country": "United Kingdom", "formattedAddress": ["United Kingdom"]}, "categories": [{"id": "52f2ab2ebcbc57f1066b8b4f", "name": "Bus Stop", "pluralName": "Bus Stops", "shortName": "Bus Stop", "icon": {"prefix": "https://ss3.4sqi.net/img/categories_v2/travel/busstation_", "suffix": ".png"}, "primary": true}], "photos": {"count": 0, "groups": []}}, "referralId": "e-0-50643d12e4b05cb353616cc5-1"}, {"reasons": {"count": 0, "items": [{"summary": "This spot is popular", "type": "general", "reasonName": "globalInteractionReason"}]}, "venue": {"id": "529590e2498ea202f7f49053", "name": "Best Western Palm Hotel London", "location": {"address": "64-76 Hendon Way", "crossStreet": "North West London", "lat": 51.56310552785504, "lng": -0.20140171051025388, "labeledLatLngs": [{"label": "display", "lat": 51.56310552785504, "lng": -0.20140171051025388}], "distance": 292, "postalCode": "NW2 2NL", "cc": "GB", "city": "London", "state": "Greater London", "country": "United Kingdom", "formattedAddress": ["64-76 Hendon Way (North West London)", "London", "Greater London", "NW2 2NL", "United Kingdom"]}, "categories": [{"id": "4bf58dd8d48988d1fa931735", "name": "Hotel", "pluralName": "Hotels", "shortName": "Hotel", "icon": {"prefix": "https://ss3.4sqi.net/img/categories_v2/travel/hotel_", "suffix": ".png"}, "primary": true}], "photos": {"count": 0, "groups": []}}, "referralId": "e-0-529590e2498ea202f7f49053-2"}]}]}}