{"meta": {"code": 200, "requestId": "5fedda882742ec1772330edb"}, "response": {"suggestedFilters": {"header": "Tap to show:", "filters": [{"name": "Open now", "key": "openNow"}]}, "headerLocation": "Sands End", "headerFullLocation": "Sands End, London", "headerLocationGranularity": "neighborhood", "query": "food", "totalResults": 12, "suggestedBounds": {"ne": {"lat": 51.48111000360001, "lng": -0.18286064175405678}, "sw": {"lat": 51.473909996399996, "lng": -0.1943993582459432}}, "groups": [{"type": "Recommended Places", "name": "recommended", "items": [{"reasons": {"count": 0, "items": [{"summary": "This spot is popular", "type": "general", "reasonName": "globalInteractionReason"}]}, "venue": {"id": "57018e60498e4dda7a072619", "name": "Santa Maria", "location": {"address": "92-94 Waterford Road", "lat": 51.477502, "lng": -0.19066, "labeledLatLngs": [{"label": "display", "lat": 51.477502, "lng": -0.19066}], "distance": 140, "postalCode": "SW6 2HA", "cc": "GB", "neighborhood": "Hammersmith and Fulham", "city": "London", "state": "Greater London", "country": "United Kingdom", "formattedAddress": ["92-94 Waterford Road", "London", "Greater London", "SW6 2HA", "United Kingdom"]}, "categories": [{"id": "4bf58dd8d48988d1ca941735", "name": "Pizza Place", "pluralName": "Pizza Places", "shortName": "Pizza", "icon": {"prefix": "https://ss3.4sqi.net/img/categories_v2/food/pizza_", "suffix": ".png"}, "primary": true}], "photos": {"count": 0, "groups": []}}, "referralId": "e-0-57018e60498e4dda7a072619-0"}, {"reasons": {"count": 0, "items": [{"summary": "This spot is popular", "type": "general", "reasonName": "globalInteractionReason"}]}, "venue": {"id": "4b558436f964a5203ee627e3", "name": "Megan's", "location": {"address": "571 Kings Rd", "lat": 51.4789146520069, "lng": -0.18804775422627287, "labeledLatLngs": [{"label": "display", "lat": 51.4789146520069, "lng": -0.18804775422627287}], "distance": 161, "postalCode": "SW6 2EB", "cc": "GB", "city": "London", "state": "Greater London", "country": "United Kingdom", "formattedAddress": ["571 Kings Rd", "London", "Greater London", "SW6 2EB", "United Kingdom"]}, "categories": [{"id": "4bf58dd8d48988d16d941735", "name": "Caf\u00e9", "pluralName": "Caf\u00e9s", "shortName": "Caf\u00e9", "icon": {"prefix": "https://ss3.4sqi.net/img/categories_v2/food/cafe_", "suffix": ".png"}, "primary": true}], "photos": {"count": 0, "groups": []}}, "referralId": "e-0-4b558436f964a5203ee627e3-1"}, {"reasons": {"count": 0, "items": [{"summary": "This spot is popular", "type": "general", "reasonName": "globalInteractionReason"}]}, "venue": {"id": "5286831b11d2821390ce8b79", "name": "Jak's", "location": {"address": "533 King's Rd", "lat": 51.480376990467576, "lng": -0.18522784744482323, "labeledLatLngs": [{"label": "display", "lat": 51.480376990467576, "lng": -0.18522784744482323}], "distance": 396, "postalCode": "SW10 0TZ", "cc": "GB", "city": "London", "state": "Greater London", "country": "United Kingdom", "formattedAddress": ["533 King's Rd", "London", "Greater London", "SW10 0TZ", "United Kingdom"]}, "categories": [{"id": "4bf58dd8d48988d1c4941735", "name": "Restaurant", "pluralName": "Restaurants", "shortName": "Restaurant", "icon": {"prefix": "https://ss3.4sqi.net/img/categories_v2/food/default_", "suffix": ".png"}, "primary": true}], "photos": {"count": 0, "groups": []}}, "referralId": "e-0-5286831b11d2821390ce8b79-2"}, {"reasons": {"count": 0, "items": [{"summary": "This spot is popular", "type": "general", "reasonName": "globalInteractionReason"}]}, "venue": {"id": "5538f9ac498e4eca649f1a0f", "name": "Masala Grill", "location": {"address": "535 King's Road", "lat": 51.47994055896835, "lng": -0.18606292659570492, "labeledLatLngs": [{"label": "display", "lat": 51.47994055896835, "lng": -0.18606292659570492}], "distance": 323, "postalCode": "SW10 0SZ", "cc": "GB", "city": "London", "state": "Greater London", "country": "United Kingdom", "formattedAddress": ["535 King's Road", "London", "Greater London", "SW10 0SZ", "United Kingdom"]}, "categories": [{"id": "4bf58dd8d48988d1c4941735", "name": "Restaurant", "pluralName": "Restaurants", "shortName": "Restaurant", "icon": {"prefix": "https://ss3.4sqi.net/img/categories_v2/food/default_", "suffix": ".png"}, "primary": true}], "photos": {"count": 0, "groups": []}}, "referralId": "e-0-5538f9ac498e4eca649f1a0f-3"}, {"reasons": {"count": 0, "items": [{"summary": "This spot is popular", "type": "general", "reasonName": "globalInteractionReason"}]}, "venue": {"id": "4ac518bdf964a520b4a220e3", "name": "Cafe Brazil", "location": {"address": "511 Fulham Rd", "lat": 51.48022037369672, "lng": -0.1918364463764104, "labeledLatLngs": [{"label": "display", "lat": 51.48022037369672, "lng": -0.1918364463764104}], "distance": 374, "postalCode": "SW6 1HH", "cc": "GB", "city": "Fulham", "state": "Greater London", "country": "United Kingdom", "formattedAddress": ["511 Fulham Rd", "Fulham", "Greater London", "SW6 1HH", "United Kingdom"]}, "categories": [{"id": "4bf58dd8d48988d16b941735", "name": "Brazilian Restaurant", "pluralName": "Brazilian Restaurants", "shortName": "Brazilian", "icon": {"prefix": "https://ss3.4sqi.net/img/categories_v2/food/argentinian_", "suffix": ".png"}, "primary": true}], "photos": {"count": 0, "groups": []}}, "referralId": "e-0-4ac518bdf964a520b4a220e3-4"}, {"reasons": {"count": 0, "items": [{"summary": "This spot is popular", "type": "general", "reasonName": "globalInteractionReason"}]}, "venue": {"id": "5087a350d63ed3e25be80557", "name": "Tea Bar", "location": {"address": "Stamford Bridge", "crossStreet": "Fulham Road", "lat": 51.48087467689553, "lng": -0.19016119159310008, "labeledLatLngs": [{"label": "display", "lat": 51.48087467689553, "lng": -0.19016119159310008}], "distance": 389, "postalCode": "SW6 1HS", "cc": "GB", "city": "London", "state": "Greater London", "country": "United Kingdom", "formattedAddress": ["Stamford Bridge (Fulham Road)", "London", "Greater London", "SW6 1HS", "United Kingdom"]}, "categories": [{"id": "4bf58dd8d48988d16d941735", "name": "Caf\u00e9", "pluralName": "Caf\u00e9s", "shortName": "Caf\u00e9", "icon": {"prefix": "https://ss3.4sqi.net/img/categories_v2/food/cafe_", "suffix": ".png"}, "primary": true}], "photos": {"count": 0, "groups": []}}, "referralId": "e-0-5087a350d63ed3e25be80557-5"}, {"reasons": {"count": 0, "items": [{"summary": "This spot is popular", "type": "general", "reasonName": "globalInteractionReason"}]}, "venue": {"id": "4aeadcd4f964a52059bc21e3", "name": "Lots Road", "location": {"address": "114 Lots Road, Chelsea", "lat": 51.477683, "lng": -0.183333, "labeledLatLngs": [{"label": "display", "lat": 51.477683, "lng": -0.183333}], "distance": 367, "postalCode": "SW10 0RJ", "cc": "GB", "city": "London", "state": "Greater London", "country": "United Kingdom", "formattedAddress": ["114 Lots Road, Chelsea", "Chelsea", "Greater London", "SW10 0RJ", "United Kingdom"]}, "categories": [{"id": "4bf58dd8d48988d155941735", "name": "Gastropub", "pluralName": "Gastropubs", "shortName": "Gastropub", "icon": {"prefix": "https://ss3.4sqi.net/img/categories_v2/food/gastropub_", "suffix": ".png"}, "primary": true}], "photos": {"count": 0, "groups": []}}, "referralId": "e-0-4aeadcd4f964a52059bc21e3-6"}, {"reasons": {"count": 0, "items": [{"summary": "This spot is popular", "type": "general", "reasonName": "globalInteractionReason"}]}, "venue": {"id": "4bbcaa30593fef3b046b0256", "name": "Mare Moto", "location": {"address": "562 King's Rd.", "crossStreet": "at Holmead Rd.", "lat": 51.479260521474394, "lng": -0.1875483853896035, "labeledLatLngs": [{"label": "display", "lat": 51.479260521474394, "lng": -0.1875483853896035}], "distance": 208, "postalCode": "SW6 2DZ", "cc": "GB", "city": "Fulham", "state": "Greater London", "country": "United Kingdom", "formattedAddress": ["562 King's Rd. (at Holmead Rd.)", "Fulham", "Greater London", "SW6 2DZ", "United Kingdom"]}, "categories": [{"id": "4bf58dd8d48988d110941735", "name": "Italian Restaurant", "pluralName": "Italian Restaurants", "shortName": "Italian", "icon": {"prefix": "https://ss3.4sqi.net/img/categories_v2/food/italian_", "suffix": ".png"}, "primary": true}], "photos": {"count": 0, "groups": []}}, "referralId": "e-0-4bbcaa30593fef3b046b0256-7"}, {"reasons": {"count": 0, "items": [{"summary": "This spot is popular", "type": "general", "reasonName": "globalInteractionReason"}]}, "venue": {"id": "4cc2cb54d43ba143a7f95af8", "name": "The Butchers Hook", "location": {"address": "477 Fulham Road", "lat": 51.480284119248246, "lng": -0.1892355516035907, "labeledLatLngs": [{"label": "display", "lat": 51.480284119248246, "lng": -0.1892355516035907}], "distance": 311, "postalCode": "SW6 1HL", "cc": "GB", "city": "Fulham", "state": "Greater London", "country": "United Kingdom", "formattedAddress": ["477 Fulham Road", "Fulham", "Greater London", "SW6 1HL", "United Kingdom"]}, "categories": [{"id": "4bf58dd8d48988d155941735", "name": "Gastropub", "pluralName": "Gastropubs", "shortName": "Gastropub", "icon": {"prefix": "https://ss3.4sqi.net/img/categories_v2/food/gastropub_", "suffix": ".png"}, "primary": true}], "photos": {"count": 0, "groups": []}}, "referralId": "e-0-4cc2cb54d43ba143a7f95af8-8"}, {"reasons": {"count": 0, "items": [{"summary": "This spot is popular", "type": "general", "reasonName": "globalInteractionReason"}]}, "venue": {"id": "4baa8317f964a52055703ae3", "name": "The Imperial Arms", "location": {"address": "577 Kings Rd", "lat": 51.478685597017545, "lng": -0.18847100729911329, "labeledLatLngs": [{"label": "display", "lat": 51.478685597017545, "lng": -0.18847100729911329}], "distance": 131, "postalCode": "SW6 2EH", "cc": "GB", "city": "London", "state": "Greater London", "country": "United Kingdom", "formattedAddress": ["577 Kings Rd", "London", "Greater London", "SW6 2EH", "United Kingdom"]}, "categories": [{"id": "4bf58dd8d48988d155941735", "name": "Gastropub", "pluralName": "Gastropubs", "shortName": "Gastropub", "icon": {"prefix": "https://ss3.4sqi.net/img/categories_v2/food/gastropub_", "suffix": ".png"}, "primary": true}], "photos": {"count": 0, "groups": []}}, "referralId": "e-0-4baa8317f964a52055703ae3-9"}, {"reasons": {"count": 0, "items": [{"summary": "This spot is popular", "type": "general", "reasonName": "globalInteractionReason"}]}, "venue": {"id": "4e1592affa764fb14ae81705", "name": "Kitchen", "location": {"address": "Lots Road", "lat": 51.47802861688829, "lng": -0.18378496170043945, "labeledLatLngs": [{"label": "display", "lat": 51.47802861688829, "lng": -0.18378496170043945}], "distance": 340, "cc": "GB", "city": "London", "state": "Greater London", "country": "United Kingdom", "formattedAddress": ["Lots Road", "London", "Greater London", "United Kingdom"]}, "categories": [{"id": "4bf58dd8d48988d1c5941735", "name": "Sandwich Place", "pluralName": "Sandwich Places", "shortName": "Sandwiches", "icon": {"prefix": "https://ss3.4sqi.net/img/categories_v2/food/deli_", "suffix": ".png"}, "primary": true}], "photos": {"count": 0, "groups": []}}, "referralId": "e-0-4e1592affa764fb14ae81705-10"}, {"reasons": {"count": 0, "items": [{"summary": "This spot is popular", "type": "general", "reasonName": "globalInteractionReason"}]}, "venue": {"id": "514850e2e4b0a3bcee4c8f85", "name": "Cave Cafe", "location": {"lat": 51.480151326831916, "lng": -0.185800173224346, "labeledLatLngs": [{"label": "display", "lat": 51.480151326831916, "lng": -0.185800173224346}], "distance": 353, "cc": "GB", "country": "United Kingdom", "formattedAddress": ["United Kingdom"]}, "categories": [{"id": "4bf58dd8d48988d16d941735", "name": "Caf\u00e9", "pluralName": "Caf\u00e9s", "shortName": "Caf\u00e9", "icon": {"prefix": "https://ss3.4sqi.net/img/categories_v2/food/cafe_", "suffix": ".png"}, "primary": true}], "photos": {"count": 0, "groups": []}}, "referralId": "e-0-514850e2e4b0a3bcee4c8f85-11"}]}]}}