{"meta": {"code": 200, "requestId": "5fedda6e87013231d6baeae2"}, "response": {"suggestedFilters": {"header": "Tap to show:", "filters": [{"name": "Open now", "key": "openNow"}]}, "headerLocation": "Islington", "headerFullLocation": "Islington, London", "headerLocationGranularity": "neighborhood", "query": "arts entertainment", "totalResults": 8, "suggestedBounds": {"ne": {"lat": 51.532340003600005, "lng": -0.09027415216988188}, "sw": {"lat": 51.52513999639999, "lng": -0.10182584783011811}}, "groups": [{"type": "Recommended Places", "name": "recommended", "items": [{"reasons": {"count": 0, "items": [{"summary": "This spot is popular", "type": "general", "reasonName": "globalInteractionReason"}]}, "venue": {"id": "4ad9b593f964a5207d1a21e3", "name": "Victoria Miro Gallery", "location": {"address": "16 Wharf Rd", "lat": 51.5302066713547, "lng": -0.09508446835457518, "labeledLatLngs": [{"label": "display", "lat": 51.5302066713547, "lng": -0.09508446835457518}], "distance": 176, "postalCode": "N1 7RW", "cc": "GB", "city": "Islington", "state": "Greater London", "country": "United Kingdom", "formattedAddress": ["16 Wharf Rd", "Islington", "Greater London", "N1 7RW", "United Kingdom"]}, "categories": [{"id": "4bf58dd8d48988d1e2931735", "name": "Art Gallery", "pluralName": "Art Galleries", "shortName": "Art Gallery", "icon": {"prefix": "https://ss3.4sqi.net/img/categories_v2/arts_entertainment/artgallery_", "suffix": ".png"}, "primary": true}], "photos": {"count": 0, "groups": []}}, "referralId": "e-0-4ad9b593f964a5207d1a21e3-0"}, {"reasons": {"count": 0, "items": [{"summary": "This spot is popular", "type": "general", "reasonName": "globalInteractionReason"}]}, "venue": {"id": "4ad9abe1f964a520651a21e3", "name": "Parasol Unit Foundation for Contemporary Art", "location": {"address": "14 Wharf Rd", "crossStreet": "Micawber St", "lat": 51.5301290526763, "lng": -0.0949394702911377, "labeledLatLngs": [{"label": "display", "lat": 51.5301290526763, "lng": -0.0949394702911377}], "distance": 172, "postalCode": "N1 7RW", "cc": "GB", "city": "London", "state": "Greater London", "country": "United Kingdom", "formattedAddress": ["14 Wharf Rd (Micawber St)", "London", "Greater London", "N1 7RW", "United Kingdom"]}, "categories": [{"id": "4bf58dd8d48988d1e2931735", "name": "Art Gallery", "pluralName": "Art Galleries", "shortName": "Art Gallery", "icon": {"prefix": "https://ss3.4sqi.net/img/categories_v2/arts_entertainment/artgallery_", "suffix": ".png"}, "primary": true}], "photos": {"count": 0, "groups": []}}, "referralId": "e-0-4ad9abe1f964a520651a21e3-1"}, {"reasons": {"count": 0, "items": [{"summary": "This spot is popular", "type": "general", "reasonName": "globalInteractionReason"}]}, "venue": {"id": "4fc5137be4b0662a3290a1f5", "name": "London Dance Academy", "location": {"address": "4951 Central St", "lat": 51.52557117027983, "lng": -0.09637989678371732, "labeledLatLngs": [{"label": "display", "lat": 51.52557117027983, "lng": -0.09637989678371732}], "distance": 353, "postalCode": "EC1V 8AB", "cc": "GB", "country": "United Kingdom", "formattedAddress": ["4951 Central St", "EC1V 8AB", "United Kingdom"]}, "categories": [{"id": "4bf58dd8d48988d134941735", "name": "Dance Studio", "pluralName": "Dance Studios", "shortName": "Dance Studio", "icon": {"prefix": "https://ss3.4sqi.net/img/categories_v2/arts_entertainment/performingarts_dancestudio_", "suffix": ".png"}, "primary": true}], "photos": {"count": 0, "groups": []}}, "referralId": "e-0-4fc5137be4b0662a3290a1f5-2"}, {"reasons": {"count": 0, "items": [{"summary": "This spot is popular", "type": "general", "reasonName": "globalInteractionReason"}]}, "venue": {"id": "4d2df9975d4ca1cdcb47141b", "name": "New Red Lion", "location": {"address": "271-273 City Rd", "lat": 51.52993032017064, "lng": -0.09824445615289477, "labeledLatLngs": [{"label": "display", "lat": 51.52993032017064, "lng": -0.09824445615289477}], "distance": 201, "postalCode": "EC1V 1LA", "cc": "GB", "neighborhood": "Islington, London, Greater London", "city": "London", "state": "Greater London", "country": "United Kingdom", "formattedAddress": ["271-273 City Rd", "London", "Greater London", "EC1V 1LA", "United Kingdom"]}, "categories": [{"id": "4bf58dd8d48988d135941735", "name": "Indie Theater", "pluralName": "Indie Theaters", "shortName": "Indie", "icon": {"prefix": "https://ss3.4sqi.net/img/categories_v2/arts_entertainment/performingarts_theater_", "suffix": ".png"}, "primary": true}], "photos": {"count": 0, "groups": []}}, "referralId": "e-0-4d2df9975d4ca1cdcb47141b-3"}, {"reasons": {"count": 0, "items": [{"summary": "This spot is popular", "type": "general", "reasonName": "globalInteractionReason"}]}, "venue": {"id": "50ba073ae4b054161c113ac4", "name": "AMTA Studios", "location": {"address": "Europa House", "crossStreet": "13-17 Ironmonger Row", "lat": 51.526888826179295, "lng": -0.09441812365853519, "labeledLatLngs": [{"label": "display", "lat": 51.526888826179295, "lng": -0.09441812365853519}], "distance": 235, "postalCode": "EC1V 3QG", "cc": "GB", "city": "London", "state": "Greater London", "country": "United Kingdom", "formattedAddress": ["Europa House (13-17 Ironmonger Row)", "London", "Greater London", "EC1V 3QG", "United Kingdom"]}, "categories": [{"id": "4bf58dd8d48988d134941735", "name": "Dance Studio", "pluralName": "Dance Studios", "shortName": "Dance Studio", "icon": {"prefix": "https://ss3.4sqi.net/img/categories_v2/arts_entertainment/performingarts_dancestudio_", "suffix": ".png"}, "primary": true}], "photos": {"count": 0, "groups": []}}, "referralId": "e-0-50ba073ae4b054161c113ac4-4"}, {"reasons": {"count": 0, "items": [{"summary": "This spot is popular", "type": "general", "reasonName": "globalInteractionReason"}]}, "venue": {"id": "582c523795ffcb0e68a46b31", "name": "The Divinity Group", "location": {"address": "20 - 22 Wenlock Road", "lat": 51.53047945949401, "lng": -0.09397387504577637, "labeledLatLngs": [{"label": "display", "lat": 51.53047945949401, "lng": -0.09397387504577637}], "distance": 241, "postalCode": "N1 7GU", "cc": "GB", "city": "London", "state": "Greater London", "country": "United Kingdom", "formattedAddress": ["20 - 22 Wenlock Road", "London", "Greater London", "N1 7GU", "United Kingdom"]}, "categories": [{"id": "56aa371be4b08b9a8d573520", "name": "Tour Provider", "pluralName": "Tour Providers", "shortName": "Tour Provider", "icon": {"prefix": "https://ss3.4sqi.net/img/categories_v2/arts_entertainment/default_", "suffix": ".png"}, "primary": true}], "photos": {"count": 0, "groups": []}, "venuePage": {"id": "373065733"}}, "referralId": "e-0-582c523795ffcb0e68a46b31-5"}, {"reasons": {"count": 0, "items": [{"summary": "This spot is popular", "type": "general", "reasonName": "globalInteractionReason"}]}, "venue": {"id": "5e2c4543931054000813a2cb", "name": "Artviayou", "location": {"address": "20-22 Wenlock Road", "lat": 51.5305766, "lng": -0.0935454000000391, "labeledLatLngs": [{"label": "display", "lat": 51.5305766, "lng": -0.0935454000000391}], "distance": 268, "postalCode": "N1 7GU", "cc": "GB", "city": "London", "state": "Greater London", "country": "United Kingdom", "formattedAddress": ["20-22 Wenlock Road", "London", "Greater London", "N1 7GU", "United Kingdom"]}, "categories": [{"id": "4bf58dd8d48988d1e2931735", "name": "Art Gallery", "pluralName": "Art Galleries", "shortName": "Art Gallery", "icon": {"prefix": "https://ss3.4sqi.net/img/categories_v2/arts_entertainment/artgallery_", "suffix": ".png"}, "primary": true}], "photos": {"count": 0, "groups": []}}, "referralId": "e-0-5e2c4543931054000813a2cb-6"}, {"reasons": {"count": 0, "items": [{"summary": "This spot is popular", "type": "general", "reasonName": "globalInteractionReason"}]}, "venue": {"id": "5a632caf1acf115ff926febe", "name": "Escape Room", "location": {"lat": 51.526305, "lng": -0.099573, "labeledLatLngs": [{"label": "display", "lat": 51.526305, "lng": -0.099573}], "distance": 364, "postalCode": "EC1V 3QU", "cc": "GB", "city": "London", "state": "Greater London", "country": "United Kingdom", "formattedAddress": ["London", "Greater London", "EC1V 3QU", "United Kingdom"]}, "categories": [{"id": "5f2c2834b6d05514c704451e", "name": "Escape Room", "pluralName": "Escape Rooms", "shortName": "Escape Room", "icon": {"prefix": "https://ss3.4sqi.net/img/categories_v2/arts_entertainment/default_", "suffix": ".png"}, "primary": true}], "photos": {"count": 0, "groups": []}}, "referralId": "e-0-5a632caf1acf115ff926febe-7"}]}]}}