{"meta": {"code": 200, "requestId": "5fedda691539512b525d1d55"}, "response": {"suggestedFilters": {"header": "Tap to show:", "filters": [{"name": "Open now", "key": "openNow"}]}, "headerLocation": "West Kensington", "headerFullLocation": "West Kensington, London", "headerLocationGranularity": "neighborhood", "query": "college education", "totalResults": 7, "suggestedBounds": {"ne": {"lat": 51.49761000360001, "lng": -0.2029485537051455}, "sw": {"lat": 51.4904099964, "lng": -0.21449144629485448}}, "groups": [{"type": "Recommended Places", "name": "recommended", "items": [{"reasons": {"count": 0, "items": [{"summary": "This spot is popular", "type": "general", "reasonName": "globalInteractionReason"}]}, "venue": {"id": "4e01a603c65b896d116e268f", "name": "Sainsbury's Local", "location": {"address": "3 North End Crescent", "crossStreet": "3 North End Cres", "lat": 51.49229469647427, "lng": -0.20720053532442329, "labeledLatLngs": [{"label": "display", "lat": 51.49229469647427, "lng": -0.20720053532442329}], "distance": 218, "postalCode": "W14 8TG", "cc": "GB", "city": "London", "state": "Greater London", "country": "United Kingdom", "formattedAddress": ["3 North End Crescent (3 North End Cres)", "London", "Greater London", "W14 8TG", "United Kingdom"]}, "categories": [{"id": "4bf58dd8d48988d118951735", "name": "Grocery Store", "pluralName": "Grocery Stores", "shortName": "Grocery Store", "icon": {"prefix": "https://ss3.4sqi.net/img/categories_v2/shops/food_grocery_", "suffix": ".png"}, "primary": true}], "photos": {"count": 0, "groups": []}}, "referralId": "e-0-4e01a603c65b896d116e268f-0"}, {"reasons": {"count": 0, "items": [{"summary": "This spot is popular", "type": "general", "reasonName": "globalInteractionReason"}]}, "venue": {"id": "4ba3867ef964a520564438e3", "name": "Tesco Express", "location": {"address": "69-77 Hammersmith Rd", "lat": 51.4951056505324, "lng": -0.21104490674588305, "labeledLatLngs": [{"label": "display", "lat": 51.4951056505324, "lng": -0.21104490674588305}], "distance": 202, "postalCode": "W14 8UZ", "cc": "GB", "city": "London", "state": "Greater London", "country": "United Kingdom", "formattedAddress": ["69-77 Hammersmith Rd", "London", "Greater London", "W14 8UZ", "United Kingdom"]}, "categories": [{"id": "4bf58dd8d48988d118951735", "name": "Grocery Store", "pluralName": "Grocery Stores", "shortName": "Grocery Store", "icon": {"prefix": "https://ss3.4sqi.net/img/categories_v2/shops/food_grocery_", "suffix": ".png"}, "primary": true}], "photos": {"count": 0, "groups": []}}, "referralId": "e-0-4ba3867ef964a520564438e3-1"}, {"reasons": {"count": 0, "items": [{"summary": "This spot is popular", "type": "general", "reasonName": "globalInteractionReason"}]}, "venue": {"id": "58ffce136bd36b709185fd85", "name": "Intellicasa", "location": {"address": "40 Avonmore Rd", "lat": 51.49453219999999, "lng": -0.20602559999997538, "labeledLatLngs": [{"label": "display", "lat": 51.49453219999999, "lng": -0.20602559999997538}], "distance": 195, "postalCode": "W14 8RS", "cc": "GB", "city": "London", "state": "Greater London", "country": "United Kingdom", "formattedAddress": ["40 Avonmore Rd", "London", "Greater London", "W14 8RS", "United Kingdom"]}, "categories": [{"id": "545419b1498ea6ccd0202f58", "name": "Home Service", "pluralName": "Home Services & Repairs", "shortName": "Home Services", "icon": {"prefix": "https://ss3.4sqi.net/img/categories_v2/shops/hardware_", "suffix": ".png"}, "primary": true}], "photos": {"count": 0, "groups": []}, "venuePage": {"id": "413116202"}}, "referralId": "e-0-58ffce136bd36b709185fd85-2"}, {"reasons": {"count": 0, "items": [{"summary": "This spot is popular", "type": "general", "reasonName": "globalInteractionReason"}]}, "venue": {"id": "4cf8ffb36cee236afc12ea03", "name": "Carnival Store", "location": {"address": "95 Hammersmith Rd", "lat": 51.494747535988125, "lng": -0.211968584839133, "labeledLatLngs": [{"label": "display", "lat": 51.494747535988125, "lng": -0.211968584839133}], "distance": 239, "postalCode": "W14 0QH", "cc": "GB", "city": "Hammersmith", "state": "Greater London", "country": "United Kingdom", "formattedAddress": ["95 Hammersmith Rd", "Hammersmith", "Greater London", "W14 0QH", "United Kingdom"]}, "categories": [{"id": "52f2ab2ebcbc57f1066b8b17", "name": "Costume Shop", "pluralName": "Costume Shops", "shortName": "Costume Shop", "icon": {"prefix": "https://ss3.4sqi.net/img/categories_v2/shops/default_", "suffix": ".png"}, "primary": true}], "photos": {"count": 0, "groups": []}}, "referralId": "e-0-4cf8ffb36cee236afc12ea03-3"}, {"reasons": {"count": 0, "items": [{"summary": "This spot is popular", "type": "general", "reasonName": "globalInteractionReason"}]}, "venue": {"id": "5fc682cb5fd00359eaf0cdf5", "name": "Michael Pickering Home Renovations", "location": {"address": "520 Mornington Ave", "lat": 51.492061, "lng": -0.2055227, "labeledLatLngs": [{"label": "display", "lat": 51.492061, "lng": -0.2055227}], "distance": 310, "postalCode": "W14 8UJ", "cc": "GB", "city": "London", "state": "Greater London", "country": "United Kingdom", "formattedAddress": ["520 Mornington Ave", "London", "Greater London", "W14 8UJ", "United Kingdom"]}, "categories": [{"id": "5454144b498ec1f095bff2f2", "name": "Construction & Landscaping", "pluralName": "Construction & Landscaping", "shortName": "Construction", "icon": {"prefix": "https://ss3.4sqi.net/img/categories_v2/shops/realestate_", "suffix": ".png"}, "primary": true}], "photos": {"count": 0, "groups": []}, "venuePage": {"id": "1359018563"}}, "referralId": "e-0-5fc682cb5fd00359eaf0cdf5-4"}, {"reasons": {"count": 0, "items": [{"summary": "This spot is popular", "type": "general", "reasonName": "globalInteractionReason"}]}, "venue": {"id": "57012a28498eab85f64e34f5", "name": "GK London", "location": {"address": "155 North End Road", "lat": 51.49126072488628, "lng": -0.20683009532833663, "labeledLatLngs": [{"label": "display", "lat": 51.49126072488628, "lng": -0.20683009532833663}], "distance": 332, "postalCode": "W14 9NH", "cc": "GB", "neighborhood": "West Kensington", "city": "London", "state": "Greater London", "country": "United Kingdom", "formattedAddress": ["155 North End Road", "London", "Greater London", "W14 9NH", "United Kingdom"]}, "categories": [{"id": "554a5e17498efabeda6cc559", "name": "Photography Studio", "pluralName": "Photography Studios", "shortName": "Photo Studio", "icon": {"prefix": "https://ss3.4sqi.net/img/categories_v2/shops/camerastore_", "suffix": ".png"}, "primary": true}], "photos": {"count": 0, "groups": []}}, "referralId": "e-0-57012a28498eab85f64e34f5-5"}, {"reasons": {"count": 0, "items": [{"summary": "This spot is popular", "type": "general", "reasonName": "globalInteractionReason"}]}, "venue": {"id": "5fb54d7db6ee25619f457fbe", "name": "Forest & Co. Solicitors", "location": {"address": "70 North End Road", "lat": 51.491082, "lng": -0.207199, "labeledLatLngs": [{"label": "display", "lat": 51.491082, "lng": -0.207199}], "distance": 342, "postalCode": "W14 9EP", "cc": "GB", "city": "London", "state": "Greater London", "country": "United Kingdom", "formattedAddress": ["70 North End Road", "London", "Greater London", "W14 9EP", "United Kingdom"]}, "categories": [{"id": "52f2ab2ebcbc57f1066b8b3f", "name": "Lawyer", "pluralName": "Lawyers", "shortName": "Lawyer", "icon": {"prefix": "https://ss3.4sqi.net/img/categories_v2/education/lawschool_", "suffix": ".png"}, "primary": true}], "photos": {"count": 0, "groups": []}}, "referralId": "e-0-5fb54d7db6ee25619f457fbe-6"}]}]}}