{"meta": {"code": 200, "requestId": "5feddad98549cf75f714d159"}, "response": {"suggestedFilters": {"header": "Tap to show:", "filters": [{"name": "Open now", "key": "openNow"}]}, "headerLocation": "Hackney", "headerFullLocation": "Hackney, London", "headerLocationGranularity": "neighborhood", "query": "food", "totalResults": 26, "suggestedBounds": {"ne": {"lat": 51.5336550036, "lng": -0.07208598533864347}, "sw": {"lat": 51.52645499639999, "lng": -0.08363801466135654}}, "groups": [{"type": "Recommended Places", "name": "recommended", "items": [{"reasons": {"count": 0, "items": [{"summary": "This spot is popular", "type": "general", "reasonName": "globalInteractionReason"}]}, "venue": {"id": "54086528498e4f691ec091b3", "name": "BunBunBun Vietnamese Food", "location": {"address": "134B Kingsland Rd", "lat": 51.53093012782418, "lng": -0.07708444328536329, "labeledLatLngs": [{"label": "display", "lat": 51.53093012782418, "lng": -0.07708444328536329}], "distance": 111, "postalCode": "E2 8DY", "cc": "GB", "city": "London", "state": "Greater London", "country": "United Kingdom", "formattedAddress": ["134B Kingsland Rd", "London", "Greater London", "E2 8DY", "United Kingdom"]}, "categories": [{"id": "4bf58dd8d48988d14a941735", "name": "Vietnamese Restaurant", "pluralName": "Vietnamese Restaurants", "shortName": "Vietnamese", "icon": {"prefix": "https://ss3.4sqi.net/img/categories_v2/food/vietnamese_", "suffix": ".png"}, "primary": true}], "photos": {"count": 0, "groups": []}, "venuePage": {"id": "96617935"}}, "referralId": "e-0-54086528498e4f691ec091b3-0"}, {"reasons": {"count": 0, "items": [{"summary": "This spot is popular", "type": "general", "reasonName": "globalInteractionReason"}]}, "venue": {"id": "566c18da498ea7697febe43c", "name": "The Grocery Cafe", "location": {"address": "52 Kingsland Rd", "lat": 51.52882539882658, "lng": -0.07778749765161179, "labeledLatLngs": [{"label": "display", "lat": 51.52882539882658, "lng": -0.07778749765161179}], "distance": 136, "postalCode": "E2 8DP", "cc": "GB", "neighborhood": "Hackney, London, Greater London", "city": "London", "state": "Greater London", "country": "United Kingdom", "formattedAddress": ["52 Kingsland Rd", "London", "Greater London", "E2 8DP", "United Kingdom"]}, "categories": [{"id": "4bf58dd8d48988d16d941735", "name": "Caf\u00e9", "pluralName": "Caf\u00e9s", "shortName": "Caf\u00e9", "icon": {"prefix": "https://ss3.4sqi.net/img/categories_v2/food/cafe_", "suffix": ".png"}, "primary": true}], "photos": {"count": 0, "groups": []}}, "referralId": "e-0-566c18da498ea7697febe43c-1"}, {"reasons": {"count": 0, "items": [{"summary": "This spot is popular", "type": "general", "reasonName": "globalInteractionReason"}]}, "venue": {"id": "4acf3132f964a520aed220e3", "name": "S\u00f4ng Qu\u00ea", "location": {"address": "134 Kingsland Rd", "crossStreet": "Falkirk St", "lat": 51.53069111901953, "lng": -0.07708650216838302, "labeledLatLngs": [{"label": "display", "lat": 51.53069111901953, "lng": -0.07708650216838302}], "distance": 88, "postalCode": "E2 8DY", "cc": "GB", "neighborhood": "Hoxton, London, Greater London", "city": "Hoxton", "state": "Greater London", "country": "United Kingdom", "formattedAddress": ["134 Kingsland Rd (Falkirk St)", "Hoxton", "Greater London", "E2 8DY", "United Kingdom"]}, "categories": [{"id": "4bf58dd8d48988d14a941735", "name": "Vietnamese Restaurant", "pluralName": "Vietnamese Restaurants", "shortName": "Vietnamese", "icon": {"prefix": "https://ss3.4sqi.net/img/categories_v2/food/vietnamese_", "suffix": ".png"}, "primary": true}], "photos": {"count": 0, "groups": []}}, "referralId": "e-0-4acf3132f964a520aed220e3-2"}, {"reasons": {"count": 0, "items": [{"summary": "This spot is popular", "type": "general", "reasonName": "globalInteractionReason"}]}, "venue": {"id": "50b0bbf4e4b0a2172dcf18a4", "name": "Fabrique Bakery", "location": {"address": "Arch 385", "crossStreet": "Geffryre Street", "lat": 51.532036, "lng": -0.07566042, "labeledLatLngs": [{"label": "display", "lat": 51.532036, "lng": -0.07566042}], "distance": 268, "postalCode": "E2 8HZ", "cc": "GB", "neighborhood": "Hackney", "city": "London", "state": "Greater London", "country": "United Kingdom", "formattedAddress": ["Arch 385 (Geffryre Street)", "London", "Greater London", "E2 8HZ", "United Kingdom"]}, "categories": [{"id": "4bf58dd8d48988d16a941735", "name": "Bakery", "pluralName": "Bakeries", "shortName": "Bakery", "icon": {"prefix": "https://ss3.4sqi.net/img/categories_v2/food/bakery_", "suffix": ".png"}, "primary": true}], "photos": {"count": 0, "groups": []}}, "referralId": "e-0-50b0bbf4e4b0a2172dcf18a4-3"}, {"reasons": {"count": 0, "items": [{"summary": "This spot is popular", "type": "general", "reasonName": "globalInteractionReason"}]}, "venue": {"id": "5cc493b62aff3100391156b3", "name": "Rapsa", "location": {"lat": 51.530989, "lng": -0.080161, "labeledLatLngs": [{"label": "display", "lat": 51.530989, "lng": -0.080161}], "distance": 190, "postalCode": "N1 6SG", "cc": "GB", "city": "London", "state": "Greater London", "country": "United Kingdom", "formattedAddress": ["London", "Greater London", "N1 6SG", "United Kingdom"]}, "categories": [{"id": "4eb1bd1c3b7b55596b4a748f", "name": "Filipino Restaurant", "pluralName": "Filipino Restaurants", "shortName": "Filipino", "icon": {"prefix": "https://ss3.4sqi.net/img/categories_v2/food/filipino_", "suffix": ".png"}, "primary": true}], "photos": {"count": 0, "groups": []}}, "referralId": "e-0-5cc493b62aff3100391156b3-4"}, {"reasons": {"count": 0, "items": [{"summary": "This spot is popular", "type": "general", "reasonName": "globalInteractionReason"}]}, "venue": {"id": "5127d8e5e4b0e1bb8f9ca805", "name": "The Clove Club", "location": {"address": "380 Old St", "lat": 51.52707038722568, "lng": -0.07946312427520752, "labeledLatLngs": [{"label": "display", "lat": 51.52707038722568, "lng": -0.07946312427520752}], "distance": 350, "postalCode": "EC1V 9LT", "cc": "GB", "city": "London", "state": "Greater London", "country": "United Kingdom", "formattedAddress": ["380 Old St", "London", "Greater London", "EC1V 9LT", "United Kingdom"]}, "categories": [{"id": "4bf58dd8d48988d1c4941735", "name": "Restaurant", "pluralName": "Restaurants", "shortName": "Restaurant", "icon": {"prefix": "https://ss3.4sqi.net/img/categories_v2/food/default_", "suffix": ".png"}, "primary": true}], "photos": {"count": 0, "groups": []}}, "referralId": "e-0-5127d8e5e4b0e1bb8f9ca805-5"}, {"reasons": {"count": 0, "items": [{"summary": "This spot is popular", "type": "general", "reasonName": "globalInteractionReason"}]}, "venue": {"id": "52e01f72498ec75d48300391", "name": "Green Papaya", "location": {"address": "97 Kingsland Road", "lat": 51.5305599001313, "lng": -0.0772069554136478, "labeledLatLngs": [{"label": "display", "lat": 51.5305599001313, "lng": -0.0772069554136478}], "distance": 72, "postalCode": "E2 8AG", "cc": "GB", "city": "Hoxton", "state": "Greater London", "country": "United Kingdom", "formattedAddress": ["97 Kingsland Road", "Hoxton", "Greater London", "E2 8AG", "United Kingdom"]}, "categories": [{"id": "4bf58dd8d48988d14a941735", "name": "Vietnamese Restaurant", "pluralName": "Vietnamese Restaurants", "shortName": "Vietnamese", "icon": {"prefix": "https://ss3.4sqi.net/img/categories_v2/food/vietnamese_", "suffix": ".png"}, "primary": true}], "photos": {"count": 0, "groups": []}}, "referralId": "e-0-52e01f72498ec75d48300391-6"}, {"reasons": {"count": 0, "items": [{"summary": "This spot is popular", "type": "general", "reasonName": "globalInteractionReason"}]}, "venue": {"id": "565f5a3e498e305de0a17f07", "name": "Homeslice Pizza", "location": {"address": "374-378 Old St", "lat": 51.52710033, "lng": -0.07968906, "labeledLatLngs": [{"label": "display", "lat": 51.52710033, "lng": -0.07968906}], "distance": 352, "postalCode": "EC1V 9LT", "cc": "GB", "city": "London", "state": "Greater London", "country": "United Kingdom", "formattedAddress": ["374-378 Old St", "London", "Greater London", "EC1V 9LT", "United Kingdom"]}, "categories": [{"id": "4bf58dd8d48988d1ca941735", "name": "Pizza Place", "pluralName": "Pizza Places", "shortName": "Pizza", "icon": {"prefix": "https://ss3.4sqi.net/img/categories_v2/food/pizza_", "suffix": ".png"}, "primary": true}], "photos": {"count": 0, "groups": []}}, "referralId": "e-0-565f5a3e498e305de0a17f07-7"}, {"reasons": {"count": 0, "items": [{"summary": "This spot is popular", "type": "general", "reasonName": "globalInteractionReason"}]}, "venue": {"id": "56372298498eccf54c9b7aef", "name": "The Bike Shed", "location": {"address": "384 Old St", "lat": 51.52716467475097, "lng": -0.0785338000638642, "labeledLatLngs": [{"label": "display", "lat": 51.52716467475097, "lng": -0.0785338000638642}], "distance": 325, "postalCode": "EC1V 9LT", "cc": "GB", "neighborhood": "Shoreditch", "city": "London", "state": "Greater London", "country": "United Kingdom", "formattedAddress": ["384 Old St", "London", "Greater London", "EC1V 9LT", "United Kingdom"]}, "categories": [{"id": "4bf58dd8d48988d16d941735", "name": "Caf\u00e9", "pluralName": "Caf\u00e9s", "shortName": "Caf\u00e9", "icon": {"prefix": "https://ss3.4sqi.net/img/categories_v2/food/cafe_", "suffix": ".png"}, "primary": true}], "photos": {"count": 0, "groups": []}, "venuePage": {"id": "485177955"}}, "referralId": "e-0-56372298498eccf54c9b7aef-8"}, {"reasons": {"count": 0, "items": [{"summary": "This spot is popular", "type": "general", "reasonName": "globalInteractionReason"}]}, "venue": {"id": "4e95cdbc02d5c92d4685122d", "name": "Amici Miei", "location": {"address": "28-30 Kingsland Rd", "lat": 51.527939562724335, "lng": -0.07803048177596657, "labeledLatLngs": [{"label": "display", "lat": 51.527939562724335, "lng": -0.07803048177596657}], "distance": 235, "postalCode": "E2 8DA", "cc": "GB", "city": "London", "state": "Greater London", "country": "United Kingdom", "formattedAddress": ["28-30 Kingsland Rd", "London", "Greater London", "E2 8DA", "United Kingdom"]}, "categories": [{"id": "4bf58dd8d48988d110941735", "name": "Italian Restaurant", "pluralName": "Italian Restaurants", "shortName": "Italian", "icon": {"prefix": "https://ss3.4sqi.net/img/categories_v2/food/italian_", "suffix": ".png"}, "primary": true}], "photos": {"count": 0, "groups": []}}, "referralId": "e-0-4e95cdbc02d5c92d4685122d-9"}, {"reasons": {"count": 0, "items": [{"summary": "This spot is popular", "type": "general", "reasonName": "globalInteractionReason"}]}, "venue": {"id": "59ecdd6d3731ee7f323645e4", "name": "Via Emilia", "location": {"address": "37A Hoxton Square", "lat": 51.527335004628625, "lng": -0.08048369162054024, "labeledLatLngs": [{"label": "display", "lat": 51.527335004628625, "lng": -0.08048369162054024}], "distance": 353, "postalCode": "N1 6NN", "cc": "GB", "city": "London", "state": "Greater London", "country": "United Kingdom", "formattedAddress": ["37A Hoxton Square", "London", "Greater London", "N1 6NN", "United Kingdom"]}, "categories": [{"id": "4bf58dd8d48988d110941735", "name": "Italian Restaurant", "pluralName": "Italian Restaurants", "shortName": "Italian", "icon": {"prefix": "https://ss3.4sqi.net/img/categories_v2/food/italian_", "suffix": ".png"}, "primary": true}], "photos": {"count": 0, "groups": []}}, "referralId": "e-0-59ecdd6d3731ee7f323645e4-10"}, {"reasons": {"count": 0, "items": [{"summary": "This spot is popular", "type": "general", "reasonName": "globalInteractionReason"}]}, "venue": {"id": "4ac518dcf964a5204ba920e3", "name": "Hanoi Caf\u00e9", "location": {"address": "98 Kingsland Road", "lat": 51.529923474618066, "lng": -0.07737396786626731, "labeledLatLngs": [{"label": "display", "lat": 51.529923474618066, "lng": -0.07737396786626731}], "distance": 36, "postalCode": "E2 8DP", "cc": "GB", "city": "London", "state": "Greater London", "country": "United Kingdom", "formattedAddress": ["98 Kingsland Road", "London", "Greater London", "E2 8DP", "United Kingdom"]}, "categories": [{"id": "4bf58dd8d48988d14a941735", "name": "Vietnamese Restaurant", "pluralName": "Vietnamese Restaurants", "shortName": "Vietnamese", "icon": {"prefix": "https://ss3.4sqi.net/img/categories_v2/food/vietnamese_", "suffix": ".png"}, "primary": true}], "photos": {"count": 0, "groups": []}, "venuePage": {"id": "139216100"}}, "referralId": "e-0-4ac518dcf964a5204ba920e3-11"}, {"reasons": {"count": 0, "items": [{"summary": "This spot is popular", "type": "general", "reasonName": "globalInteractionReason"}]}, "venue": {"id": "4f256932e4b0a93fbfe0a57b", "name": "Hundred Years Gallery Cafe", "location": {"address": "13 Pearson Street", "lat": 51.53301803009266, "lng": -0.07615622383906907, "labeledLatLngs": [{"label": "display", "lat": 51.53301803009266, "lng": -0.07615622383906907}], "distance": 350, "postalCode": "E2 8JD", "cc": "GB", "city": "London", "state": "Greater London", "country": "United Kingdom", "formattedAddress": ["13 Pearson Street", "London", "Greater London", "E2 8JD", "United Kingdom"]}, "categories": [{"id": "4bf58dd8d48988d16d941735", "name": "Caf\u00e9", "pluralName": "Caf\u00e9s", "shortName": "Caf\u00e9", "icon": {"prefix": "https://ss3.4sqi.net/img/categories_v2/food/cafe_", "suffix": ".png"}, "primary": true}], "photos": {"count": 0, "groups": []}}, "referralId": "e-0-4f256932e4b0a93fbfe0a57b-12"}, {"reasons": {"count": 0, "items": [{"summary": "This spot is popular", "type": "general", "reasonName": "globalInteractionReason"}]}, "venue": {"id": "5747443d498e298f69724f43", "name": "Petit Pois", "location": {"address": "9 Hoxton Sq", "lat": 51.52774923857484, "lng": -0.08136203090673678, "labeledLatLngs": [{"label": "display", "lat": 51.52774923857484, "lng": -0.08136203090673678}], "distance": 353, "postalCode": "N1 6NU", "cc": "GB", "neighborhood": "Hackney", "country": "United Kingdom", "formattedAddress": ["9 Hoxton Sq", "N1 6NU", "United Kingdom"]}, "categories": [{"id": "52e81612bcbc57f1066b79f1", "name": "Bistro", "pluralName": "Bistros", "shortName": "Bistro", "icon": {"prefix": "https://ss3.4sqi.net/img/categories_v2/food/default_", "suffix": ".png"}, "primary": true}], "photos": {"count": 0, "groups": []}}, "referralId": "e-0-5747443d498e298f69724f43-13"}, {"reasons": {"count": 0, "items": [{"summary": "This spot is popular", "type": "general", "reasonName": "globalInteractionReason"}]}, "venue": {"id": "5012e23ce4b0abd8750bd865", "name": "Crispy Cod Fish & Chips", "location": {"address": "167 Hoxton St", "lat": 51.531496, "lng": -0.080142, "labeledLatLngs": [{"label": "display", "lat": 51.531496, "lng": -0.080142}], "distance": 225, "postalCode": "N1 6JP", "cc": "GB", "city": "London", "state": "Greater London", "country": "United Kingdom", "formattedAddress": ["167 Hoxton St", "London", "Greater London", "N1 6JP", "United Kingdom"]}, "categories": [{"id": "4edd64a0c7ddd24ca188df1a", "name": "Fish & Chips Shop", "pluralName": "Fish & Chips Shops", "shortName": "Fish & Chips", "icon": {"prefix": "https://ss3.4sqi.net/img/categories_v2/food/fishandchips_", "suffix": ".png"}, "primary": true}], "photos": {"count": 0, "groups": []}, "venuePage": {"id": "60003797"}}, "referralId": "e-0-5012e23ce4b0abd8750bd865-14"}, {"reasons": {"count": 0, "items": [{"summary": "This spot is popular", "type": "general", "reasonName": "globalInteractionReason"}]}, "venue": {"id": "4d454ad9e198721e4ba8c48b", "name": "Cafe 12", "location": {"address": "12 Hackney Rd.", "lat": 51.52829748845306, "lng": -0.07582897809968918, "labeledLatLngs": [{"label": "display", "lat": 51.52829748845306, "lng": -0.07582897809968918}], "distance": 241, "postalCode": "E2 7NX", "cc": "GB", "city": "Poplar", "state": "Greater London", "country": "United Kingdom", "formattedAddress": ["12 Hackney Rd.", "Poplar", "Greater London", "E2 7NX", "United Kingdom"]}, "categories": [{"id": "4bf58dd8d48988d110941735", "name": "Italian Restaurant", "pluralName": "Italian Restaurants", "shortName": "Italian", "icon": {"prefix": "https://ss3.4sqi.net/img/categories_v2/food/italian_", "suffix": ".png"}, "primary": true}], "photos": {"count": 0, "groups": []}}, "referralId": "e-0-4d454ad9e198721e4ba8c48b-15"}, {"reasons": {"count": 0, "items": [{"summary": "This spot is popular", "type": "general", "reasonName": "globalInteractionReason"}]}, "venue": {"id": "4ad20e3ef964a52015df20e3", "name": "Viet Grill", "location": {"address": "58 Kingsland Rd", "lat": 51.52912712195311, "lng": -0.0777401487671565, "labeledLatLngs": [{"label": "display", "lat": 51.52912712195311, "lng": -0.0777401487671565}], "distance": 103, "postalCode": "E2 8DP", "cc": "GB", "city": "London", "state": "Greater London", "country": "United Kingdom", "formattedAddress": ["58 Kingsland Rd", "London", "Greater London", "E2 8DP", "United Kingdom"]}, "categories": [{"id": "4bf58dd8d48988d14a941735", "name": "Vietnamese Restaurant", "pluralName": "Vietnamese Restaurants", "shortName": "Vietnamese", "icon": {"prefix": "https://ss3.4sqi.net/img/categories_v2/food/vietnamese_", "suffix": ".png"}, "primary": true}], "photos": {"count": 0, "groups": []}, "venuePage": {"id": "47725119"}}, "referralId": "e-0-4ad20e3ef964a52015df20e3-16"}, {"reasons": {"count": 0, "items": [{"summary": "This spot is popular", "type": "general", "reasonName": "globalInteractionReason"}]}, "venue": {"id": "4df4c4a46284fefe8fc6c7c1", "name": "The Ginger Pig Caf\u00e9", "location": {"address": "231 Hoxton St", "lat": 51.533345993039724, "lng": -0.0801439875193382, "labeledLatLngs": [{"label": "display", "lat": 51.533345993039724, "lng": -0.0801439875193382}], "distance": 398, "postalCode": "N1 5LG", "cc": "GB", "city": "Hackney", "state": "Greater London", "country": "United Kingdom", "formattedAddress": ["231 Hoxton St", "Hackney", "Greater London", "N1 5LG", "United Kingdom"]}, "categories": [{"id": "4bf58dd8d48988d147941735", "name": "Diner", "pluralName": "Diners", "shortName": "Diner", "icon": {"prefix": "https://ss3.4sqi.net/img/categories_v2/food/diner_", "suffix": ".png"}, "primary": true}], "photos": {"count": 0, "groups": []}, "venuePage": {"id": "68852630"}}, "referralId": "e-0-4df4c4a46284fefe8fc6c7c1-17"}, {"reasons": {"count": 0, "items": [{"summary": "This spot is popular", "type": "general", "reasonName": "globalInteractionReason"}]}, "venue": {"id": "4fd1f87fe4b0d4fb74179aee", "name": "Curious Yellow Kaf\u00e9", "location": {"address": "77 Pitfield St", "lat": 51.52970348105762, "lng": -0.08342706466017226, "labeledLatLngs": [{"label": "display", "lat": 51.52970348105762, "lng": -0.08342706466017226}], "distance": 387, "postalCode": "N1 6BT", "cc": "GB", "neighborhood": "Hoxton", "city": "London", "state": "Greater London", "country": "United Kingdom", "formattedAddress": ["77 Pitfield St", "London", "Greater London", "N1 6BT", "United Kingdom"]}, "categories": [{"id": "4bf58dd8d48988d1c6941735", "name": "Scandinavian Restaurant", "pluralName": "Scandinavian Restaurants", "shortName": "Scandinavian", "icon": {"prefix": "https://ss3.4sqi.net/img/categories_v2/food/scandinavian_", "suffix": ".png"}, "primary": true}], "photos": {"count": 0, "groups": []}}, "referralId": "e-0-4fd1f87fe4b0d4fb74179aee-18"}, {"reasons": {"count": 0, "items": [{"summary": "This spot is popular", "type": "general", "reasonName": "globalInteractionReason"}]}, "venue": {"id": "4b79c586f964a520fc102fe3", "name": "Loong Kee Cafe", "location": {"address": "134g Kingsland Rd", "lat": 51.531100270838, "lng": -0.07710958533482162, "labeledLatLngs": [{"label": "display", "lat": 51.531100270838, "lng": -0.07710958533482162}], "distance": 127, "postalCode": "EC2 8DY", "cc": "GB", "city": "Hackney", "state": "Greater London", "country": "United Kingdom", "formattedAddress": ["134g Kingsland Rd", "Hackney", "Greater London", "EC2 8DY", "United Kingdom"]}, "categories": [{"id": "4bf58dd8d48988d14a941735", "name": "Vietnamese Restaurant", "pluralName": "Vietnamese Restaurants", "shortName": "Vietnamese", "icon": {"prefix": "https://ss3.4sqi.net/img/categories_v2/food/vietnamese_", "suffix": ".png"}, "primary": true}], "photos": {"count": 0, "groups": []}}, "referralId": "e-0-4b79c586f964a520fc102fe3-19"}, {"reasons": {"count": 0, "items": [{"summary": "This spot is popular", "type": "general", "reasonName": "globalInteractionReason"}]}, "venue": {"id": "4afabdf6f964a520761822e3", "name": "Mien Tay", "location": {"address": "122 Kingsland Rd", "lat": 51.53044043644521, "lng": -0.0771797386520526, "labeledLatLngs": [{"label": "display", "lat": 51.53044043644521, "lng": -0.0771797386520526}], "distance": 63, "postalCode": "E2 8DP", "cc": "GB", "city": "London", "state": "Greater London", "country": "United Kingdom", "formattedAddress": ["122 Kingsland Rd", "London", "Greater London", "E2 8DP", "United Kingdom"]}, "categories": [{"id": "4bf58dd8d48988d14a941735", "name": "Vietnamese Restaurant", "pluralName": "Vietnamese Restaurants", "shortName": "Vietnamese", "icon": {"prefix": "https://ss3.4sqi.net/img/categories_v2/food/vietnamese_", "suffix": ".png"}, "primary": true}], "photos": {"count": 0, "groups": []}}, "referralId": "e-0-4afabdf6f964a520761822e3-20"}, {"reasons": {"count": 0, "items": [{"summary": "This spot is popular", "type": "general", "reasonName": "globalInteractionReason"}]}, "venue": {"id": "5ae1bcb2b8fd9d002ce9867d", "name": "Cocotte", "location": {"address": "8 Hoxton Square", "lat": 51.527798, "lng": -0.081583, "labeledLatLngs": [{"label": "display", "lat": 51.527798, "lng": -0.081583}], "distance": 359, "postalCode": "N1", "cc": "GB", "city": "London", "state": "Greater London", "country": "United Kingdom", "formattedAddress": ["8 Hoxton Square", "London", "Greater London", "N1", "United Kingdom"]}, "categories": [{"id": "4bf58dd8d48988d10c941735", "name": "French Restaurant", "pluralName": "French Restaurants", "shortName": "French", "icon": {"prefix": "https://ss3.4sqi.net/img/categories_v2/food/french_", "suffix": ".png"}, "primary": true}], "photos": {"count": 0, "groups": []}}, "referralId": "e-0-5ae1bcb2b8fd9d002ce9867d-21"}, {"reasons": {"count": 0, "items": [{"summary": "This spot is popular", "type": "general", "reasonName": "globalInteractionReason"}]}, "venue": {"id": "5045e765e4b0e2ca0b3526f3", "name": "Tapas Brindisa", "location": {"address": "152-154 Curtain Rd", "lat": 51.526903744371715, "lng": -0.08025327087529185, "labeledLatLngs": [{"label": "display", "lat": 51.526903744371715, "lng": -0.08025327087529185}], "distance": 387, "postalCode": "EC2A 3AT", "cc": "GB", "city": "London", "state": "Greater London", "country": "United Kingdom", "formattedAddress": ["152-154 Curtain Rd", "London", "Greater London", "EC2A 3AT", "United Kingdom"]}, "categories": [{"id": "4bf58dd8d48988d1db931735", "name": "Tapas Restaurant", "pluralName": "Tapas Restaurants", "shortName": "Tapas", "icon": {"prefix": "https://ss3.4sqi.net/img/categories_v2/food/tapas_", "suffix": ".png"}, "primary": true}], "photos": {"count": 0, "groups": []}}, "referralId": "e-0-5045e765e4b0e2ca0b3526f3-22"}, {"reasons": {"count": 0, "items": [{"summary": "This spot is popular", "type": "general", "reasonName": "globalInteractionReason"}]}, "venue": {"id": "4e07092918a8382643b1bca3", "name": "Long White Cloud", "location": {"address": "151 Hackney Rd.", "lat": 51.53038835195166, "lng": -0.07357744459981226, "labeledLatLngs": [{"label": "display", "lat": 51.53038835195166, "lng": -0.07357744459981226}], "distance": 299, "postalCode": "E2 8JL", "cc": "GB", "city": "Hoxton", "state": "Greater London", "country": "United Kingdom", "formattedAddress": ["151 Hackney Rd.", "Hoxton", "Greater London", "E2 8JL", "United Kingdom"]}, "categories": [{"id": "4bf58dd8d48988d16d941735", "name": "Caf\u00e9", "pluralName": "Caf\u00e9s", "shortName": "Caf\u00e9", "icon": {"prefix": "https://ss3.4sqi.net/img/categories_v2/food/cafe_", "suffix": ".png"}, "primary": true}], "photos": {"count": 0, "groups": []}}, "referralId": "e-0-4e07092918a8382643b1bca3-23"}, {"reasons": {"count": 0, "items": [{"summary": "This spot is popular", "type": "general", "reasonName": "globalInteractionReason"}]}, "venue": {"id": "4f9321a1e4b0f888dcf9b08f", "name": "AIDA", "location": {"address": "133 High St", "lat": 51.526550358201035, "lng": -0.07803935190870648, "labeledLatLngs": [{"label": "display", "lat": 51.526550358201035, "lng": -0.07803935190870648}], "distance": 390, "postalCode": "E1 6JE", "cc": "GB", "city": "Shoreditch", "state": "Greater London", "country": "United Kingdom", "formattedAddress": ["133 High St", "Shoreditch", "Greater London", "E1 6JE", "United Kingdom"]}, "categories": [{"id": "4bf58dd8d48988d16d941735", "name": "Caf\u00e9", "pluralName": "Caf\u00e9s", "shortName": "Caf\u00e9", "icon": {"prefix": "https://ss3.4sqi.net/img/categories_v2/food/cafe_", "suffix": ".png"}, "primary": true}], "photos": {"count": 0, "groups": []}}, "referralId": "e-0-4f9321a1e4b0f888dcf9b08f-24"}, {"reasons": {"count": 0, "items": [{"summary": "This spot is popular", "type": "general", "reasonName": "globalInteractionReason"}]}, "venue": {"id": "5c052fc0588e36002cceaf57", "name": "Pret A Manger", "location": {"address": "128 Shoreditch High Street", "lat": 51.526773343667266, "lng": -0.07831551901436695, "labeledLatLngs": [{"label": "display", "lat": 51.526773343667266, "lng": -0.07831551901436695}], "distance": 366, "postalCode": "E1 6JE", "cc": "GB", "city": "London", "state": "Greater London", "country": "United Kingdom", "formattedAddress": ["128 Shoreditch High Street", "London", "Greater London", "E1 6JE", "United Kingdom"]}, "categories": [{"id": "4bf58dd8d48988d1c5941735", "name": "Sandwich Place", "pluralName": "Sandwich Places", "shortName": "Sandwiches", "icon": {"prefix": "https://ss3.4sqi.net/img/categories_v2/food/deli_", "suffix": ".png"}, "primary": true}], "photos": {"count": 0, "groups": []}}, "referralId": "e-0-5c052fc0588e36002cceaf57-25"}]}]}}