{"meta": {"code": 200, "requestId": "5feddb48c932c558be9f77e2"}, "response": {"headerLocation": "Hackney", "headerFullLocation": "Hackney, London", "headerLocationGranularity": "neighborhood", "query": "food", "totalResults": 4, "suggestedBounds": {"ne": {"lat": 51.56261000360001, "lng": -0.0551103086638224}, "sw": {"lat": 51.555409996399995, "lng": -0.0666696913361776}}, "groups": [{"type": "Recommended Places", "name": "recommended", "items": [{"reasons": {"count": 0, "items": [{"summary": "This spot is popular", "type": "general", "reasonName": "globalInteractionReason"}]}, "venue": {"id": "58cec05715fb433bd0c871a7", "name": "Clapton Country Club", "location": {"address": "38-40 Upper Clapton Rd", "lat": 51.55992, "lng": -0.055702105, "labeledLatLngs": [{"label": "display", "lat": 51.55992, "lng": -0.055702105}], "distance": 373, "postalCode": "E5 8BQ", "cc": "GB", "city": "London", "state": "Greater London", "country": "United Kingdom", "formattedAddress": ["38-40 Upper Clapton Rd", "London", "Greater London", "E5 8BQ", "United Kingdom"]}, "categories": [{"id": "52e81612bcbc57f1066b7a05", "name": "English Restaurant", "pluralName": "English Restaurants", "shortName": "English", "icon": {"prefix": "https://ss3.4sqi.net/img/categories_v2/food/default_", "suffix": ".png"}, "primary": true}], "photos": {"count": 0, "groups": []}}, "referralId": "e-0-58cec05715fb433bd0c871a7-0"}, {"reasons": {"count": 0, "items": [{"summary": "This spot is popular", "type": "general", "reasonName": "globalInteractionReason"}]}, "venue": {"id": "5a34fd0216fa04126cc1d86c", "name": "Tram Store", "location": {"address": "38 Upper Clapton Rd", "lat": 51.5595555764463, "lng": -0.05632154566507025, "labeledLatLngs": [{"label": "display", "lat": 51.5595555764463, "lng": -0.05632154566507025}], "distance": 321, "postalCode": "E5 8BQ", "cc": "GB", "city": "London", "state": "Greater London", "country": "United Kingdom", "formattedAddress": ["38 Upper Clapton Rd", "London", "Greater London", "E5 8BQ", "United Kingdom"]}, "categories": [{"id": "4bf58dd8d48988d16d941735", "name": "Caf\u00e9", "pluralName": "Caf\u00e9s", "shortName": "Caf\u00e9", "icon": {"prefix": "https://ss3.4sqi.net/img/categories_v2/food/cafe_", "suffix": ".png"}, "primary": true}], "photos": {"count": 0, "groups": []}}, "referralId": "e-0-5a34fd0216fa04126cc1d86c-1"}, {"reasons": {"count": 0, "items": [{"summary": "This spot is popular", "type": "general", "reasonName": "globalInteractionReason"}]}, "venue": {"id": "5102b549e4b01e6ed7901b18", "name": "Upper Clapton Cafe", "location": {"address": "25 Upper Clapton Rd", "lat": 51.56017944550325, "lng": -0.056646844852404614, "labeledLatLngs": [{"label": "display", "lat": 51.56017944550325, "lng": -0.056646844852404614}], "distance": 321, "postalCode": "E5 8EY", "cc": "GB", "city": "London", "state": "Greater London", "country": "United Kingdom", "formattedAddress": ["25 Upper Clapton Rd", "London", "Greater London", "E5 8EY", "United Kingdom"]}, "categories": [{"id": "4bf58dd8d48988d16d941735", "name": "Caf\u00e9", "pluralName": "Caf\u00e9s", "shortName": "Caf\u00e9", "icon": {"prefix": "https://ss3.4sqi.net/img/categories_v2/food/cafe_", "suffix": ".png"}, "primary": true}], "photos": {"count": 0, "groups": []}}, "referralId": "e-0-5102b549e4b01e6ed7901b18-2"}, {"reasons": {"count": 0, "items": [{"summary": "This spot is popular", "type": "general", "reasonName": "globalInteractionReason"}]}, "venue": {"id": "4babe8daf964a52070d43ae3", "name": "Dan's Island", "location": {"address": "239 Lower Clapton Rd", "lat": 51.557982982279185, "lng": -0.05617618560791015, "labeledLatLngs": [{"label": "display", "lat": 51.557982982279185, "lng": -0.05617618560791015}], "distance": 345, "postalCode": "E5 8EG", "cc": "GB", "city": "London", "state": "Greater London", "country": "United Kingdom", "formattedAddress": ["239 Lower Clapton Rd", "London", "Greater London", "E5 8EG", "United Kingdom"]}, "categories": [{"id": "4bf58dd8d48988d145941735", "name": "Chinese Restaurant", "pluralName": "Chinese Restaurants", "shortName": "Chinese", "icon": {"prefix": "https://ss3.4sqi.net/img/categories_v2/food/asian_", "suffix": ".png"}, "primary": true}], "photos": {"count": 0, "groups": []}}, "referralId": "e-0-4babe8daf964a52070d43ae3-3"}]}]}}