{"meta": {"code": 200, "requestId": "5feddab84bde931d9e2076b5"}, "response": {"suggestedFilters": {"header": "Tap to show:", "filters": [{"name": "Open now", "key": "openNow"}]}, "headerLocation": "Leyton", "headerFullLocation": "Leyton, London", "headerLocationGranularity": "neighborhood", "query": "college education", "totalResults": 8, "suggestedBounds": {"ne": {"lat": 51.561026003600006, "lng": -0.00756750995763636}, "sw": {"lat": 51.55382599639999, "lng": -0.01912649004236364}}, "groups": [{"type": "Recommended Places", "name": "recommended", "items": [{"reasons": {"count": 0, "items": [{"summary": "This spot is popular", "type": "general", "reasonName": "globalInteractionReason"}]}, "venue": {"id": "56b0ac49498e918bda883f91", "name": "Asda Pharmacy", "location": {"address": "Leyton Marshall Rd", "lat": 51.555682, "lng": -0.008956, "labeledLatLngs": [{"label": "display", "lat": 51.555682, "lng": -0.008956}], "distance": 360, "postalCode": "E10 5NH", "cc": "GB", "city": "Leyton", "state": "Greater London", "country": "United Kingdom", "formattedAddress": ["Leyton Marshall Rd", "Leyton", "Greater London", "E10 5NH", "United Kingdom"]}, "categories": [{"id": "4bf58dd8d48988d10f951735", "name": "Pharmacy", "pluralName": "Pharmacies", "shortName": "Pharmacy", "icon": {"prefix": "https://ss3.4sqi.net/img/categories_v2/shops/pharmacy_", "suffix": ".png"}, "primary": true}], "photos": {"count": 0, "groups": []}}, "referralId": "e-0-56b0ac49498e918bda883f91-0"}, {"reasons": {"count": 0, "items": [{"summary": "This spot is popular", "type": "general", "reasonName": "globalInteractionReason"}]}, "venue": {"id": "4bc09c43f8219c748cccb110", "name": "Asda", "location": {"address": "Marshall Road", "lat": 51.5559015, "lng": -0.0093687, "labeledLatLngs": [{"label": "display", "lat": 51.5559015, "lng": -0.0093687}], "distance": 323, "postalCode": "E10 5NH", "cc": "GB", "city": "Leyton", "state": "Greater London", "country": "United Kingdom", "formattedAddress": ["Marshall Road", "Leyton", "Greater London", "E10 5NH", "United Kingdom"]}, "categories": [{"id": "52f2ab2ebcbc57f1066b8b46", "name": "Supermarket", "pluralName": "Supermarkets", "shortName": "Supermarket", "icon": {"prefix": "https://ss3.4sqi.net/img/categories_v2/shops/food_grocery_", "suffix": ".png"}, "primary": true}], "photos": {"count": 0, "groups": []}}, "referralId": "e-0-4bc09c43f8219c748cccb110-1"}, {"reasons": {"count": 0, "items": [{"summary": "This spot is popular", "type": "general", "reasonName": "globalInteractionReason"}]}, "venue": {"id": "5765488a498e6aa8a7b57b3d", "name": "Leyton Food Market", "location": {"address": "Oliver Road", "lat": 51.559572, "lng": -0.010741, "labeledLatLngs": [{"label": "display", "lat": 51.559572, "lng": -0.010741}], "distance": 299, "cc": "GB", "city": "Leyton", "state": "Greater London", "country": "United Kingdom", "formattedAddress": ["Oliver Road", "Leyton", "Greater London", "United Kingdom"]}, "categories": [{"id": "50be8ee891d4fa8dcc7199a7", "name": "Market", "pluralName": "Markets", "shortName": "Market", "icon": {"prefix": "https://ss3.4sqi.net/img/categories_v2/shops/market_", "suffix": ".png"}, "primary": true}], "photos": {"count": 0, "groups": []}}, "referralId": "e-0-5765488a498e6aa8a7b57b3d-2"}, {"reasons": {"count": 0, "items": [{"summary": "This spot is popular", "type": "general", "reasonName": "globalInteractionReason"}]}, "venue": {"id": "52ffbc7711d2e6ec4eb944ea", "name": "USSR \u0442\u043e\u0440\u0433\u043e\u0432\u044b\u0439 \u0434\u043e\u043c", "location": {"address": "679-691 High Road Leyton", "lat": 51.557598789551875, "lng": -0.008975230542101385, "labeledLatLngs": [{"label": "display", "lat": 51.557598789551875, "lng": -0.008975230542101385}], "distance": 303, "postalCode": "E10 6RA", "cc": "GB", "city": "Leyton", "state": "Greater London", "country": "United Kingdom", "formattedAddress": ["679-691 High Road Leyton", "Leyton", "Greater London", "E10 6RA", "United Kingdom"]}, "categories": [{"id": "4bf58dd8d48988d118951735", "name": "Grocery Store", "pluralName": "Grocery Stores", "shortName": "Grocery Store", "icon": {"prefix": "https://ss3.4sqi.net/img/categories_v2/shops/food_grocery_", "suffix": ".png"}, "primary": true}], "photos": {"count": 0, "groups": []}}, "referralId": "e-0-52ffbc7711d2e6ec4eb944ea-3"}, {"reasons": {"count": 0, "items": [{"summary": "This spot is popular", "type": "general", "reasonName": "globalInteractionReason"}]}, "venue": {"id": "4f59f67de4b04e4607eef41b", "name": "Sainsbury's Local", "location": {"address": "297 High Road Leyton", "lat": 51.5596543547303, "lng": -0.00880996890475938, "labeledLatLngs": [{"label": "display", "lat": 51.5596543547303, "lng": -0.00880996890475938}], "distance": 400, "postalCode": "E10 5QN", "cc": "GB", "city": "London", "state": "Greater London", "country": "United Kingdom", "formattedAddress": ["297 High Road Leyton", "London", "Greater London", "E10 5QN", "United Kingdom"]}, "categories": [{"id": "4bf58dd8d48988d118951735", "name": "Grocery Store", "pluralName": "Grocery Stores", "shortName": "Grocery Store", "icon": {"prefix": "https://ss3.4sqi.net/img/categories_v2/shops/food_grocery_", "suffix": ".png"}, "primary": true}], "photos": {"count": 0, "groups": []}}, "referralId": "e-0-4f59f67de4b04e4607eef41b-4"}, {"reasons": {"count": 0, "items": [{"summary": "This spot is popular", "type": "general", "reasonName": "globalInteractionReason"}]}, "venue": {"id": "59131e9f25fb7b766758b046", "name": "Asda Opticians", "location": {"lat": 51.555943, "lng": -0.009052791, "labeledLatLngs": [{"label": "display", "lat": 51.555943, "lng": -0.009052791}], "distance": 339, "cc": "GB", "city": "London", "state": "Greater London", "country": "United Kingdom", "formattedAddress": ["London", "Greater London", "United Kingdom"]}, "categories": [{"id": "4d954afda243a5684865b473", "name": "Optical Shop", "pluralName": "Optical Shops", "shortName": "Optical", "icon": {"prefix": "https://ss3.4sqi.net/img/categories_v2/building/medical_opticalshop_", "suffix": ".png"}, "primary": true}], "photos": {"count": 0, "groups": []}}, "referralId": "e-0-59131e9f25fb7b766758b046-5"}, {"reasons": {"count": 0, "items": [{"summary": "This spot is popular", "type": "general", "reasonName": "globalInteractionReason"}]}, "venue": {"id": "4f23dbe6e4b0020c2e244b6d", "name": "Leyton Mills Retail Park", "location": {"address": "Marshall Rd", "lat": 51.556145171664866, "lng": -0.00873936246741339, "labeledLatLngs": [{"label": "display", "lat": 51.556145171664866, "lng": -0.00873936246741339}], "distance": 349, "postalCode": "E10 5NH", "cc": "GB", "city": "Leyton", "state": "Greater London", "country": "United Kingdom", "formattedAddress": ["Marshall Rd", "Leyton", "Greater London", "E10 5NH", "United Kingdom"]}, "categories": [{"id": "5744ccdfe4b0c0459246b4dc", "name": "Shopping Plaza", "pluralName": "Shopping Plazas", "shortName": "Shopping Plaza", "icon": {"prefix": "https://ss3.4sqi.net/img/categories_v2/shops/mall_", "suffix": ".png"}, "primary": true}], "photos": {"count": 0, "groups": []}}, "referralId": "e-0-4f23dbe6e4b0020c2e244b6d-6"}, {"reasons": {"count": 0, "items": [{"summary": "This spot is popular", "type": "general", "reasonName": "globalInteractionReason"}]}, "venue": {"id": "4b5a3e25f964a520fab628e3", "name": "Sports Direct", "location": {"address": "Unit D Leyton Mills Retail Park", "crossStreet": "Marshall Rd", "lat": 51.55568803707601, "lng": -0.009077826950768284, "labeledLatLngs": [{"label": "display", "lat": 51.55568803707601, "lng": -0.009077826950768284}], "distance": 353, "postalCode": "E10 5NH", "cc": "GB", "city": "London", "state": "Greater London", "country": "United Kingdom", "formattedAddress": ["Unit D Leyton Mills Retail Park (Marshall Rd)", "London", "Greater London", "E10 5NH", "United Kingdom"]}, "categories": [{"id": "4bf58dd8d48988d1f2941735", "name": "Sporting Goods Shop", "pluralName": "Sporting Goods Shops", "shortName": "Sporting Goods", "icon": {"prefix": "https://ss3.4sqi.net/img/categories_v2/shops/sports_outdoors_", "suffix": ".png"}, "primary": true}], "photos": {"count": 0, "groups": []}}, "referralId": "e-0-4b5a3e25f964a520fab628e3-7"}]}]}}