{"meta": {"code": 200, "requestId": "5fedda0d960a06004f4df5af"}, "response": {"suggestedFilters": {"header": "Tap to show:", "filters": [{"name": "Open now", "key": "openNow"}]}, "headerLocation": "Hackney", "headerFullLocation": "Hackney, London", "headerLocationGranularity": "neighborhood", "query": "food", "totalResults": 44, "suggestedBounds": {"ne": {"lat": 51.525634003600004, "lng": -0.07812700274859136}, "sw": {"lat": 51.51843399639999, "lng": -0.08967699725140865}}, "groups": [{"type": "Recommended Places", "name": "recommended", "items": [{"reasons": {"count": 0, "items": [{"summary": "This spot is popular", "type": "general", "reasonName": "globalInteractionReason"}]}, "venue": {"id": "5e4547254f10a40008fb2240", "name": "Padella", "location": {"address": "1 Phipp St", "lat": 51.523371670204625, "lng": -0.0816759467124939, "labeledLatLngs": [{"label": "display", "lat": 51.523371670204625, "lng": -0.0816759467124939}], "distance": 214, "postalCode": "EC2A 4PS", "cc": "GB", "city": "Shoreditch", "state": "Greater London", "country": "United Kingdom", "formattedAddress": ["1 Phipp St", "Shoreditch", "Greater London", "EC2A 4PS", "United Kingdom"]}, "categories": [{"id": "4bf58dd8d48988d110941735", "name": "Italian Restaurant", "pluralName": "Italian Restaurants", "shortName": "Italian", "icon": {"prefix": "https://ss3.4sqi.net/img/categories_v2/food/italian_", "suffix": ".png"}, "primary": true}], "photos": {"count": 0, "groups": []}}, "referralId": "e-0-5e4547254f10a40008fb2240-0"}, {"reasons": {"count": 0, "items": [{"summary": "This spot is popular", "type": "general", "reasonName": "globalInteractionReason"}]}, "venue": {"id": "59e1ffe1dd70c5577e27507f", "name": "Dumpling Shack", "location": {"address": "Old Spitalfields Market", "crossStreet": "The Kitchen", "lat": 51.5223695110415, "lng": -0.08104009042166695, "labeledLatLngs": [{"label": "display", "lat": 51.5223695110415, "lng": -0.08104009042166695}], "distance": 201, "postalCode": "E1 6EW", "cc": "GB", "city": "London", "state": "Greater London", "country": "United Kingdom", "formattedAddress": ["Old Spitalfields Market (The Kitchen)", "London", "Greater London", "E1 6EW", "United Kingdom"]}, "categories": [{"id": "4bf58dd8d48988d1cb941735", "name": "Food Truck", "pluralName": "Food Trucks", "shortName": "Food Truck", "icon": {"prefix": "https://ss3.4sqi.net/img/categories_v2/food/streetfood_", "suffix": ".png"}, "primary": true}], "photos": {"count": 0, "groups": []}}, "referralId": "e-0-59e1ffe1dd70c5577e27507f-1"}, {"reasons": {"count": 0, "items": [{"summary": "This spot is popular", "type": "general", "reasonName": "globalInteractionReason"}]}, "venue": {"id": "53bbdefe498e97b80789e930", "name": "Banh-Mi & Son", "location": {"address": "40 Clifton St", "lat": 51.521577215556746, "lng": -0.08345952650700401, "labeledLatLngs": [{"label": "display", "lat": 51.521577215556746, "lng": -0.08345952650700401}], "distance": 59, "cc": "GB", "country": "United Kingdom", "formattedAddress": ["40 Clifton St", "United Kingdom"]}, "categories": [{"id": "4bf58dd8d48988d1cb941735", "name": "Food Truck", "pluralName": "Food Trucks", "shortName": "Food Truck", "icon": {"prefix": "https://ss3.4sqi.net/img/categories_v2/food/streetfood_", "suffix": ".png"}, "primary": true}], "photos": {"count": 0, "groups": []}}, "referralId": "e-0-53bbdefe498e97b80789e930-2"}, {"reasons": {"count": 0, "items": [{"summary": "This spot is popular", "type": "general", "reasonName": "globalInteractionReason"}]}, "venue": {"id": "53ac0026498ee596ef17218b", "name": "The Backstreet Diner", "location": {"address": "Clifton St", "crossStreet": "Dysart St", "lat": 51.52161318437401, "lng": -0.08341372317798512, "labeledLatLngs": [{"label": "display", "lat": 51.52161318437401, "lng": -0.08341372317798512}], "distance": 57, "postalCode": "EC2A 4EX", "cc": "GB", "country": "United Kingdom", "formattedAddress": ["Clifton St (Dysart St)", "EC2A 4EX", "United Kingdom"]}, "categories": [{"id": "4bf58dd8d48988d1cb941735", "name": "Food Truck", "pluralName": "Food Trucks", "shortName": "Food Truck", "icon": {"prefix": "https://ss3.4sqi.net/img/categories_v2/food/streetfood_", "suffix": ".png"}, "primary": true}], "photos": {"count": 0, "groups": []}}, "referralId": "e-0-53ac0026498ee596ef17218b-3"}, {"reasons": {"count": 0, "items": [{"summary": "This spot is popular", "type": "general", "reasonName": "globalInteractionReason"}]}, "venue": {"id": "5840778e18384c5356681695", "name": "Aviary", "location": {"address": "22-25 Finsbury Sq", "crossStreet": "The Montcalm Royal", "lat": 51.52179539298163, "lng": -0.08559013006519264, "labeledLatLngs": [{"label": "display", "lat": 51.52179539298163, "lng": -0.08559013006519264}], "distance": 119, "postalCode": "EC2A 1DX", "cc": "GB", "city": "London", "state": "Greater London", "country": "United Kingdom", "formattedAddress": ["22-25 Finsbury Sq (The Montcalm Royal)", "London", "Greater London", "EC2A 1DX", "United Kingdom"]}, "categories": [{"id": "52e81612bcbc57f1066b7a05", "name": "English Restaurant", "pluralName": "English Restaurants", "shortName": "English", "icon": {"prefix": "https://ss3.4sqi.net/img/categories_v2/food/default_", "suffix": ".png"}, "primary": true}], "photos": {"count": 0, "groups": []}}, "referralId": "e-0-5840778e18384c5356681695-4"}, {"reasons": {"count": 0, "items": [{"summary": "This spot is popular", "type": "general", "reasonName": "globalInteractionReason"}]}, "venue": {"id": "4bbb37f87421a593408ac440", "name": "Riccardo's", "location": {"address": "9 Paul St", "crossStreet": "Bonhill Street", "lat": 51.52255890972233, "lng": -0.08450359380734898, "labeledLatLngs": [{"label": "display", "lat": 51.52255890972233, "lng": -0.08450359380734898}], "distance": 71, "postalCode": "EC2A 4JJ", "cc": "GB", "city": "London", "state": "Greater London", "country": "United Kingdom", "formattedAddress": ["9 Paul St (Bonhill Street)", "London", "Greater London", "EC2A 4JJ", "United Kingdom"]}, "categories": [{"id": "4bf58dd8d48988d16d941735", "name": "Caf\u00e9", "pluralName": "Caf\u00e9s", "shortName": "Caf\u00e9", "icon": {"prefix": "https://ss3.4sqi.net/img/categories_v2/food/cafe_", "suffix": ".png"}, "primary": true}], "photos": {"count": 0, "groups": []}}, "referralId": "e-0-4bbb37f87421a593408ac440-5"}, {"reasons": {"count": 0, "items": [{"summary": "This spot is popular", "type": "general", "reasonName": "globalInteractionReason"}]}, "venue": {"id": "5ab43df0f5e9d758514a0f06", "name": "Leroy", "location": {"address": "18 Phipp St", "lat": 51.52404359679944, "lng": -0.08164577815337824, "labeledLatLngs": [{"label": "display", "lat": 51.52404359679944, "lng": -0.08164577815337824}], "distance": 272, "postalCode": "EC2A 4NU", "cc": "GB", "city": "Shoreditch", "state": "Greater London", "country": "United Kingdom", "formattedAddress": ["18 Phipp St", "Shoreditch", "Greater London", "EC2A 4NU", "United Kingdom"]}, "categories": [{"id": "4bf58dd8d48988d1c4941735", "name": "Restaurant", "pluralName": "Restaurants", "shortName": "Restaurant", "icon": {"prefix": "https://ss3.4sqi.net/img/categories_v2/food/default_", "suffix": ".png"}, "primary": true}], "photos": {"count": 0, "groups": []}}, "referralId": "e-0-5ab43df0f5e9d758514a0f06-6"}, {"reasons": {"count": 0, "items": [{"summary": "This spot is popular", "type": "general", "reasonName": "globalInteractionReason"}]}, "venue": {"id": "5647a906498ea0ff8a76180f", "name": "Oklava", "location": {"address": "74 Luke St", "lat": 51.524132380271276, "lng": -0.08149213291266207, "labeledLatLngs": [{"label": "display", "lat": 51.524132380271276, "lng": -0.08149213291266207}], "distance": 287, "postalCode": "EC2A 4PY", "cc": "GB", "city": "Shoreditch", "state": "Greater London", "country": "United Kingdom", "formattedAddress": ["74 Luke St", "Shoreditch", "Greater London", "EC2A 4PY", "United Kingdom"]}, "categories": [{"id": "4f04af1f2fb6e1c99f3db0bb", "name": "Turkish Restaurant", "pluralName": "Turkish Restaurants", "shortName": "Turkish", "icon": {"prefix": "https://ss3.4sqi.net/img/categories_v2/food/turkish_", "suffix": ".png"}, "primary": true}], "photos": {"count": 0, "groups": []}}, "referralId": "e-0-5647a906498ea0ff8a76180f-7"}, {"reasons": {"count": 0, "items": [{"summary": "This spot is popular", "type": "general", "reasonName": "globalInteractionReason"}]}, "venue": {"id": "55537b80498eca9bfce36370", "name": "Yauatcha", "location": {"address": "Broadgate Circle", "lat": 51.51882820696518, "lng": -0.08349768631963068, "labeledLatLngs": [{"label": "display", "lat": 51.51882820696518, "lng": -0.08349768631963068}], "distance": 357, "postalCode": "EC2M 2QS", "cc": "GB", "neighborhood": "Bishopsgate", "city": "London", "state": "Greater London", "country": "United Kingdom", "formattedAddress": ["Broadgate Circle", "London", "Greater London", "EC2M 2QS", "United Kingdom"]}, "categories": [{"id": "4bf58dd8d48988d145941735", "name": "Chinese Restaurant", "pluralName": "Chinese Restaurants", "shortName": "Chinese", "icon": {"prefix": "https://ss3.4sqi.net/img/categories_v2/food/asian_", "suffix": ".png"}, "primary": true}], "photos": {"count": 0, "groups": []}}, "referralId": "e-0-55537b80498eca9bfce36370-8"}, {"reasons": {"count": 0, "items": [{"summary": "This spot is popular", "type": "general", "reasonName": "globalInteractionReason"}]}, "venue": {"id": "552fee6c498e17137c118b88", "name": "Franco Manca", "location": {"address": "Unit T2, Broadgate Circle", "lat": 51.51877998751915, "lng": -0.08344802055426549, "labeledLatLngs": [{"label": "display", "lat": 51.51877998751915, "lng": -0.08344802055426549}], "distance": 363, "postalCode": "EC2M 2QS", "cc": "GB", "neighborhood": "Bishopsgate, London, Greater London", "city": "Bishopsgate", "state": "Greater London", "country": "United Kingdom", "formattedAddress": ["Unit T2, Broadgate Circle", "Bishopsgate", "Greater London", "EC2M 2QS", "United Kingdom"]}, "categories": [{"id": "4bf58dd8d48988d1ca941735", "name": "Pizza Place", "pluralName": "Pizza Places", "shortName": "Pizza", "icon": {"prefix": "https://ss3.4sqi.net/img/categories_v2/food/pizza_", "suffix": ".png"}, "primary": true}], "photos": {"count": 0, "groups": []}}, "referralId": "e-0-552fee6c498e17137c118b88-9"}, {"reasons": {"count": 0, "items": [{"summary": "This spot is popular", "type": "general", "reasonName": "globalInteractionReason"}]}, "venue": {"id": "5729f951498e677fbce4d17b", "name": "Karims Stoop Zeyoona", "location": {"address": "77 Paul St", "crossStreet": "Leonard St", "lat": 51.52472577186193, "lng": -0.08414089679718018, "labeledLatLngs": [{"label": "display", "lat": 51.52472577186193, "lng": -0.08414089679718018}], "distance": 300, "postalCode": "EC2A 4PN", "cc": "GB", "neighborhood": "Hackney", "city": "London", "state": "Greater London", "country": "United Kingdom", "formattedAddress": ["77 Paul St (Leonard St)", "London", "Greater London", "EC2A 4PN", "United Kingdom"]}, "categories": [{"id": "56aa371be4b08b9a8d57350b", "name": "Food Stand", "pluralName": "Food Stands", "shortName": "Food Stand", "icon": {"prefix": "https://ss3.4sqi.net/img/categories_v2/travel/movingtarget_", "suffix": ".png"}, "primary": true}], "photos": {"count": 0, "groups": []}}, "referralId": "e-0-5729f951498e677fbce4d17b-10"}, {"reasons": {"count": 0, "items": [{"summary": "This spot is popular", "type": "general", "reasonName": "globalInteractionReason"}]}, "venue": {"id": "57643e72498ede5f048ca51c", "name": "Flat Iron", "location": {"address": "77 Curtain Rd", "lat": 51.5248253266375, "lng": -0.08033740868454578, "labeledLatLngs": [{"label": "display", "lat": 51.5248253266375, "lng": -0.08033740868454578}], "distance": 396, "postalCode": "EC2A 3BS", "cc": "GB", "city": "London", "state": "Greater London", "country": "United Kingdom", "formattedAddress": ["77 Curtain Rd", "London", "Greater London", "EC2A 3BS", "United Kingdom"]}, "categories": [{"id": "4bf58dd8d48988d1cc941735", "name": "Steakhouse", "pluralName": "Steakhouses", "shortName": "Steakhouse", "icon": {"prefix": "https://ss3.4sqi.net/img/categories_v2/food/steakhouse_", "suffix": ".png"}, "primary": true}], "photos": {"count": 0, "groups": []}}, "referralId": "e-0-57643e72498ede5f048ca51c-11"}, {"reasons": {"count": 0, "items": [{"summary": "This spot is popular", "type": "general", "reasonName": "globalInteractionReason"}]}, "venue": {"id": "4f7ddc0fe4b062316b24a77b", "name": "Lantana Cafe", "location": {"address": "2, Oliver\u2019s Yard, 55 City Rd", "lat": 51.52432692929157, "lng": -0.08739218218527553, "labeledLatLngs": [{"label": "display", "lat": 51.52432692929157, "lng": -0.08739218218527553}], "distance": 351, "postalCode": "EC1Y 1HQ", "cc": "GB", "neighborhood": "Shoreditch, London, Greater London", "city": "London", "state": "Greater London", "country": "United Kingdom", "formattedAddress": ["2, Oliver\u2019s Yard, 55 City Rd", "London", "Greater London", "EC1Y 1HQ", "United Kingdom"]}, "categories": [{"id": "4bf58dd8d48988d16d941735", "name": "Caf\u00e9", "pluralName": "Caf\u00e9s", "shortName": "Caf\u00e9", "icon": {"prefix": "https://ss3.4sqi.net/img/categories_v2/food/cafe_", "suffix": ".png"}, "primary": true}], "photos": {"count": 0, "groups": []}}, "referralId": "e-0-4f7ddc0fe4b062316b24a77b-12"}, {"reasons": {"count": 0, "items": [{"summary": "This spot is popular", "type": "general", "reasonName": "globalInteractionReason"}]}, "venue": {"id": "4ad0adf5f964a5200bd920e3", "name": "The Princess of Shoreditch", "location": {"address": "76 Paul St", "lat": 51.5253930243815, "lng": -0.08389457472327243, "labeledLatLngs": [{"label": "display", "lat": 51.5253930243815, "lng": -0.08389457472327243}], "distance": 373, "postalCode": "EC2A 4NE", "cc": "GB", "city": "London", "state": "Greater London", "country": "United Kingdom", "formattedAddress": ["76 Paul St", "London", "Greater London", "EC2A 4NE", "United Kingdom"]}, "categories": [{"id": "4bf58dd8d48988d155941735", "name": "Gastropub", "pluralName": "Gastropubs", "shortName": "Gastropub", "icon": {"prefix": "https://ss3.4sqi.net/img/categories_v2/food/gastropub_", "suffix": ".png"}, "primary": true}], "photos": {"count": 0, "groups": []}}, "referralId": "e-0-4ad0adf5f964a5200bd920e3-13"}, {"reasons": {"count": 0, "items": [{"summary": "This spot is popular", "type": "general", "reasonName": "globalInteractionReason"}]}, "venue": {"id": "5698f64c498e6a3be418ab85", "name": "The Sichuan", "location": {"address": "14 City Rd", "lat": 51.522159812186, "lng": -0.08702817994493915, "labeledLatLngs": [{"label": "display", "lat": 51.522159812186, "lng": -0.08702817994493915}], "distance": 216, "postalCode": "EC1Y 2AA", "cc": "GB", "neighborhood": "Islington", "city": "London", "state": "Greater London", "country": "United Kingdom", "formattedAddress": ["14 City Rd", "London", "Greater London", "EC1Y 2AA", "United Kingdom"]}, "categories": [{"id": "52af3b773cf9994f4e043c03", "name": "Szechuan Restaurant", "pluralName": "Szechuan Restaurants", "shortName": "Szechuan", "icon": {"prefix": "https://ss3.4sqi.net/img/categories_v2/food/asian_", "suffix": ".png"}, "primary": true}], "photos": {"count": 0, "groups": []}}, "referralId": "e-0-5698f64c498e6a3be418ab85-14"}, {"reasons": {"count": 0, "items": [{"summary": "This spot is popular", "type": "general", "reasonName": "globalInteractionReason"}]}, "venue": {"id": "54c8e951498e51274c49062e", "name": "Beer & Buns", "location": {"address": "3 Appold St", "lat": 51.520460662511994, "lng": -0.08213501463345822, "labeledLatLngs": [{"label": "display", "lat": 51.520460662511994, "lng": -0.08213501463345822}], "distance": 213, "postalCode": "EC2A 2AF", "cc": "GB", "city": "London", "state": "Greater London", "country": "United Kingdom", "formattedAddress": ["3 Appold St", "London", "Greater London", "EC2A 2AF", "United Kingdom"]}, "categories": [{"id": "4bf58dd8d48988d111941735", "name": "Japanese Restaurant", "pluralName": "Japanese Restaurants", "shortName": "Japanese", "icon": {"prefix": "https://ss3.4sqi.net/img/categories_v2/food/japanese_", "suffix": ".png"}, "primary": true}], "photos": {"count": 0, "groups": []}}, "referralId": "e-0-54c8e951498e51274c49062e-15"}, {"reasons": {"count": 0, "items": [{"summary": "This spot is popular", "type": "general", "reasonName": "globalInteractionReason"}]}, "venue": {"id": "5452425a498e175ca17ab0e3", "name": "Persian Kebab", "location": {"lat": 51.524714935729435, "lng": -0.08215458228130076, "labeledLatLngs": [{"label": "display", "lat": 51.524714935729435, "lng": -0.08215458228130076}], "distance": 322, "cc": "GB", "city": "London", "state": "Greater London", "country": "United Kingdom", "formattedAddress": ["London", "Greater London", "United Kingdom"]}, "categories": [{"id": "4bf58dd8d48988d1cb941735", "name": "Food Truck", "pluralName": "Food Trucks", "shortName": "Food Truck", "icon": {"prefix": "https://ss3.4sqi.net/img/categories_v2/food/streetfood_", "suffix": ".png"}, "primary": true}], "photos": {"count": 0, "groups": []}}, "referralId": "e-0-5452425a498e175ca17ab0e3-16"}, {"reasons": {"count": 0, "items": [{"summary": "This spot is popular", "type": "general", "reasonName": "globalInteractionReason"}]}, "venue": {"id": "59807212c0f1634fedb6cb80", "name": "Island Pok\u00e9", "location": {"address": "42 Broadgate Circle", "lat": 51.51877607239353, "lng": -0.0835295466952923, "labeledLatLngs": [{"label": "display", "lat": 51.51877607239353, "lng": -0.0835295466952923}], "distance": 363, "postalCode": "EC2M 2QS", "cc": "GB", "neighborhood": "Bishopsgate", "city": "London", "state": "Greater London", "country": "United Kingdom", "formattedAddress": ["42 Broadgate Circle", "London", "Greater London", "EC2M 2QS", "United Kingdom"]}, "categories": [{"id": "5bae9231bedf3950379f89d4", "name": "Poke Place", "pluralName": "Poke Places", "shortName": "Poke Place", "icon": {"prefix": "https://ss3.4sqi.net/img/categories_v2/food/default_", "suffix": ".png"}, "primary": true}], "photos": {"count": 0, "groups": []}}, "referralId": "e-0-59807212c0f1634fedb6cb80-17"}, {"reasons": {"count": 0, "items": [{"summary": "This spot is popular", "type": "general", "reasonName": "globalInteractionReason"}]}, "venue": {"id": "5c692ec8829b0c002c56986d", "name": "Gloria by Big Mamma", "location": {"address": "54-56 Great Eastern St", "lat": 51.52496383354684, "lng": -0.08130471249095239, "labeledLatLngs": [{"label": "display", "lat": 51.52496383354684, "lng": -0.08130471249095239}], "distance": 372, "postalCode": "EC2A 3QR", "cc": "GB", "city": "Shoreditch", "state": "Greater London", "country": "United Kingdom", "formattedAddress": ["54-56 Great Eastern St", "Shoreditch", "Greater London", "EC2A 3QR", "United Kingdom"]}, "categories": [{"id": "4bf58dd8d48988d110941735", "name": "Italian Restaurant", "pluralName": "Italian Restaurants", "shortName": "Italian", "icon": {"prefix": "https://ss3.4sqi.net/img/categories_v2/food/italian_", "suffix": ".png"}, "primary": true}], "photos": {"count": 0, "groups": []}}, "referralId": "e-0-5c692ec8829b0c002c56986d-18"}, {"reasons": {"count": 0, "items": [{"summary": "This spot is popular", "type": "general", "reasonName": "globalInteractionReason"}]}, "venue": {"id": "5bdcc0d36e69af00318838f1", "name": "Pachamama East", "location": {"address": "73 Great Eastern St", "lat": 51.52531737011926, "lng": -0.0822287263819268, "labeledLatLngs": [{"label": "display", "lat": 51.52531737011926, "lng": -0.0822287263819268}], "distance": 383, "postalCode": "EC2A 3HR", "cc": "GB", "city": "London", "state": "Greater London", "country": "United Kingdom", "formattedAddress": ["73 Great Eastern St", "London", "Greater London", "EC2A 3HR", "United Kingdom"]}, "categories": [{"id": "4eb1bfa43b7b52c0e1adc2e8", "name": "Peruvian Restaurant", "pluralName": "Peruvian Restaurants", "shortName": "Peruvian", "icon": {"prefix": "https://ss3.4sqi.net/img/categories_v2/food/peruvian_", "suffix": ".png"}, "primary": true}], "photos": {"count": 0, "groups": []}}, "referralId": "e-0-5bdcc0d36e69af00318838f1-19"}, {"reasons": {"count": 0, "items": [{"summary": "This spot is popular", "type": "general", "reasonName": "globalInteractionReason"}]}, "venue": {"id": "4bc9c461b6c49c747ee68e91", "name": "Pret A Manger", "location": {"address": "2/3 Whitecross Pl, 1 Finsbury Avenue", "lat": 51.519861379568475, "lng": -0.08487297480692127, "labeledLatLngs": [{"label": "display", "lat": 51.519861379568475, "lng": -0.08487297480692127}], "distance": 251, "postalCode": "EC2M 2PB", "cc": "GB", "city": "Whitecross Place, London", "country": "United Kingdom", "formattedAddress": ["2/3 Whitecross Pl, 1 Finsbury Avenue", "Whitecross Place, London", "EC2M 2PB", "United Kingdom"]}, "categories": [{"id": "4bf58dd8d48988d1c5941735", "name": "Sandwich Place", "pluralName": "Sandwich Places", "shortName": "Sandwiches", "icon": {"prefix": "https://ss3.4sqi.net/img/categories_v2/food/deli_", "suffix": ".png"}, "primary": true}], "photos": {"count": 0, "groups": []}}, "referralId": "e-0-4bc9c461b6c49c747ee68e91-20"}, {"reasons": {"count": 0, "items": [{"summary": "This spot is popular", "type": "general", "reasonName": "globalInteractionReason"}]}, "venue": {"id": "552e642f498e32a2343f162d", "name": "Shoryu Ramen", "location": {"address": "33 Broadgate Circle", "lat": 51.51878158401482, "lng": -0.08370369672775269, "labeledLatLngs": [{"label": "display", "lat": 51.51878158401482, "lng": -0.08370369672775269}], "distance": 362, "postalCode": "EC2M 2QS", "cc": "GB", "city": "London", "state": "Greater London", "country": "United Kingdom", "formattedAddress": ["33 Broadgate Circle", "London", "Greater London", "EC2M 2QS", "United Kingdom"]}, "categories": [{"id": "55a59bace4b013909087cb24", "name": "Ramen Restaurant", "pluralName": "Ramen Restaurants", "shortName": "Ramen", "icon": {"prefix": "https://ss3.4sqi.net/img/categories_v2/food/ramen_", "suffix": ".png"}, "primary": true}], "photos": {"count": 0, "groups": []}}, "referralId": "e-0-552e642f498e32a2343f162d-21"}, {"reasons": {"count": 0, "items": [{"summary": "This spot is popular", "type": "general", "reasonName": "globalInteractionReason"}]}, "venue": {"id": "554e6bb7498e71de5e1c123e", "name": "Jos\u00e9 Pizarro Broadgate", "location": {"address": "36 Broadgate Circle", "lat": 51.51881879943959, "lng": -0.08346429811699384, "labeledLatLngs": [{"label": "display", "lat": 51.51881879943959, "lng": -0.08346429811699384}], "distance": 359, "postalCode": "EC2M 1QS", "cc": "GB", "city": "London", "state": "Greater London", "country": "United Kingdom", "formattedAddress": ["36 Broadgate Circle", "London", "Greater London", "EC2M 1QS", "United Kingdom"]}, "categories": [{"id": "4bf58dd8d48988d150941735", "name": "Spanish Restaurant", "pluralName": "Spanish Restaurants", "shortName": "Spanish", "icon": {"prefix": "https://ss3.4sqi.net/img/categories_v2/food/spanish_", "suffix": ".png"}, "primary": true}], "photos": {"count": 0, "groups": []}}, "referralId": "e-0-554e6bb7498e71de5e1c123e-22"}, {"reasons": {"count": 0, "items": [{"summary": "This spot is popular", "type": "general", "reasonName": "globalInteractionReason"}]}, "venue": {"id": "594d318ba4b51b7d05bb26ed", "name": "Nobu Restaurant & Bar", "location": {"address": "10-50 Willow St", "lat": 51.52519963868433, "lng": -0.08265084703283386, "labeledLatLngs": [{"label": "display", "lat": 51.52519963868433, "lng": -0.08265084703283386}], "distance": 362, "postalCode": "EC2A 4BH", "cc": "GB", "neighborhood": "Hackney", "city": "Shoreditch", "state": "Greater London", "country": "United Kingdom", "formattedAddress": ["10-50 Willow St", "Shoreditch", "Greater London", "EC2A 4BH", "United Kingdom"]}, "categories": [{"id": "4bf58dd8d48988d111941735", "name": "Japanese Restaurant", "pluralName": "Japanese Restaurants", "shortName": "Japanese", "icon": {"prefix": "https://ss3.4sqi.net/img/categories_v2/food/japanese_", "suffix": ".png"}, "primary": true}], "photos": {"count": 0, "groups": []}}, "referralId": "e-0-594d318ba4b51b7d05bb26ed-23"}, {"reasons": {"count": 0, "items": [{"summary": "This spot is popular", "type": "general", "reasonName": "globalInteractionReason"}]}, "venue": {"id": "4b58a4a8f964a5203e6328e3", "name": "Gaucho", "location": {"address": "5 Finsbury Ave", "lat": 51.51932812558569, "lng": -0.08416869136455682, "labeledLatLngs": [{"label": "display", "lat": 51.51932812558569, "lng": -0.08416869136455682}], "distance": 301, "postalCode": "EC2M 2PG", "cc": "GB", "city": "London", "state": "Greater London", "country": "United Kingdom", "formattedAddress": ["5 Finsbury Ave", "London", "Greater London", "EC2M 2PG", "United Kingdom"]}, "categories": [{"id": "4bf58dd8d48988d107941735", "name": "Argentinian Restaurant", "pluralName": "Argentinian Restaurants", "shortName": "Argentinian", "icon": {"prefix": "https://ss3.4sqi.net/img/categories_v2/food/argentinian_", "suffix": ".png"}, "primary": true}], "photos": {"count": 0, "groups": []}}, "referralId": "e-0-4b58a4a8f964a5203e6328e3-24"}, {"reasons": {"count": 0, "items": [{"summary": "This spot is popular", "type": "general", "reasonName": "globalInteractionReason"}]}, "venue": {"id": "5a0c32456e46504e23b60b3f", "name": "Pol\u00fa Pok\u00e9", "location": {"address": "115 Worship St", "lat": 51.52169489320002, "lng": -0.08011787886299354, "labeledLatLngs": [{"label": "display", "lat": 51.52169489320002, "lng": -0.08011787886299354}], "distance": 264, "postalCode": "E C2A", "cc": "GB", "city": "London", "state": "Greater London", "country": "United Kingdom", "formattedAddress": ["115 Worship St", "London", "Greater London", "E C2A", "United Kingdom"]}, "categories": [{"id": "5bae9231bedf3950379f89d4", "name": "Poke Place", "pluralName": "Poke Places", "shortName": "Poke Place", "icon": {"prefix": "https://ss3.4sqi.net/img/categories_v2/food/default_", "suffix": ".png"}, "primary": true}], "photos": {"count": 0, "groups": []}}, "referralId": "e-0-5a0c32456e46504e23b60b3f-25"}, {"reasons": {"count": 0, "items": [{"summary": "This spot is popular", "type": "general", "reasonName": "globalInteractionReason"}]}, "venue": {"id": "4b069278f964a5204aed22e3", "name": "Hoxton Grill", "location": {"address": "81 Great Eastern St", "lat": 51.52557355201939, "lng": -0.08288347773486747, "labeledLatLngs": [{"label": "display", "lat": 51.52557355201939, "lng": -0.08288347773486747}], "distance": 400, "postalCode": "EC2A 3HU", "cc": "GB", "city": "London", "state": "Greater London", "country": "United Kingdom", "formattedAddress": ["81 Great Eastern St", "London", "Greater London", "EC2A 3HU", "United Kingdom"]}, "categories": [{"id": "4bf58dd8d48988d157941735", "name": "New American Restaurant", "pluralName": "New American Restaurants", "shortName": "New American", "icon": {"prefix": "https://ss3.4sqi.net/img/categories_v2/food/newamerican_", "suffix": ".png"}, "primary": true}], "photos": {"count": 0, "groups": []}, "venuePage": {"id": "33715582"}}, "referralId": "e-0-4b069278f964a5204aed22e3-26"}, {"reasons": {"count": 0, "items": [{"summary": "This spot is popular", "type": "general", "reasonName": "globalInteractionReason"}]}, "venue": {"id": "594532b6061b51682c154c31", "name": "Lido", "location": {"address": "45 Curtain Rd", "lat": 51.52363637800325, "lng": -0.08077797760101021, "labeledLatLngs": [{"label": "display", "lat": 51.52363637800325, "lng": -0.08077797760101021}], "distance": 280, "postalCode": "E C2A", "cc": "GB", "city": "Shoreditch", "state": "Greater London", "country": "United Kingdom", "formattedAddress": ["45 Curtain Rd", "Shoreditch", "Greater London", "E C2A", "United Kingdom"]}, "categories": [{"id": "4bf58dd8d48988d1c0941735", "name": "Mediterranean Restaurant", "pluralName": "Mediterranean Restaurants", "shortName": "Mediterranean", "icon": {"prefix": "https://ss3.4sqi.net/img/categories_v2/food/mediterranean_", "suffix": ".png"}, "primary": true}], "photos": {"count": 0, "groups": []}}, "referralId": "e-0-594532b6061b51682c154c31-27"}, {"reasons": {"count": 0, "items": [{"summary": "This spot is popular", "type": "general", "reasonName": "globalInteractionReason"}]}, "venue": {"id": "50237f538055249578a0f772", "name": "Angler Rooftop Restaurant and Terrace", "location": {"address": "South Place Hotel", "crossStreet": "at 3 South Pl", "lat": 51.51910998709554, "lng": -0.08672874544646893, "labeledLatLngs": [{"label": "display", "lat": 51.51910998709554, "lng": -0.08672874544646893}], "distance": 379, "postalCode": "EC2M 2AF", "cc": "GB", "city": "London", "state": "Greater London", "country": "United Kingdom", "formattedAddress": ["South Place Hotel (at 3 South Pl)", "London", "Greater London", "EC2M 2AF", "United Kingdom"]}, "categories": [{"id": "4bf58dd8d48988d1ce941735", "name": "Seafood Restaurant", "pluralName": "Seafood Restaurants", "shortName": "Seafood", "icon": {"prefix": "https://ss3.4sqi.net/img/categories_v2/food/seafood_", "suffix": ".png"}, "primary": true}], "photos": {"count": 0, "groups": []}, "venuePage": {"id": "34408636"}}, "referralId": "e-0-50237f538055249578a0f772-28"}, {"reasons": {"count": 0, "items": [{"summary": "This spot is popular", "type": "general", "reasonName": "globalInteractionReason"}]}, "venue": {"id": "4b97a213f964a520bb0c35e3", "name": "Toto's Sandwich Bar", "location": {"address": "39 Scrutton St.", "crossStreet": "New N. Pl.", "lat": 51.523213282856915, "lng": -0.08206696569460648, "labeledLatLngs": [{"label": "display", "lat": 51.523213282856915, "lng": -0.08206696569460648}], "distance": 182, "postalCode": "EC2A 4HU", "cc": "GB", "city": "Shoreditch", "state": "Greater London", "country": "United Kingdom", "formattedAddress": ["39 Scrutton St. (New N. Pl.)", "Shoreditch", "Greater London", "EC2A 4HU", "United Kingdom"]}, "categories": [{"id": "4bf58dd8d48988d1c5941735", "name": "Sandwich Place", "pluralName": "Sandwich Places", "shortName": "Sandwiches", "icon": {"prefix": "https://ss3.4sqi.net/img/categories_v2/food/deli_", "suffix": ".png"}, "primary": true}], "photos": {"count": 0, "groups": []}}, "referralId": "e-0-4b97a213f964a520bb0c35e3-29"}, {"reasons": {"count": 0, "items": [{"summary": "This spot is popular", "type": "general", "reasonName": "globalInteractionReason"}]}, "venue": {"id": "53d88e39498ebb65403ff587", "name": "Pret A Manger", "location": {"address": "1-2 Broadgate Plaza", "lat": 51.52117965497204, "lng": -0.07968934057578435, "labeledLatLngs": [{"label": "display", "lat": 51.52117965497204, "lng": -0.07968934057578435}], "distance": 306, "cc": "GB", "city": "London", "state": "Greater London", "country": "United Kingdom", "formattedAddress": ["1-2 Broadgate Plaza", "London", "Greater London", "United Kingdom"]}, "categories": [{"id": "4bf58dd8d48988d1c5941735", "name": "Sandwich Place", "pluralName": "Sandwich Places", "shortName": "Sandwiches", "icon": {"prefix": "https://ss3.4sqi.net/img/categories_v2/food/deli_", "suffix": ".png"}, "primary": true}], "photos": {"count": 0, "groups": []}}, "referralId": "e-0-53d88e39498ebb65403ff587-30"}, {"reasons": {"count": 0, "items": [{"summary": "This spot is popular", "type": "general", "reasonName": "globalInteractionReason"}]}, "venue": {"id": "5859295fd8b0ed132ad7679f", "name": "Sanjugo", "location": {"address": "35 Scrutton St", "lat": 51.52325681704436, "lng": -0.08220098807623671, "labeledLatLngs": [{"label": "display", "lat": 51.52325681704436, "lng": -0.08220098807623671}], "distance": 180, "postalCode": "EC2A 4HU", "cc": "GB", "city": "London", "state": "Greater London", "country": "United Kingdom", "formattedAddress": ["35 Scrutton St", "London", "Greater London", "EC2A 4HU", "United Kingdom"]}, "categories": [{"id": "4bf58dd8d48988d1d2941735", "name": "Sushi Restaurant", "pluralName": "Sushi Restaurants", "shortName": "Sushi", "icon": {"prefix": "https://ss3.4sqi.net/img/categories_v2/food/sushi_", "suffix": ".png"}, "primary": true}], "photos": {"count": 0, "groups": []}, "venuePage": {"id": "401587868"}}, "referralId": "e-0-5859295fd8b0ed132ad7679f-31"}, {"reasons": {"count": 0, "items": [{"summary": "This spot is popular", "type": "general", "reasonName": "globalInteractionReason"}]}, "venue": {"id": "4e438a271f6e0a1ba5d260d1", "name": "Paninis Sandwich Bar", "location": {"lat": 51.521992834347785, "lng": -0.08176814028407142, "labeledLatLngs": [{"label": "display", "lat": 51.521992834347785, "lng": -0.08176814028407142}], "distance": 147, "cc": "GB", "city": "Hackney", "state": "Greater London", "country": "United Kingdom", "formattedAddress": ["Hackney", "Greater London", "United Kingdom"]}, "categories": [{"id": "4bf58dd8d48988d1c5941735", "name": "Sandwich Place", "pluralName": "Sandwich Places", "shortName": "Sandwiches", "icon": {"prefix": "https://ss3.4sqi.net/img/categories_v2/food/deli_", "suffix": ".png"}, "primary": true}], "photos": {"count": 0, "groups": []}}, "referralId": "e-0-4e438a271f6e0a1ba5d260d1-32"}, {"reasons": {"count": 0, "items": [{"summary": "This spot is popular", "type": "general", "reasonName": "globalInteractionReason"}]}, "venue": {"id": "5135eaace4b09490b4b86807", "name": "K10", "location": {"address": "Appold Street", "lat": 51.520455, "lng": -0.082113, "labeledLatLngs": [{"label": "display", "lat": 51.520455, "lng": -0.082113}], "distance": 215, "postalCode": "EC2A 2AF", "cc": "GB", "city": "London", "state": "Greater London", "country": "United Kingdom", "formattedAddress": ["Appold Street", "London", "Greater London", "EC2A 2AF", "United Kingdom"]}, "categories": [{"id": "4bf58dd8d48988d111941735", "name": "Japanese Restaurant", "pluralName": "Japanese Restaurants", "shortName": "Japanese", "icon": {"prefix": "https://ss3.4sqi.net/img/categories_v2/food/japanese_", "suffix": ".png"}, "primary": true}], "photos": {"count": 0, "groups": []}}, "referralId": "e-0-5135eaace4b09490b4b86807-33"}, {"reasons": {"count": 0, "items": [{"summary": "This spot is popular", "type": "general", "reasonName": "globalInteractionReason"}]}, "venue": {"id": "599b160266f3cd6c7313748a", "name": "Shoryu Ramen", "location": {"address": "45 Great Eastern St", "crossStreet": "Curtain Rd", "lat": 51.52441231563904, "lng": -0.08039150632941364, "labeledLatLngs": [{"label": "display", "lat": 51.52441231563904, "lng": -0.08039150632941364}], "distance": 359, "postalCode": "EC2A 4NR", "cc": "GB", "city": "London", "state": "Greater London", "country": "United Kingdom", "formattedAddress": ["45 Great Eastern St (Curtain Rd)", "London", "Greater London", "EC2A 4NR", "United Kingdom"]}, "categories": [{"id": "55a59bace4b013909087cb24", "name": "Ramen Restaurant", "pluralName": "Ramen Restaurants", "shortName": "Ramen", "icon": {"prefix": "https://ss3.4sqi.net/img/categories_v2/food/ramen_", "suffix": ".png"}, "primary": true}], "photos": {"count": 0, "groups": []}}, "referralId": "e-0-599b160266f3cd6c7313748a-34"}, {"reasons": {"count": 0, "items": [{"summary": "This spot is popular", "type": "general", "reasonName": "globalInteractionReason"}]}, "venue": {"id": "4b7bf6abf964a52004762fe3", "name": "Veggie Pret", "location": {"address": "57, Great Eastern Street", "lat": 51.52461108592588, "lng": -0.08112871532688803, "labeledLatLngs": [{"label": "display", "lat": 51.52461108592588, "lng": -0.08112871532688803}], "distance": 345, "postalCode": "EC2A 3QD", "cc": "GB", "city": "London", "state": "Greater London", "country": "United Kingdom", "formattedAddress": ["57, Great Eastern Street", "London", "Greater London", "EC2A 3QD", "United Kingdom"]}, "categories": [{"id": "4bf58dd8d48988d1c5941735", "name": "Sandwich Place", "pluralName": "Sandwich Places", "shortName": "Sandwiches", "icon": {"prefix": "https://ss3.4sqi.net/img/categories_v2/food/deli_", "suffix": ".png"}, "primary": true}], "photos": {"count": 0, "groups": []}}, "referralId": "e-0-4b7bf6abf964a52004762fe3-35"}, {"reasons": {"count": 0, "items": [{"summary": "This spot is popular", "type": "general", "reasonName": "globalInteractionReason"}]}, "venue": {"id": "5a730d8a4acb1910e67a4a90", "name": "Little Farm", "location": {"address": "115 Worship Street", "lat": 51.52171686209015, "lng": -0.08032735492064617, "labeledLatLngs": [{"label": "display", "lat": 51.52171686209015, "lng": -0.08032735492064617}], "distance": 250, "postalCode": "E C2A 2BA", "cc": "GB", "city": "London", "state": "Greater London", "country": "United Kingdom", "formattedAddress": ["115 Worship Street", "London", "Greater London", "E C2A 2BA", "United Kingdom"]}, "categories": [{"id": "56aa371be4b08b9a8d573538", "name": "Theme Restaurant", "pluralName": "Theme Restaurants", "shortName": "Theme Restaurant", "icon": {"prefix": "https://ss3.4sqi.net/img/categories_v2/food/default_", "suffix": ".png"}, "primary": true}], "photos": {"count": 0, "groups": []}}, "referralId": "e-0-5a730d8a4acb1910e67a4a90-36"}, {"reasons": {"count": 0, "items": [{"summary": "This spot is popular", "type": "general", "reasonName": "globalInteractionReason"}]}, "venue": {"id": "56c5b90fcd107873a1529b73", "name": "Shoreditch Stop", "location": {"address": "53 Great Eastern Rd", "lat": 51.52465935269137, "lng": -0.08086882499238611, "labeledLatLngs": [{"label": "display", "lat": 51.52465935269137, "lng": -0.08086882499238611}], "distance": 359, "postalCode": "EC2A 3HP", "cc": "GB", "neighborhood": "Hackney", "city": "London", "state": "Greater London", "country": "United Kingdom", "formattedAddress": ["53 Great Eastern Rd", "London", "Greater London", "EC2A 3HP", "United Kingdom"]}, "categories": [{"id": "4bf58dd8d48988d10f941735", "name": "Indian Restaurant", "pluralName": "Indian Restaurants", "shortName": "Indian", "icon": {"prefix": "https://ss3.4sqi.net/img/categories_v2/food/indian_", "suffix": ".png"}, "primary": true}], "photos": {"count": 0, "groups": []}}, "referralId": "e-0-56c5b90fcd107873a1529b73-37"}, {"reasons": {"count": 0, "items": [{"summary": "This spot is popular", "type": "general", "reasonName": "globalInteractionReason"}]}, "venue": {"id": "4c6d3c0bc7edb713b57d14e7", "name": "Pret A Manger", "location": {"address": "Units 1 and 2, 201 Bishopsgate", "lat": 51.52117438597946, "lng": -0.07934179078998849, "labeledLatLngs": [{"label": "display", "lat": 51.52117438597946, "lng": -0.07934179078998849}], "distance": 330, "postalCode": "EC2M 3AB", "cc": "GB", "city": "Bishopsgate", "state": "Greater London", "country": "United Kingdom", "formattedAddress": ["Units 1 and 2, 201 Bishopsgate", "Bishopsgate", "Greater London", "EC2M 3AB", "United Kingdom"]}, "categories": [{"id": "4bf58dd8d48988d1c5941735", "name": "Sandwich Place", "pluralName": "Sandwich Places", "shortName": "Sandwiches", "icon": {"prefix": "https://ss3.4sqi.net/img/categories_v2/food/deli_", "suffix": ".png"}, "primary": true}], "photos": {"count": 0, "groups": []}}, "referralId": "e-0-4c6d3c0bc7edb713b57d14e7-38"}, {"reasons": {"count": 0, "items": [{"summary": "This spot is popular", "type": "general", "reasonName": "globalInteractionReason"}]}, "venue": {"id": "59d7476f419a9e1ec11e4a19", "name": "Camino", "location": {"address": "2 Curtain Rd", "lat": 51.52206593001304, "lng": -0.0808080167106202, "labeledLatLngs": [{"label": "display", "lat": 51.52206593001304, "lng": -0.0808080167106202}], "distance": 214, "postalCode": "EC2A 3BL", "cc": "GB", "neighborhood": "Hackney", "city": "London", "state": "Greater London", "country": "United Kingdom", "formattedAddress": ["2 Curtain Rd", "London", "Greater London", "EC2A 3BL", "United Kingdom"]}, "categories": [{"id": "4bf58dd8d48988d150941735", "name": "Spanish Restaurant", "pluralName": "Spanish Restaurants", "shortName": "Spanish", "icon": {"prefix": "https://ss3.4sqi.net/img/categories_v2/food/spanish_", "suffix": ".png"}, "primary": true}], "photos": {"count": 0, "groups": []}}, "referralId": "e-0-59d7476f419a9e1ec11e4a19-39"}, {"reasons": {"count": 0, "items": [{"summary": "This spot is popular", "type": "general", "reasonName": "globalInteractionReason"}]}, "venue": {"id": "54eb0cb5498e2c090a25146e", "name": "My Pasta Bar by Gino D'Acampo", "location": {"address": "201 Bishopsgate", "crossStreet": "Unit 4", "lat": 51.521293921454756, "lng": -0.07950780889855417, "labeledLatLngs": [{"label": "display", "lat": 51.521293921454756, "lng": -0.07950780889855417}], "distance": 315, "postalCode": "EC2M 3UG", "cc": "GB", "city": "London", "state": "Greater London", "country": "United Kingdom", "formattedAddress": ["201 Bishopsgate (Unit 4)", "London", "Greater London", "EC2M 3UG", "United Kingdom"]}, "categories": [{"id": "4bf58dd8d48988d110941735", "name": "Italian Restaurant", "pluralName": "Italian Restaurants", "shortName": "Italian", "icon": {"prefix": "https://ss3.4sqi.net/img/categories_v2/food/italian_", "suffix": ".png"}, "primary": true}], "photos": {"count": 0, "groups": []}}, "referralId": "e-0-54eb0cb5498e2c090a25146e-40"}, {"reasons": {"count": 0, "items": [{"summary": "This spot is popular", "type": "general", "reasonName": "globalInteractionReason"}]}, "venue": {"id": "4f8e7977e4b068786b2b4502", "name": "pod", "location": {"address": "55 Great Eastern St.", "lat": 51.524679766769495, "lng": -0.08088221170182253, "labeledLatLngs": [{"label": "display", "lat": 51.524679766769495, "lng": -0.08088221170182253}], "distance": 361, "postalCode": "EC2A 3HP", "cc": "GB", "city": "Shoreditch", "state": "Greater London", "country": "United Kingdom", "formattedAddress": ["55 Great Eastern St.", "Shoreditch", "Greater London", "EC2A 3HP", "United Kingdom"]}, "categories": [{"id": "4bf58dd8d48988d1bd941735", "name": "Salad Place", "pluralName": "Salad Places", "shortName": "Salad", "icon": {"prefix": "https://ss3.4sqi.net/img/categories_v2/food/salad_", "suffix": ".png"}, "primary": true}], "photos": {"count": 0, "groups": []}}, "referralId": "e-0-4f8e7977e4b068786b2b4502-41"}, {"reasons": {"count": 0, "items": [{"summary": "This spot is popular", "type": "general", "reasonName": "globalInteractionReason"}]}, "venue": {"id": "5be9da3be07550002cd97f60", "name": "Island Pok\u00e9", "location": {"address": "42 Great Eastern St", "lat": 51.524765, "lng": -0.0808, "labeledLatLngs": [{"label": "display", "lat": 51.524765, "lng": -0.0808}], "distance": 372, "postalCode": "EC2A 3EP", "cc": "GB", "city": "London", "state": "Greater London", "country": "United Kingdom", "formattedAddress": ["42 Great Eastern St", "London", "Greater London", "EC2A 3EP", "United Kingdom"]}, "categories": [{"id": "5bae9231bedf3950379f89d4", "name": "Poke Place", "pluralName": "Poke Places", "shortName": "Poke Place", "icon": {"prefix": "https://ss3.4sqi.net/img/categories_v2/food/default_", "suffix": ".png"}, "primary": true}], "photos": {"count": 0, "groups": []}}, "referralId": "e-0-5be9da3be07550002cd97f60-42"}, {"reasons": {"count": 0, "items": [{"summary": "This spot is popular", "type": "general", "reasonName": "globalInteractionReason"}]}, "venue": {"id": "4f1582a1e4b0960d02ccc617", "name": "itsu", "location": {"address": "49-51 Great Eastern Street", "lat": 51.5245209447574, "lng": -0.08054199915080863, "labeledLatLngs": [{"label": "display", "lat": 51.5245209447574, "lng": -0.08054199915080863}], "distance": 361, "postalCode": "EC2A 3HP", "cc": "GB", "city": "London", "state": "Greater London", "country": "United Kingdom", "formattedAddress": ["49-51 Great Eastern Street", "London", "Greater London", "EC2A 3HP", "United Kingdom"]}, "categories": [{"id": "4bf58dd8d48988d1d2941735", "name": "Sushi Restaurant", "pluralName": "Sushi Restaurants", "shortName": "Sushi", "icon": {"prefix": "https://ss3.4sqi.net/img/categories_v2/food/sushi_", "suffix": ".png"}, "primary": true}], "photos": {"count": 0, "groups": []}}, "referralId": "e-0-4f1582a1e4b0960d02ccc617-43"}]}]}}