{"meta": {"code": 200, "requestId": "5fedda433577fa053cbaade8"}, "response": {"headerLocation": "Golders Green", "headerFullLocation": "Golders Green, London", "headerLocationGranularity": "neighborhood", "query": "food", "totalResults": 4, "suggestedBounds": {"ne": {"lat": 51.5682430036, "lng": -0.218103592676001}, "sw": {"lat": 51.56104299639999, "lng": -0.229664407323999}}, "groups": [{"type": "Recommended Places", "name": "recommended", "items": [{"reasons": {"count": 0, "items": [{"summary": "This spot is popular", "type": "general", "reasonName": "globalInteractionReason"}]}, "venue": {"id": "4fddb62ee4b06c9270d71299", "name": "Wing Tai Restaurant", "location": {"address": "Wing Yip", "crossStreet": "395 Edgware Rd", "lat": 51.56687760373034, "lng": -0.22817289972248503, "labeledLatLngs": [{"label": "display", "lat": 51.56687760373034, "lng": -0.22817289972248503}], "distance": 387, "postalCode": "NW2 6LN", "cc": "GB", "city": "Cricklewood", "state": "Greater London", "country": "United Kingdom", "formattedAddress": ["Wing Yip (395 Edgware Rd)", "Cricklewood", "Greater London", "NW2 6LN", "United Kingdom"]}, "categories": [{"id": "4bf58dd8d48988d145941735", "name": "Chinese Restaurant", "pluralName": "Chinese Restaurants", "shortName": "Chinese", "icon": {"prefix": "https://ss3.4sqi.net/img/categories_v2/food/asian_", "suffix": ".png"}, "primary": true}], "photos": {"count": 0, "groups": []}}, "referralId": "e-0-4fddb62ee4b06c9270d71299-0"}, {"reasons": {"count": 0, "items": [{"summary": "This spot is popular", "type": "general", "reasonName": "globalInteractionReason"}]}, "venue": {"id": "5167f023498e157250db29a8", "name": "Skippers Choice", "location": {"lat": 51.563971004183415, "lng": -0.22352003912864285, "labeledLatLngs": [{"label": "display", "lat": 51.563971004183415, "lng": -0.22352003912864285}], "distance": 78, "cc": "GB", "country": "United Kingdom", "formattedAddress": ["United Kingdom"]}, "categories": [{"id": "4edd64a0c7ddd24ca188df1a", "name": "Fish & Chips Shop", "pluralName": "Fish & Chips Shops", "shortName": "Fish & Chips", "icon": {"prefix": "https://ss3.4sqi.net/img/categories_v2/food/fishandchips_", "suffix": ".png"}, "primary": true}], "photos": {"count": 0, "groups": []}}, "referralId": "e-0-5167f023498e157250db29a8-1"}, {"reasons": {"count": 0, "items": [{"summary": "This spot is popular", "type": "general", "reasonName": "globalInteractionReason"}]}, "venue": {"id": "4f8adea0e4b0af04c1cfa519", "name": "The hummingbird bakery", "location": {"lat": 51.56310717346538, "lng": -0.22186875500609946, "labeledLatLngs": [{"label": "display", "lat": 51.56310717346538, "lng": -0.22186875500609946}], "distance": 220, "cc": "GB", "country": "United Kingdom", "formattedAddress": ["United Kingdom"]}, "categories": [{"id": "4bf58dd8d48988d16a941735", "name": "Bakery", "pluralName": "Bakeries", "shortName": "Bakery", "icon": {"prefix": "https://ss3.4sqi.net/img/categories_v2/food/bakery_", "suffix": ".png"}, "primary": true}], "photos": {"count": 0, "groups": []}}, "referralId": "e-0-4f8adea0e4b0af04c1cfa519-2"}, {"reasons": {"count": 0, "items": [{"summary": "This spot is popular", "type": "general", "reasonName": "globalInteractionReason"}]}, "venue": {"id": "51cd88a5498e653abc2b6fb1", "name": "Staff Canteen Cricklewood Garage", "location": {"address": "Edgware Road", "lat": 51.56195782513167, "lng": -0.2209562815390338, "labeledLatLngs": [{"label": "display", "lat": 51.56195782513167, "lng": -0.2209562815390338}], "distance": 361, "cc": "GB", "city": "Cricklewood", "state": "Greater London", "country": "United Kingdom", "formattedAddress": ["Edgware Road", "Cricklewood", "Greater London", "United Kingdom"]}, "categories": [{"id": "4bf58dd8d48988d16d941735", "name": "Caf\u00e9", "pluralName": "Caf\u00e9s", "shortName": "Caf\u00e9", "icon": {"prefix": "https://ss3.4sqi.net/img/categories_v2/food/cafe_", "suffix": ".png"}, "primary": true}], "photos": {"count": 0, "groups": []}}, "referralId": "e-0-51cd88a5498e653abc2b6fb1-3"}]}]}}